"iso3","iso2","admin1_id","admin2_id","iu_id","location","site_id","longitude","latitude","georeliability","location_type","survey_type","year","age_start","age_end","hk_examined","hk_positive","asc_examined","asc_positive","tt_examined","tt_positive","quality","sn","hk_prevalence","asc_prevalence","tt_prevalence","sth_prevalence","shortest","id","src","dst","identifier"
"BEN","BJ",375,3262.0,3262,"","",1.885303,6.396553,3,"","mapping+lf-tas",2017,8.0,10.0,57.0,1.0,57.0,3.0,57.0,1.0,1,22309,0.0175438596491228,0.0526315789473684,0.0175438596491228,0.0807367815870623,0.0,0,0,1,1
"BEN","BJ",375,3262.0,3262,"","",1.885303,6.396553,3,"","mapping+lf-tas",2017,8.0,10.0,57.0,1.0,57.0,0.0,57.0,0.0,1,22311,0.0175438596491228,0.0,0.0,0.0165508109897384,0.0,1,1,0,1
"BEN","BJ",375,3262.0,3262,"","",1.885303,6.396553,3,"","mapping+lf-tas",2017,8.0,10.0,57.0,0.0,57.0,0.0,57.0,0.0,1,22310,0.0,0.0,0.0,0.0,0.0,2,2,0,1
"BEN","BJ",375,3266.0,3266,"","",1.745019,6.723203,3,"","mapping+lf-tas",2017,8.0,10.0,80.0,18.0,80.0,5.0,80.0,0.0,1,22305,0.225,0.0625,0.0,0.2579599056603773,0.0,3,3,4,2
"BEN","BJ",375,3266.0,3266,"","",1.745019,6.723203,3,"","mapping+lf-tas",2017,8.0,10.0,80.0,3.0,80.0,3.0,80.0,2.0,1,22308,0.0375,0.0375,0.025,0.0912772700471697,0.0,4,4,3,2
"BEN","BJ",375,3266.0,3266,"","",1.745019,6.723203,3,"","mapping+lf-tas",2017,8.0,10.0,80.0,5.0,80.0,1.0,80.0,0.0,1,22307,0.0625,0.0125,0.0,0.0700176886792452,0.0,5,5,3,2
"BEN","BJ",375,3266.0,3266,"","",1.745019,6.723203,3,"","mapping+lf-tas",2017,8.0,10.0,80.0,1.0,80.0,1.0,80.0,0.0,1,22306,0.0125,0.0125,0.0,0.0234375,0.0,6,6,3,2
"BEN","BJ",375,3266.0,3266,"","",1.745019,6.723203,3,"","mapping+lf-tas",2017,8.0,10.0,80.0,12.0,80.0,0.0,80.0,0.0,1,22304,0.15,0.0,0.0,0.1415094339622641,0.0,7,7,3,2
"BEN","BJ",373,3255.0,3255,"","",1.684444,6.904556,3,"","mapping+lf-tas",2017,8.0,10.0,133.0,42.0,133.0,0.0,133.0,0.0,1,22343,0.3157894736842105,0.0,0.0,0.2979145978152929,0.0,8,8,9,3
"BEN","BJ",373,3255.0,3255,"","",1.684444,6.904556,3,"","mapping+lf-tas",2017,8.0,10.0,133.0,41.0,133.0,0.0,133.0,0.0,1,22344,0.3082706766917293,0.0,0.0,0.290821393105405,0.0,9,9,8,3
"BEN","BJ",373,3255.0,3255,"","",1.684444,6.904556,3,"","mapping+lf-tas",2017,8.0,10.0,134.0,36.0,134.0,0.0,134.0,0.0,1,22345,0.2686567164179104,0.0,0.0,0.2534497324697268,0.0,10,10,8,3
"BEN","BJ",373,3258.0,3258,"","",1.7902749999999998,6.875742,3,"","mapping+lf-tas",2017,8.0,10.0,67.0,30.0,67.0,23.0,67.0,0.0,1,22336,0.4477611940298507,0.3432835820895522,0.0,0.6012601033133403,0.0,11,11,12,4
"BEN","BJ",373,3258.0,3258,"","",1.7902749999999998,6.875742,3,"","mapping+lf-tas",2017,8.0,10.0,67.0,15.0,67.0,14.0,67.0,1.0,1,22334,0.2238805970149253,0.208955223880597,0.0149253731343283,0.372847322460818,0.0,12,12,11,4
"BEN","BJ",373,3258.0,3258,"","",1.7902749999999998,6.875742,3,"","mapping+lf-tas",2017,8.0,10.0,67.0,4.0,67.0,14.0,67.0,0.0,1,22333,0.0597014925373134,0.208955223880597,0.0,0.2416809223384625,0.0,13,13,11,4
"BEN","BJ",373,3258.0,3258,"","",1.7902749999999998,6.875742,3,"","mapping+lf-tas",2017,8.0,10.0,67.0,11.0,67.0,12.0,67.0,0.0,1,22335,0.1641791044776119,0.1791044776119403,0.0,0.2961116691955597,0.0,14,14,11,4
"BEN","BJ",373,3258.0,3258,"","",1.7902749999999998,6.875742,3,"","mapping+lf-tas",2017,8.0,10.0,67.0,14.0,67.0,5.0,67.0,0.0,1,22332,0.208955223880597,0.0746268656716417,0.0,0.2528192604984091,0.0,15,15,11,4
"BEN","BJ",373,3258.0,3258,"","",1.7902749999999998,6.875742,3,"","mapping+lf-tas",2017,8.0,10.0,67.0,10.0,67.0,1.0,67.0,0.0,1,22331,0.1492537313432835,0.0149253731343283,0.0,0.1527843743826628,0.0,16,16,11,4
"BEN","BJ",373,3265.0,3265,"","",1.910447,6.914883,3,"","mapping+lf-tas",2017,8.0,10.0,133.0,26.0,133.0,9.0,133.0,0.0,1,22338,0.1954887218045112,0.0676691729323308,0.0,0.2357823911459738,0.0,17,17,18,5
"BEN","BJ",373,3265.0,3265,"","",1.910447,6.914883,3,"","mapping+lf-tas",2017,8.0,10.0,133.0,12.0,133.0,4.0,133.0,1.0,1,22337,0.0902255639097744,0.0300751879699248,0.0075187969924812,0.1171904564000246,0.0,18,18,17,5
"BEN","BJ",373,3265.0,3265,"","",1.910447,6.914883,3,"","mapping+lf-tas",2017,8.0,10.0,134.0,21.0,134.0,1.0,134.0,1.0,1,22339,0.1567164179104477,0.0074626865671641,0.0074626865671641,0.1596752605119595,0.0,19,19,17,5
"BEN","BJ",373,3254.0,3254,"","",1.726861,6.985417,3,"","mapping+lf-tas",2017,8.0,10.0,50.0,8.0,50.0,4.0,50.0,0.0,1,22303,0.16,0.08,0.0,0.2143396226415094,0.0,20,20,21,6
"BEN","BJ",373,3254.0,3254,"","",1.726861,6.985417,3,"","mapping+lf-tas",2017,8.0,10.0,48.0,9.0,48.0,1.0,48.0,0.0,1,22326,0.1875,0.0208333333333333,0.0,0.1928557389937106,0.0,21,21,20,6
"BEN","BJ",373,3254.0,3254,"","",1.726861,6.985417,3,"","mapping+lf-tas",2017,8.0,10.0,49.0,18.0,49.0,0.0,49.0,1.0,1,22324,0.3673469387755102,0.0,0.0204081632653061,0.3587341752257314,0.0,22,22,20,6
"BEN","BJ",373,3254.0,3254,"","",1.726861,6.985417,3,"","mapping+lf-tas",2017,8.0,10.0,49.0,14.0,49.0,0.0,49.0,0.0,1,22330,0.2857142857142857,0.0,0.0,0.2695417789757412,0.0,23,23,20,6
"BEN","BJ",373,3254.0,3254,"","",1.726861,6.985417,3,"","mapping+lf-tas",2017,8.0,10.0,50.0,4.0,50.0,0.0,50.0,0.0,1,22327,0.08,0.0,0.0,0.0754716981132075,0.0,24,24,20,6
"BEN","BJ",373,3254.0,3254,"","",1.726861,6.985417,3,"","mapping+lf-tas",2017,8.0,10.0,50.0,1.0,50.0,0.0,50.0,0.0,1,22325,0.02,0.0,0.0,0.0188679245283018,0.0,25,25,20,6
"BEN","BJ",373,3254.0,3254,"","",1.726861,6.985417,3,"","mapping+lf-tas",2017,8.0,10.0,48.0,0.0,48.0,0.0,48.0,0.0,1,22328,0.0,0.0,0.0,0.0,0.0,26,26,20,6
"BEN","BJ",373,3257.0,3257,"","",1.7511329999999998,7.031536,3,"","mapping+lf-tas",2017,8.0,10.0,133.0,21.0,133.0,5.0,133.0,1.0,1,22341,0.1578947368421052,0.037593984962406,0.0075187969924812,0.1845720916892285,0.0,27,27,28,7
"BEN","BJ",373,3257.0,3257,"","",1.7511329999999998,7.031536,3,"","mapping+lf-tas",2017,8.0,10.0,133.0,42.0,133.0,1.0,133.0,0.0,1,22342,0.3157894736842105,0.0075187969924812,0.0,0.3027678431431109,0.0,28,28,27,7
"BEN","BJ",373,3257.0,3257,"","",1.7511329999999998,7.031536,3,"","mapping+lf-tas",2017,8.0,10.0,134.0,48.0,134.0,1.0,134.0,0.0,1,22340,0.3582089552238806,0.0074626865671641,0.0,0.3424513590874128,0.0,29,29,27,7
"BEN","BJ",371,3248.0,3248,"","",1.6703,7.819086,3,"","mapping+lf-tas",2017,8.0,10.0,48.0,4.0,48.0,0.0,48.0,0.0,1,22295,0.0833333333333333,0.0,0.0,0.0786163522012578,0.0,30,30,31,8
"BEN","BJ",371,3248.0,3248,"","",1.6703,7.819086,3,"","mapping+lf-tas",2017,8.0,10.0,48.0,1.0,48.0,0.0,48.0,0.0,1,22290,0.0208333333333333,0.0,0.0,0.0196540880503144,0.0,31,31,30,8
"BEN","BJ",371,3248.0,3248,"","",1.6703,7.819086,3,"","mapping+lf-tas",2017,8.0,10.0,50.0,1.0,50.0,0.0,50.0,1.0,1,22301,0.02,0.0,0.02,0.0373584905660377,0.0,32,32,30,8
"BEN","BJ",371,3248.0,3248,"","",1.6703,7.819086,3,"","mapping+lf-tas",2017,8.0,10.0,50.0,1.0,50.0,0.0,50.0,0.0,1,22296,0.02,0.0,0.0,0.0188679245283018,0.0,33,33,30,8
"BEN","BJ",371,3248.0,3248,"","",1.6703,7.819086,3,"","mapping+lf-tas",2017,8.0,10.0,50.0,0.0,50.0,0.0,50.0,0.0,1,22298,0.0,0.0,0.0,0.0,0.0,34,34,30,8
"BEN","BJ",371,3244.0,3244,"","",1.812281,8.109378,3,"","mapping+lf-tas",2017,8.0,10.0,50.0,11.0,50.0,0.0,50.0,0.0,1,22293,0.22,0.0,0.0,0.2075471698113207,0.0,35,35,36,9
"BEN","BJ",371,3244.0,3244,"","",1.812281,8.109378,3,"","mapping+lf-tas",2017,8.0,10.0,50.0,5.0,50.0,0.0,50.0,2.0,1,22288,0.1,0.0,0.04,0.1283018867924528,0.0,36,36,35,9
"BEN","BJ",371,3244.0,3244,"","",1.812281,8.109378,3,"","mapping+lf-tas",2017,8.0,10.0,50.0,3.0,50.0,0.0,50.0,0.0,1,22286,0.06,0.0,0.0,0.0566037735849056,0.0,37,37,35,9
"BEN","BJ",371,3244.0,3244,"","",1.812281,8.109378,3,"","mapping+lf-tas",2017,8.0,10.0,50.0,2.0,50.0,0.0,50.0,0.0,1,22287,0.04,0.0,0.0,0.0377358490566037,0.0,38,38,35,9
"BEN","BJ",371,3244.0,3244,"","",1.812281,8.109378,3,"","mapping+lf-tas",2017,8.0,10.0,50.0,0.0,50.0,0.0,50.0,0.0,1,22294,0.0,0.0,0.0,0.0,0.0,39,39,35,9
"BEN","BJ",371,3246.0,3246,"","",2.340944,8.069011,3,"","mapping+lf-tas",2017,8.0,10.0,48.0,5.0,48.0,0.0,48.0,1.0,1,22280,0.1041666666666666,0.0,0.0208333333333333,0.1158772274633123,0.0,40,40,41,10
"BEN","BJ",371,3246.0,3246,"","",2.340944,8.069011,3,"","mapping+lf-tas",2017,8.0,10.0,48.0,4.0,48.0,0.0,48.0,1.0,1,22283,0.0833333333333333,0.0,0.0208333333333333,0.0966325995807127,0.0,41,41,40,10
"BEN","BJ",371,3246.0,3246,"","",2.340944,8.069011,3,"","mapping+lf-tas",2017,8.0,10.0,49.0,4.0,49.0,0.0,49.0,0.0,1,22285,0.0816326530612244,0.0,0.0,0.0770119368502117,0.0,42,42,40,10
"BEN","BJ",371,3246.0,3246,"","",2.340944,8.069011,3,"","mapping+lf-tas",2017,8.0,10.0,50.0,3.0,50.0,0.0,50.0,0.0,1,22279,0.06,0.0,0.0,0.0566037735849056,0.0,43,43,40,10
"BEN","BJ",371,3246.0,3246,"","",2.340944,8.069011,3,"","mapping+lf-tas",2017,8.0,10.0,48.0,2.0,48.0,0.0,48.0,0.0,1,22302,0.0416666666666666,0.0,0.0,0.0393081761006289,0.0,44,44,40,10
"BEN","BJ",371,3246.0,3246,"","",2.340944,8.069011,3,"","mapping+lf-tas",2017,8.0,10.0,50.0,1.0,50.0,0.0,50.0,0.0,1,22281,0.02,0.0,0.0,0.0188679245283018,0.0,45,45,40,10
"BEN","BJ",371,3246.0,3246,"","",2.340944,8.069011,3,"","mapping+lf-tas",2017,8.0,10.0,48.0,0.0,48.0,0.0,48.0,1.0,1,22284,0.0,0.0,0.0208333333333333,0.0196540880503144,0.0,46,46,40,10
"BEN","BJ",371,3246.0,3246,"","",2.340944,8.069011,3,"","mapping+lf-tas",2017,8.0,10.0,50.0,0.0,50.0,0.0,50.0,0.0,1,22282,0.0,0.0,0.0,0.0,0.0,47,47,40,10
"BEN","BJ",370,3243.0,3243,"","",2.930886,9.215667,3,"","mapping+lf-tas",2017,8.0,10.0,50.0,13.0,50.0,0.0,50.0,0.0,1,22319,0.26,0.0,0.0,0.2452830188679245,0.0,48,48,49,11
"BEN","BJ",370,3243.0,3243,"","",2.930886,9.215667,3,"","mapping+lf-tas",2017,8.0,10.0,50.0,13.0,50.0,0.0,50.0,1.0,1,22318,0.26,0.0,0.02,0.2592452830188679,0.0,49,49,48,11
"BEN","BJ",370,3243.0,3243,"","",2.930886,9.215667,3,"","mapping+lf-tas",2017,8.0,10.0,50.0,9.0,50.0,0.0,50.0,0.0,1,22316,0.18,0.0,0.0,0.1698113207547169,0.0,50,50,48,11
"BEN","BJ",370,3243.0,3243,"","",2.930886,9.215667,3,"","mapping+lf-tas",2017,8.0,10.0,50.0,7.0,50.0,0.0,50.0,0.0,1,22320,0.14,0.0,0.0,0.1320754716981132,0.0,51,51,48,11
"BEN","BJ",370,3243.0,3243,"","",2.930886,9.215667,3,"","mapping+lf-tas",2017,8.0,10.0,46.0,6.0,46.0,0.0,46.0,0.0,1,22321,0.1304347826086956,0.0,0.0,0.1230516817063166,0.0,52,52,48,11
"BEN","BJ",370,3243.0,3243,"","",2.930886,9.215667,3,"","mapping+lf-tas",2017,8.0,10.0,50.0,5.0,50.0,0.0,50.0,0.0,1,22323,0.1,0.0,0.0,0.0943396226415094,0.0,53,53,48,11
"BEN","BJ",370,3243.0,3243,"","",2.930886,9.215667,3,"","mapping+lf-tas",2017,8.0,10.0,50.0,3.0,50.0,0.0,50.0,0.0,1,22317,0.06,0.0,0.0,0.0566037735849056,0.0,54,54,48,11
"BEN","BJ",368,3217.0,3217,"","",1.060183,10.17373,3,"","mapping+lf-tas",2017,8.0,10.0,124.0,12.0,124.0,2.0,124.0,0.0,1,22271,0.0967741935483871,0.0161290322580645,0.0,0.1050399544499636,0.0,55,55,56,12
"BEN","BJ",368,3217.0,3217,"","",1.060183,10.17373,3,"","mapping+lf-tas",2017,8.0,10.0,125.0,12.0,125.0,2.0,125.0,0.0,1,22270,0.096,0.016,0.0,0.1042113207547169,0.0,56,56,55,12
"BEN","BJ",368,3217.0,3217,"","",1.060183,10.17373,3,"","mapping+lf-tas",2017,8.0,10.0,123.0,5.0,123.0,0.0,123.0,0.0,1,22269,0.040650406504065,0.0,0.0,0.0383494400981745,0.0,57,57,55,12
"BEN","BJ",368,3225.0,3225,"","",1.119836,10.52666,3,"","mapping+lf-tas",2017,8.0,10.0,93.0,1.0,93.0,0.0,93.0,0.0,1,22275,0.010752688172043,0.0,0.0,0.0101440454453235,0.0,58,58,59,13
"BEN","BJ",368,3225.0,3225,"","",1.119836,10.52666,3,"","mapping+lf-tas",2017,8.0,10.0,93.0,0.0,93.0,0.0,93.0,0.0,1,22276,0.0,0.0,0.0,0.0,0.0,59,59,58,13
"BEN","BJ",368,3221.0,3221,"","",0.8969111,10.88658,3,"","mapping+lf-tas",2017,8.0,10.0,46.0,4.0,46.0,0.0,46.0,0.0,1,22264,0.0869565217391304,0.0,0.0,0.0820344544708777,0.0,60,60,61,14
"BEN","BJ",368,3221.0,3221,"","",0.8969111,10.88658,3,"","mapping+lf-tas",2017,8.0,10.0,48.0,4.0,48.0,0.0,48.0,0.0,1,22265,0.0833333333333333,0.0,0.0,0.0786163522012578,0.0,61,61,60,14
"BEN","BJ",368,3221.0,3221,"","",0.8969111,10.88658,3,"","mapping+lf-tas",2017,8.0,10.0,50.0,4.0,50.0,0.0,50.0,0.0,1,22274,0.08,0.0,0.0,0.0754716981132075,0.0,62,62,60,14
"BEN","BJ",368,3221.0,3221,"","",0.8969111,10.88658,3,"","mapping+lf-tas",2017,8.0,10.0,48.0,1.0,48.0,0.0,48.0,0.0,1,22268,0.0208333333333333,0.0,0.0,0.0196540880503144,0.0,63,63,60,14
"BEN","BJ",368,3221.0,3221,"","",0.8969111,10.88658,3,"","mapping+lf-tas",2017,8.0,10.0,46.0,0.0,4.0,0.0,6.0,1.0,1,22267,0.0,0.0,0.1666666666666666,0.1572327044025157,0.0,64,64,60,14
"BEN","BJ",368,3221.0,3221,"","",0.8969111,10.88658,3,"","mapping+lf-tas",2017,8.0,10.0,48.0,0.0,48.0,0.0,48.0,0.0,1,22266,0.0,0.0,0.0,0.0,0.0,65,65,60,14
"BEN","BJ",376,3275.0,3275,"acron c","",2.631317,6.468061,3,"","mapping",2015,8.0,14.0,"","","","","","",2,22109,"","","","",3034.8930937510713,66,66,66,15
"BEN","BJ",369,3230.0,3230,"adjara adovie/a","",2.201858,6.410489,3,"","mapping",2015,8.0,14.0,"","","","","","",2,22219,"","","","",1283.8914659028965,67,67,67,16
"BEN","BJ",378,3286.0,3286,"adogon","",2.529119,7.035931,3,"","mapping",2015,8.0,14.0,"","","","","","",2,22167,"","","","",7759.455972571023,68,68,68,17
"BEN","BJ",372,3252.0,3252,"affon 1","",2.088772,9.746483,3,"","mapping",2015,8.0,14.0,"","","","","","",2,22236,"","","","",41432.01873980106,69,69,69,18
"BEN","BJ",375,3262.0,3262,"agatogbo d","",1.922222,6.403333,3,"","mapping",2014,8.0,14.0,"","","","","","",2,22019,"","","","",2687.2400610723776,70,70,70,19
"BEN","BJ",371,3245.0,3245,"agbagoule akpakpa a","",2.321692,7.898922,3,"","mapping",2015,8.0,14.0,"","","","","","",2,22231,"","","","",8071.017363679569,71,71,71,20
"BEN","BJ",376,"",17550,"agblangandan","",2.5,6.385,4,"","",2000,3.0,5.0,140.0,18.0,140.0,53.0,140.0,66.0,3,29139,0.1285714285714285,0.3785714285714285,0.4714285714285714,0.6733607459156168,1964.0535098661242,72,72,72,21
"BEN","BJ",376,3267.0,3267,"agbomey takplikpo","",2.675617,6.455275,3,"","mapping",2015,8.0,14.0,"","","","","","",2,22134,"","","","",2245.7307570668913,73,73,73,22
"BEN","BJ",378,3285.0,3285,"agbotogbadji","",2.144978,7.437356,3,"","mapping",2015,8.0,14.0,"","","","","","",2,22175,"","","","",8324.771490782829,74,74,74,23
"BEN","BJ",376,3268.0,3268,"agonlin","",2.477278,6.657456,3,"","mapping",2015,8.0,14.0,"","","","","","",2,22138,"","","","",602.8708170126954,75,75,75,24
"BEN","BJ",377,3274.0,3274,"agonlin kpanou","",2.483444,7.590756,3,"","mapping",2015,8.0,14.0,"","","","","","",2,22125,"","","","",20112.83536497764,76,76,76,25
"BEN","BJ",378,3282.0,3282,"akodebakou","",1.953486,7.037925,3,"","mapping",2015,8.0,14.0,"","","","","","",2,22250,"","","","",4903.37344067601,77,77,77,26
"BEN","BJ",376,3268.0,3268,"awo godo","",2.541161,6.773139,3,"","mapping",2015,8.0,14.0,"","","","","","",2,22137,"","","","",2155.312173886858,78,78,78,27
"BEN","BJ",376,3268.0,3268,"awonou a","",2.549167,6.755633,3,"","mapping",2015,8.0,14.0,"","","","","","",2,22136,"","","","",2155.312173886858,79,79,79,28
"BEN","BJ",377,3274.0,3274,"ayekotonia","",2.687531,7.639247,3,"","mapping",2015,8.0,14.0,"","","","","","",2,22127,"","","","",4347.811929766238,80,80,80,29
"BEN","BJ",371,3247.0,3247,"ayetoro","",2.751514,8.707253,3,"","mapping",2015,8.0,14.0,"","","","","","",2,22183,"","","","",25946.41218839501,81,81,81,30
"BEN","BJ",376,3270.0,3270,"blehouan","",2.602422,6.567217,3,"","mapping",2015,8.0,14.0,"","","","","","",2,22131,"","","","",780.7271494406768,82,82,82,31
"BEN","BJ",370,3239.0,3239,"boucanere","",3.2794721,9.9966936,3,"","mapping",2012,"","",0.0,0.0,72.0,0.0,72.0,0.0,1,30341,"",0.0,0.0,"",10021.701374741371,83,83,83,32
"BEN","BJ",373,3257.0,3257,"couklo1","",1.836389,6.979167,3,"","mapping",2014,8.0,14.0,"","","","","","",2,22064,"","","","",6649.84516573177,84,84,84,33
"BEN","BJ",378,3281.0,3281,"cs agnangnan a","",1.981822,7.164103,3,"","mapping",2015,8.0,14.0,"","","","","","",2,22256,"","","","",2300.9330317658073,85,85,85,34
"BEN","BJ",371,3245.0,3245,"cs akofodjoule/a","",2.370111,7.759461,3,"","mapping",2015,8.0,14.0,"","","","","","",2,22229,"","","","",8572.727705840845,86,86,86,35
"BEN","BJ",371,3249.0,3249,"cs atchakpa","",2.393036,8.014528,3,"","mapping",2015,8.0,14.0,"","","","","","",2,22245,"","","","",8434.776282715671,87,87,87,36
"BEN","BJ",370,3241.0,3241,"cs gnisy a","",3.048656,9.613778,3,"","mapping",2015,8.0,14.0,"","","","","","",2,22239,"","","","",7407.809290970588,88,88,88,37
"BEN","BJ",371,3249.0,3249,"cs olou kaboua b","",2.684686,8.243575,3,"","mapping",2015,8.0,14.0,"","","","","","",2,22247,"","","","",19199.465069574875,89,89,89,38
"BEN","BJ",373,3258.0,3258,"dandjekoohoue","",1.861111,6.907778,3,"","mapping",2014,8.0,14.0,"","","","","","",2,22057,"","","","",2512.106064156952,90,90,90,39
"BEN","BJ",370,3239.0,3239,"darou kpara","",2.7779813,9.5340864,1,"","mapping",2012,"","",0.0,0.0,81.0,0.0,81.0,0.0,1,30335,"",0.0,0.0,"",11748.126664493606,91,91,91,40
"BEN","BJ",369,3233.0,3233,"datinonko","",2.202258,6.585317,3,"","mapping",2015,8.0,14.0,"","","","","","",2,22218,"","","","",1508.7678553544258,92,92,92,41
"BEN","BJ",378,3281.0,3281,"djegbe houinlinhouin","",2.010694,7.162539,3,"","mapping",2015,8.0,14.0,"","","","","","",2,22254,"","","","",1382.4780345366646,93,93,93,42
"BEN","BJ",377,3279.0,3279,"djegou nagot","",2.71065,6.539944,4,"","mapping",2015,8.0,14.0,"","","","","","",2,22104,"","","","",4119.950696079031,94,94,94,43
"BEN","BJ",376,3267.0,3267,"do hongla b","",2.695356,6.476442,3,"","mapping",2015,8.0,14.0,"","","","","","",2,22139,"","","","",1410.4497619008064,95,95,95,44
"BEN","BJ",378,3289.0,3289,"don zoukoutou dja","",2.100772,6.999608,3,"","mapping",2015,8.0,14.0,"","","","","","",2,22199,"","","","",8032.171792018025,96,96,96,45
"BEN","BJ",371,3248.0,3248,"doume b","",1.645278,8.016111,3,"","mapping",2014,8.0,14.0,"","","","","","",2,21999,"","","","",16122.10719597204,97,97,97,46
"BEN","BJ",378,3284.0,3284,"epp dovi cogbe/a","",2.349044,7.166061,3,"","mapping",2015,8.0,14.0,"","","","","","",2,22173,"","","","",2817.6350787829338,98,98,98,47
"BEN","BJ",371,3247.0,3247,"epp vossa/a","",2.357447,8.494831,3,"","mapping",2015,8.0,14.0,"","","","","","",2,22182,"","","","",15002.281391649194,99,99,99,48
"BEN","BJ",376,3273.0,3273,"epp  zoungue","",2.532006,6.615264,3,"","mapping",2015,8.0,14.0,"","","","","","",2,22146,"","","","",3681.788477590771,100,100,100,49
"BEN","BJ",378,3283.0,3283,"epp adame adato","",2.033194,7.188528,3,"","mapping",2015,8.0,14.0,"","","","","","",2,22262,"","","","",2634.121707681613,101,101,101,50
"BEN","BJ",375,3263.0,3263,"epp adjaha","",1.835556,6.324722,3,"","mapping",2014,8.0,14.0,"","","","","","",2,22030,"","","","",6409.618021931727,102,102,102,51
"BEN","BJ",373,3257.0,3257,"epp adjahoume a","",1.804444,7.048333,3,"","mapping",2014,8.0,14.0,"","","","","","",2,22068,"","","","",3109.7858572939062,103,103,103,52
"BEN","BJ",371,3247.0,3247,"epp adjana","",2.404669,8.311825,3,"","mapping",2015,8.0,14.0,"","","","","","",2,22180,"","","","",21253.577707216253,104,104,104,53
"BEN","BJ",373,3258.0,3258,"epp adjido a b","",1.753333,6.929722,3,"","mapping",2014,8.0,14.0,"","","","","","",2,22055,"","","","",3927.9231460261108,105,105,105,54
"BEN","BJ",377,3276.0,3276,"epp agadahounme","",2.657719,6.844608,3,"","mapping",2015,8.0,14.0,"","","","","","",2,22111,"","","","",4427.1285450429095,106,106,106,55
"BEN","BJ",376,3271.0,3271,"epp agamandin","",2.663239,6.58665,3,"","mapping",2015,8.0,14.0,"","","","","","",2,22158,"","","","",1655.6279525949913,107,107,107,56
"BEN","BJ",374,3259.0,3259,"epp agbato","",2.443092,6.394547,4,"","mapping",2015,8.0,14.0,"","","","","","",2,22090,"","","","",4010.4184284768876,108,108,108,57
"BEN","BJ",375,3261.0,3261,"epp agbodji b","",1.981111,6.640833,3,"","mapping",2014,8.0,14.0,"","","","","","",2,22010,"","","","",7637.644325510294,109,109,109,58
"BEN","BJ",369,3234.0,3234,"epp agbohounsou","",2.368303,6.707003,3,"","mapping",2015,8.0,14.0,"","","","","","",2,22213,"","","","",2736.8278753085806,110,110,110,59
"BEN","BJ",375,3266.0,3266,"epp agnito a","",1.786111,6.686667,3,"","mapping",2014,8.0,14.0,"","","","","","",2,22028,"","","","",5149.753621360967,111,111,111,60
"BEN","BJ",369,3229.0,3229,"epp agonkanmey","",1.993481,6.391714,3,"","mapping",2015,8.0,14.0,"","","","","","",2,22082,"","","","",3869.92089848507,112,112,112,61
"BEN","BJ",378,3288.0,3288,"epp agonve a","",2.468644,7.253819,3,"","mapping",2015,8.0,14.0,"","","","","","",2,22071,"","","","",3771.9179264966265,113,113,113,62
"BEN","BJ",370,3243.0,3243,"epp agramarou","",2.391667,9.043611,3,"","mapping",2014,8.0,14.0,"","","","","","",2,21965,"","","","",13748.821942630224,114,114,114,63
"BEN","BJ",377,3276.0,3276,"epp aguidi","",2.685433,6.788847,3,"","mapping",2015,8.0,14.0,"","","","","","",2,22110,"","","","",6971.2896821282575,115,115,115,64
"BEN","BJ",378,3288.0,3288,"epp ahlan","",2.468875,7.220206,4,"","mapping",2015,8.0,14.0,"","","","","","",2,22069,"","","","",2987.408468131484,116,116,116,65
"BEN","BJ",378,3285.0,3285,"epp ahlokpa","",2.134303,7.510744,3,"","mapping",2015,8.0,14.0,"","","","","","",2,22177,"","","","",8324.771490782829,117,117,117,66
"BEN","BJ",373,3257.0,3257,"epp ahogbeya","",1.901111,7.020278,3,"","mapping",2014,8.0,14.0,"","","","","","",2,22065,"","","","",6157.177221311143,118,118,118,67
"BEN","BJ",373,3265.0,3265,"epp ahomadegbe b","",2.01,6.869722,3,"","mapping",2014,8.0,14.0,"","","","","","",2,22052,"","","","",3657.234710070881,119,119,119,68
"BEN","BJ",369,3231.0,3231,"epp ahome lokpo","",2.399844,6.580669,3,"","mapping",2015,8.0,14.0,"","","","","","",2,22096,"","","","",4852.607685088763,120,120,120,69
"BEN","BJ",369,3231.0,3231,"epp ahomey gblon","",2.401581,6.537397,3,"","mapping",2015,8.0,14.0,"","","","","","",2,22095,"","","","",4852.607685088763,121,121,121,70
"BEN","BJ",373,3265.0,3265,"epp ahouada","",1.984722,6.890556,3,"","mapping",2014,8.0,14.0,"","","","","","",2,22051,"","","","",3657.234710070881,122,122,122,71
"BEN","BJ",377,3280.0,3280,"epp ahoyeye","",2.686047,6.988758,3,"","mapping",2015,8.0,14.0,"","","","","","",2,22124,"","","","",3850.2915445942785,123,123,123,72
"BEN","BJ",378,3288.0,3288,"epp akangon","",2.404425,7.020714,3,"","mapping",2015,8.0,14.0,"","","","","","",2,22073,"","","","",1221.0945790607684,124,124,124,73
"BEN","BJ",371,3248.0,3248,"epp akete","",1.880556,7.9825,3,"","mapping",2014,8.0,14.0,"","","","","","",2,22000,"","","","",14949.0170528656,125,125,125,74
"BEN","BJ",373,3265.0,3265,"epp alloya","",1.976389,6.858056,3,"","mapping",2014,8.0,14.0,"","","","","","",2,22053,"","","","",3760.293932839723,126,126,126,75
"BEN","BJ",367,3213.0,3213,"epp angaradebou","",3.035833,11.31667,3,"","mapping",2014,8.0,14.0,"","","","","","",2,21989,"","","","",3405.428268734186,127,127,127,76
"BEN","BJ",373,3254.0,3254,"epp aplahouecentrea","",1.677222,6.940556,3,"","mapping",2014,8.0,14.0,"","","","","","",2,22039,"","","","",4116.205432813548,128,128,128,77
"BEN","BJ",376,3268.0,3268,"epp assigui gbongodo","",2.525603,6.741956,3,"","mapping",2015,8.0,14.0,"","","","","","",2,22135,"","","","",3038.312361748705,129,129,129,78
"BEN","BJ",376,3272.0,3272,"epp assrossa","",2.442233,6.919247,3,"","mapping",2015,8.0,14.0,"","","","","","",2,22155,"","","","",1553.121579426224,130,130,130,79
"BEN","BJ",367,3212.0,3212,"epp atabenou","",2.373611,11.27667,3,"","mapping",2014,8.0,14.0,"","","","","","",2,21921,"","","","",5361.354054903922,131,131,131,80
"BEN","BJ",375,3260.0,3260,"epp atchannou a","",1.756111,6.544167,3,"","mapping",2014,8.0,14.0,"","","","","","",2,22018,"","","","",4615.547514726419,132,132,132,81
"BEN","BJ",376,3272.0,3272,"epp atchaonsa b","",2.465181,6.857794,3,"","mapping",2015,8.0,14.0,"","","","","","",2,22151,"","","","",5820.866325267686,133,133,133,82
"BEN","BJ",375,3260.0,3260,"epp athieme a","",1.668333,6.5825,3,"","mapping",2014,8.0,14.0,"","","","","","",2,22015,"","","","",4271.9928593330515,134,134,134,83
"BEN","BJ",369,3228.0,3228,"epp attogon","",2.166283,6.724667,3,"","mapping",2015,8.0,14.0,"","","","","","",2,22077,"","","","",6177.339677423237,135,135,135,84
"BEN","BJ",376,3269.0,3269,"epp avagbodji a","",2.5392,6.525639,3,"","mapping",2015,8.0,14.0,"","","","","","",2,22115,"","","","",4295.786271578382,136,136,136,85
"BEN","BJ",369,3228.0,3228,"epp avakpa","",2.041992,6.672256,3,"","mapping",2015,8.0,14.0,"","","","","","",2,22078,"","","","",5263.900249705322,137,137,137,86
"BEN","BJ",378,3282.0,3282,"epp avali","",1.961697,7.080878,3,"","mapping",2015,8.0,14.0,"","","","","","",2,22249,"","","","",1477.71321182091,138,138,138,87
"BEN","BJ",369,3233.0,3233,"epp avame a","",2.20255,6.515592,3,"","mapping",2015,8.0,14.0,"","","","","","",2,22214,"","","","",1163.4621074629906,139,139,139,88
"BEN","BJ",376,3272.0,3272,"epp avlankanme","",2.425067,6.934447,3,"","mapping",2015,8.0,14.0,"","","","","","",2,22153,"","","","",1406.58580630561,140,140,140,89
"BEN","BJ",373,3256.0,3256,"epp ayomi centre b","",1.719167,6.776111,3,"","mapping",2014,8.0,14.0,"","","","","","",2,22036,"","","","",5617.290484625437,141,141,141,90
"BEN","BJ",378,3284.0,3284,"epp azonnongo","",2.270481,7.319786,3,"","mapping",2015,8.0,14.0,"","","","","","",2,22169,"","","","",3927.9403218741595,142,142,142,91
"BEN","BJ",375,3261.0,3261,"epp badazouin b","",1.935,6.571667,3,"","mapping",2014,8.0,14.0,"","","","","","",2,22013,"","","","",6338.399192204386,143,143,143,92
"BEN","BJ",367,3236.0,3236,"epp badou","",2.735,10.89861,3,"","mapping",2014,8.0,14.0,"","","","","","",2,21924,"","","","",18021.335305356883,144,144,144,93
"BEN","BJ",370,3240.0,3240,"epp bakperou a","",2.581667,9.277222,3,"","mapping",2014,8.0,14.0,"","","","","","",2,21987,"","","","",8455.175915416792,145,145,145,94
"BEN","BJ",377,3279.0,3279,"epp banigbe nagot a","",2.706814,6.646711,3,"","mapping",2015,8.0,14.0,"","","","","","",2,22103,"","","","",4423.030398796374,146,146,146,95
"BEN","BJ",368,3225.0,3225,"epp batia","",1.487778,10.89167,3,"","mapping",2014,8.0,14.0,"","","","","","",2,21958,"","","","",10605.260684992238,147,147,147,96
"BEN","BJ",372,3252.0,3252,"epp bellefougou/a","",1.722803,9.813264,3,"","mapping",2015,8.0,14.0,"","","","","","",2,22238,"","","","",8558.274641011167,148,148,148,97
"BEN","BJ",368,3222.0,3222,"epp berecingou","",1.397116,10.23541,3,"","mapping",2013,8.0,14.0,"","","","","","",2,21918,"","","","",6897.302384733802,149,149,149,98
"BEN","BJ",370,3243.0,3243,"epp beterou a","",2.273056,9.200556,3,"","mapping",2014,8.0,14.0,"","","","","","",2,21964,"","","","",22078.162556438856,150,150,150,99
"BEN","BJ",368,3220.0,3220,"epp bipotoko","",2.099671,10.80669,3,"","mapping",2013,8.0,14.0,"","","","","","",2,21903,"","","","",8903.114127308565,151,151,151,100
"BEN","BJ",367,3214.0,3214,"epp birni lafia","",3.219722,11.98056,3,"","mapping",2014,8.0,14.0,"","","","","","",2,21978,"","","","",6079.984328624103,152,152,152,101
"BEN","BJ",370,3239.0,3239,"epp biro","",2.948561,9.900053,3,"","mapping",2015,8.0,14.0,"","","","","","",2,22188,"","","","",10397.688775527547,153,153,153,102
"BEN","BJ",371,3244.0,3244,"epp bobe","",1.990556,8.425556,3,"","mapping",2014,8.0,14.0,"","","","","","",2,22004,"","","","",11723.650459815703,154,154,154,103
"BEN","BJ",367,3216.0,3216,"epp bobena","",3.536667,10.79278,3,"","mapping",2014,8.0,14.0,"","","","","","",2,21983,"","","","",5306.370580044347,155,155,155,104
"BEN","BJ",368,3220.0,3220,"epp bonni","",2.045357,10.86435,3,"","mapping",2013,8.0,14.0,"","","","","","",2,21902,"","","","",8903.114127308565,156,156,156,105
"BEN","BJ",376,3272.0,3272,"epp bonou ayogo","",2.449103,6.907192,3,"","mapping",2015,8.0,14.0,"","","","","","",2,22154,"","","","",1553.121579426224,157,157,157,106
"BEN","BJ",367,3236.0,3236,"epp borodarou","",2.874722,10.97889,3,"","mapping",2014,8.0,14.0,"","","","","","",2,21926,"","","","",7120.988719119306,158,158,158,107
"BEN","BJ",370,3238.0,3238,"epp bouyerou","",2.549592,9.754991,3,"","mapping",2013,8.0,14.0,"","","","","","",2,21905,"","","","",16918.46959104449,159,159,159,108
"BEN","BJ",375,3262.0,3262,"epp bowe gbedji b","",1.916389,6.463056,3,"","mapping",2014,8.0,14.0,"","","","","","",2,22021,"","","","",4108.756586636013,160,160,160,109
"BEN","BJ",370,3240.0,3240,"epp dabou","",2.566389,9.450833,3,"","mapping",2014,8.0,14.0,"","","","","","",2,21985,"","","","",11769.685291171845,161,161,161,110
"BEN","BJ",377,3276.0,3276,"epp dagbla","",2.602022,6.679789,3,"","mapping",2015,8.0,14.0,"","","","","","",2,22114,"","","","",5577.947264638521,162,162,162,111
"BEN","BJ",377,3278.0,3278,"epp dagbla","",2.600114,7.097981,3,"","mapping",2015,8.0,14.0,"","","","","","",2,22161,"","","","",2795.8622769709814,163,163,163,112
"BEN","BJ",376,3272.0,3272,"epp dame wogon b","",2.419897,6.945892,3,"","mapping",2015,8.0,14.0,"","","","","","",2,22150,"","","","",1406.58580630561,164,164,164,113
"BEN","BJ",370,3237.0,3237,"epp danganzi","",3.457074,10.32011,3,"","mapping",2013,8.0,14.0,"","","","","","",2,21907,"","","","",14593.11670788391,165,165,165,114
"BEN","BJ",378,3284.0,3284,"epp dangbehonou","",2.363344,7.145339,3,"","mapping",2015,8.0,14.0,"","","","","","",2,22172,"","","","",2170.546965207398,166,166,166,115
"BEN","BJ",376,3273.0,3273,"epp dangbo a","",2.551561,6.588767,3,"","mapping",2015,8.0,14.0,"","","","","","",2,22144,"","","","",3681.788477590771,167,167,167,116
"BEN","BJ",368,3221.0,3221,"epp dassari a","",1.143611,10.81056,3,"","mapping",2014,8.0,14.0,"","","","","","",2,21940,"","","","",15667.96788812769,168,168,168,117
"BEN","BJ",369,3227.0,3227,"epp dassekomey","",2.251256,6.489528,3,"","mapping",2015,8.0,14.0,"","","","","","",2,22085,"","","","",6158.324807528268,169,169,169,118
"BEN","BJ",373,3254.0,3254,"epp dawui","",1.677778,7.026389,3,"","mapping",2014,8.0,14.0,"","","","","","",2,22043,"","","","",3280.6598599345284,170,170,170,119
"BEN","BJ",375,3264.0,3264,"epp daye c","",1.942222,6.515556,3,"","mapping",2014,8.0,14.0,"","","","","","",2,22063,"","","","",2776.184074371488,171,171,171,120
"BEN","BJ",375,3260.0,3260,"epp dedekpoe","",1.621389,6.624167,3,"","mapping",2014,8.0,14.0,"","","","","","",2,22014,"","","","",7007.952472318418,172,172,172,121
"BEN","BJ",369,3229.0,3229,"epp dekanmey a","",1.996333,6.569861,3,"","mapping",2015,8.0,14.0,"","","","","","",2,22083,"","","","",6830.556880084089,173,173,173,122
"BEN","BJ",369,3231.0,3231,"epp dekanmey b","",2.491867,6.508764,4,"","mapping",2015,8.0,14.0,"","","","","","",2,22098,"","","","",3837.0830058547726,174,174,174,123
"BEN","BJ",376,3273.0,3273,"epp dekin","",2.452297,6.548531,3,"","mapping",2015,8.0,14.0,"","","","","","",2,22148,"","","","",5735.686831772741,175,175,175,124
"BEN","BJ",373,3254.0,3254,"epp dekpo a","",1.6800000000000002,6.997222,3,"","mapping",2014,8.0,14.0,"","","","","","",2,22041,"","","","",3280.6598599345284,176,176,176,125
"BEN","BJ",378,3281.0,3281,"epp detohou","",1.952119,7.185056,3,"","mapping",2015,8.0,14.0,"","","","","","",2,22263,"","","","",4057.0617366175484,177,177,177,126
"BEN","BJ",373,3256.0,3256,"epp deve","",1.666667,6.7625,3,"","mapping",2014,8.0,14.0,"","","","","","",2,22034,"","","","",4641.131480678004,178,178,178,127
"BEN","BJ",370,3242.0,3242,"epp diadia","",2.399167,10.27806,3,"","mapping",2014,8.0,14.0,"","","","","","",2,21969,"","","","",11623.469182520064,179,179,179,128
"BEN","BJ",371,3249.0,3249,"epp djabata","",2.636306,7.897428,3,"","mapping",2015,8.0,14.0,"","","","","","",2,22248,"","","","",18818.602276213966,180,180,180,129
"BEN","BJ",371,3247.0,3247,"epp djadjo/a","",2.242964,8.56515,3,"","mapping",2015,8.0,14.0,"","","","","","",2,22181,"","","","",15002.281391649194,181,181,181,130
"BEN","BJ",376,3275.0,3275,"epp djassin","",2.602589,6.476192,3,"","mapping",2015,8.0,14.0,"","","","","","",2,22106,"","","","",1340.6318703588897,182,182,182,131
"BEN","BJ",376,3275.0,3275,"epp djassin houinvie","",2.591406,6.480633,3,"","mapping",2015,8.0,14.0,"","","","","","",2,22105,"","","","",1194.2655675438816,183,183,183,132
"BEN","BJ",376,3267.0,3267,"epp djavi a","",2.688414,6.51055,3,"","mapping",2015,8.0,14.0,"","","","","","",2,22141,"","","","",2615.204306306884,184,184,184,133
"BEN","BJ",371,3245.0,3245,"epp djibe soclogbo","",2.295708,7.779147,3,"","mapping",2015,8.0,14.0,"","","","","","",2,22232,"","","","",7000.409358455509,185,185,185,134
"BEN","BJ",373,3258.0,3258,"epp djigangnonhou","",1.840278,6.916389,3,"","mapping",2014,8.0,14.0,"","","","","","",2,22054,"","","","",2512.106064156952,186,186,186,135
"BEN","BJ",369,3234.0,3234,"epp dodji bata","",2.278758,6.684397,3,"","mapping",2015,8.0,14.0,"","","","","","",2,22210,"","","","",6094.16083999327,187,187,187,136
"BEN","BJ",373,3256.0,3256,"epp dogbo tota a","",1.7838889999999998,6.804722,3,"","mapping",2014,8.0,14.0,"","","","","","",2,22035,"","","","",5218.440736865804,188,188,188,137
"BEN","BJ",376,3269.0,3269,"epp donoukpa b","",2.545561,6.462708,3,"","mapping",2015,8.0,14.0,"","","","","","",2,22119,"","","","",372.9379067336428,189,189,189,138
"BEN","BJ",371,3245.0,3245,"epp dorisome","",2.280736,7.839658,3,"","mapping",2015,8.0,14.0,"","","","","","",2,22233,"","","","",7000.409358455509,190,190,190,139
"BEN","BJ",375,3264.0,3264,"epp dre b","",1.835833,6.460833,3,"","mapping",2014,8.0,14.0,"","","","","","",2,22061,"","","","",4236.475327684022,191,191,191,140
"BEN","BJ",371,3247.0,3247,"epp ewonda","",2.551906,8.588275,3,"","mapping",2015,8.0,14.0,"","","","","","",2,22179,"","","","",24067.43238987704,192,192,192,141
"BEN","BJ",378,3283.0,3283,"epp fenangnonnou","",2.081667,7.153525,3,"","mapping",2015,8.0,14.0,"","","","","","",2,22261,"","","","",5527.981788468832,193,193,193,142
"BEN","BJ",374,3259.0,3259,"epp fidjrosse","",2.361636,6.356189,3,"","mapping",2015,8.0,14.0,"","","","","","",2,22091,"","","","",3986.409703693934,194,194,194,143
"BEN","BJ",370,3242.0,3242,"epp fo sakarou","",2.373889,10.11389,3,"","mapping",2014,8.0,14.0,"","","","","","",2,21972,"","","","",7193.805736116412,195,195,195,144
"BEN","BJ",368,3219.0,3219,"epp fo tance","",1.691944,10.41611,3,"","mapping",2014,8.0,14.0,"","","","","","",2,21945,"","","","",8140.84013134342,196,196,196,145
"BEN","BJ",370,3239.0,3239,"epp fombani","",3.369158,9.940467,3,"","mapping",2015,8.0,14.0,"","","","","","",2,22185,"","","","",9781.316971478805,197,197,197,146
"BEN","BJ",377,3278.0,3278,"epp fouditi","",2.657519,6.884092,3,"","mapping",2015,8.0,14.0,"","","","","","",2,22160,"","","","",4427.1285450429095,198,198,198,147
"BEN","BJ",370,3235.0,3235,"epp gamare","",2.648403,10.17122,3,"","mapping",2013,8.0,14.0,"","","","","","",2,21906,"","","","",10423.854652990209,199,199,199,148
"BEN","BJ",378,3286.0,3286,"epp gangban","",2.414128,7.015636,3,"","mapping",2015,8.0,14.0,"","","","","","",2,22164,"","","","",1221.0945790607684,200,200,200,149
"BEN","BJ",375,3261.0,3261,"epp gbakpodji c","",1.8525,6.665556,3,"","mapping",2014,8.0,14.0,"","","","","","",2,22011,"","","","",3595.244639331356,201,201,201,150
"BEN","BJ",377,3278.0,3278,"epp gbanou","",2.547822,6.890731,3,"","mapping",2015,8.0,14.0,"","","","","","",2,22099,"","","","",5289.061228003096,202,202,202,151
"BEN","BJ",369,3232.0,3232,"epp gbegbe agonssa","",2.080197,6.83975,3,"","mapping",2015,8.0,14.0,"","","","","","",2,22206,"","","","",2465.1332546676085,203,203,203,152
"BEN","BJ",377,3274.0,3274,"epp gbegon","",2.494792,7.275344,3,"","mapping",2015,8.0,14.0,"","","","","","",2,22129,"","","","",3782.5250446858804,204,204,204,153
"BEN","BJ",376,3273.0,3273,"epp gbeko b","",2.449222,6.610658,3,"","mapping",2015,8.0,14.0,"","","","","","",2,22149,"","","","",5508.9428366912525,205,205,205,154
"BEN","BJ",368,3224.0,3224,"epp gberasson","",1.999227,10.22005,3,"","mapping",2013,8.0,14.0,"","","","","","",2,21910,"","","","",14735.591367562502,206,206,206,155
"BEN","BJ",369,3230.0,3230,"epp gbezoume","",1.963664,6.342147,4,"","mapping",2015,8.0,14.0,"","","","","","",2,22223,"","","","",5353.817315145967,207,207,207,156
"BEN","BJ",376,3271.0,3271,"epp gbozoume b","",2.676744,6.580461,4,"","mapping",2015,8.0,14.0,"","","","","","",2,22157,"","","","",1655.6279525949913,208,208,208,157
"BEN","BJ",377,3280.0,3280,"epp gnanago","",2.599894,7.200331,3,"","mapping",2015,8.0,14.0,"","","","","","",2,22121,"","","","",11482.85042550399,209,209,209,158
"BEN","BJ",378,3281.0,3281,"epp gnnansa ta","",1.972108,7.237456,3,"","mapping",2015,8.0,14.0,"","","","","","",2,22255,"","","","",6286.623524313356,210,210,210,159
"BEN","BJ",371,3248.0,3248,"epp gobada b","",2.016111,7.773333,3,"","mapping",2014,8.0,14.0,"","","","","","",2,22002,"","","","",15636.53542751546,211,211,211,160
"BEN","BJ",373,3254.0,3254,"epp godohou","",1.7225,7.104722,3,"","mapping",2014,8.0,14.0,"","","","","","",2,22042,"","","","",6475.142458298398,212,212,212,161
"BEN","BJ",376,3277.0,3277,"epp goho","",2.578633,6.441819,3,"","mapping",2015,8.0,14.0,"","","","","","",2,22225,"","","","",1285.7227552947954,213,213,213,162
"BEN","BJ",370,3243.0,3243,"epp goro centre a","",2.494167,8.975556,3,"","mapping",2014,8.0,14.0,"","","","","","",2,21968,"","","","",13748.821942630224,214,214,214,163
"BEN","BJ",371,3244.0,3244,"epp gotcha","",1.737778,8.265833,3,"","mapping",2014,8.0,14.0,"","","","","","",2,22005,"","","","",14911.26877355394,215,215,215,164
"BEN","BJ",368,3221.0,3221,"epp gouande a","",0.9161111,10.77889,3,"","mapping",2014,8.0,14.0,"","","","","","",2,21942,"","","","",11201.748054248153,216,216,216,165
"BEN","BJ",369,3234.0,3234,"epp goulo sodji","",2.294031,6.736608,3,"","mapping",2015,8.0,14.0,"","","","","","",2,22211,"","","","",6094.16083999327,217,217,217,166
"BEN","BJ",367,3212.0,3212,"epp goumori a","",2.295278,11.17611,3,"","mapping",2014,8.0,14.0,"","","","","","",2,21923,"","","","",13492.95570713835,218,218,218,167
"BEN","BJ",375,3263.0,3263,"epp gountoeto","",1.806389,6.4225,3,"","mapping",2014,8.0,14.0,"","","","","","",2,22031,"","","","",2010.9219498774996,219,219,219,168
"BEN","BJ",370,3242.0,3242,"epp guessou bani","",2.267778,10.33417,3,"","mapping",2014,8.0,14.0,"","","","","","",2,21970,"","","","",15944.55183674233,220,220,220,169
"BEN","BJ",375,3262.0,3262,"epp guezin kpota b","",1.950278,6.388056,3,"","mapping",2014,8.0,14.0,"","","","","","",2,22020,"","","","",2410.8725854466475,221,221,221,170
"BEN","BJ",368,3219.0,3219,"epp guilmarou","",1.728056,10.56389,3,"","mapping",2014,8.0,14.0,"","","","","","",2,21947,"","","","",14321.561912840845,222,222,222,171
"BEN","BJ",373,3255.0,3255,"epp hagoumi","",1.761389,6.845556,3,"","mapping",2014,8.0,14.0,"","","","","","",2,22045,"","","","",4653.637303198709,223,223,223,172
"BEN","BJ",367,3214.0,3214,"epp hari gani a","",3.181389,12.06639,3,"","mapping",2014,8.0,14.0,"","","","","","",2,21977,"","","","",4793.105725985403,224,224,224,173
"BEN","BJ",371,3245.0,3245,"epp hasseou","",2.206747,7.554514,3,"","mapping",2015,8.0,14.0,"","","","","","",2,22230,"","","","",9444.095669788485,225,225,225,174
"BEN","BJ",378,3287.0,3287,"epp hehounli","",2.292958,7.13235,3,"","mapping",2015,8.0,14.0,"","","","","","",2,22198,"","","","",7299.664503305343,226,226,226,175
"BEN","BJ",378,3283.0,3283,"epp hellou","",2.092975,7.237369,3,"","mapping",2015,8.0,14.0,"","","","","","",2,22259,"","","","",6257.665236846774,227,227,227,176
"BEN","BJ",376,3273.0,3273,"epp hetin sota b","",2.501928,6.587825,3,"","mapping",2015,8.0,14.0,"","","","","","",2,22147,"","","","",4545.965453549562,228,228,228,177
"BEN","BJ",369,3227.0,3227,"epp hevie a","",2.263717,6.414344,3,"","mapping",2015,8.0,14.0,"","","","","","",2,22087,"","","","",6635.91517754359,229,229,229,178
"BEN","BJ",375,3266.0,3266,"epp hlodo a","",1.667778,6.721111,4,"","mapping",2014,8.0,14.0,"","","","","","",2,22026,"","","","",4641.131480678004,230,230,230,179
"BEN","BJ",378,3282.0,3282,"epp houala vekpa","",1.972086,7.115311,3,"","mapping",2015,8.0,14.0,"","","","","","",2,22251,"","","","",4032.08226332849,231,231,231,180
"BEN","BJ",369,3231.0,3231,"epp houedo aguekon","",2.459211,6.497803,3,"","mapping",2015,8.0,14.0,"","","","","","",2,22097,"","","","",3837.0830058547726,232,232,232,181
"BEN","BJ",373,3258.0,3258,"epp houedogli b","",1.778056,6.966389,3,"","mapping",2014,8.0,14.0,"","","","","","",2,22056,"","","","",4947.975780299032,233,233,233,182
"BEN","BJ",376,3269.0,3269,"epp houedome a","",2.548119,6.488336,3,"","mapping",2015,8.0,14.0,"","","","","","",2,22118,"","","","",1136.6150865690174,234,234,234,183
"BEN","BJ",376,3269.0,3269,"epp houedome i","",2.547867,6.478194,3,"","mapping",2015,8.0,14.0,"","","","","","",2,22117,"","","","",1136.6150865690174,235,235,235,184
"BEN","BJ",376,3267.0,3267,"epp houegbo b","",2.674347,6.529244,3,"","mapping",2015,8.0,14.0,"","","","","","",2,22142,"","","","",2615.204306306884,236,236,236,185
"BEN","BJ",377,3278.0,3278,"epp houeli gaba","",2.583256,7.079506,3,"","mapping",2015,8.0,14.0,"","","","","","",2,22162,"","","","",2795.8622769709814,237,237,237,186
"BEN","BJ",375,3266.0,3266,"epp houin dokodji a","",1.750833,6.632778,3,"","mapping",2014,8.0,14.0,"","","","","","",2,22027,"","","","",4299.172975134891,238,238,238,187
"BEN","BJ",378,3283.0,3283,"epp houndou b","",2.055769,7.195564,3,"","mapping",2015,8.0,14.0,"","","","","","",2,22260,"","","","",2634.121707681613,239,239,239,188
"BEN","BJ",369,3233.0,3233,"epp houngbo","",2.196772,6.506939,3,"","mapping",2015,8.0,14.0,"","","","","","",2,22215,"","","","",1163.4621074629906,240,240,240,189
"BEN","BJ",375,3264.0,3264,"epp hounvi","",1.853333,6.543056,3,"","mapping",2014,8.0,14.0,"","","","","","",2,22059,"","","","",4445.038185249775,241,241,241,190
"BEN","BJ",367,3215.0,3215,"epp houro yesso a","",3.384444,11.86778,3,"","mapping",2014,8.0,14.0,"","","","","","",2,21961,"","","","",4409.958365784093,242,242,242,191
"BEN","BJ",371,3244.0,3244,"epp idjou","",1.798889,8.088056,3,"","mapping",2014,8.0,14.0,"","","","","","",2,22008,"","","","",2823.1707338570354,243,243,243,192
"BEN","BJ",377,3279.0,3279,"epp ita soumba","",2.777203,6.698486,3,"","mapping",2015,8.0,14.0,"","","","","","",2,22100,"","","","",7673.3618635680705,244,244,244,193
"BEN","BJ",377,3276.0,3276,"epp iyogou tohou","",2.593394,6.785681,3,"","mapping",2015,8.0,14.0,"","","","","","",2,22113,"","","","",5965.349879281264,245,245,245,194
"BEN","BJ",367,3215.0,3215,"epp kambouwo tounga","",3.516944,11.78667,3,"","mapping",2014,8.0,14.0,"","","","","","",2,21962,"","","","",9857.095753759744,246,246,246,195
"BEN","BJ",367,3213.0,3213,"epp kassakou a","",2.902222,11.08222,3,"","mapping",2014,8.0,14.0,"","","","","","",2,21992,"","","","",5115.149712334592,247,247,247,196
"BEN","BJ",376,3277.0,3277,"epp ketonou","",2.556336,6.424725,3,"","mapping",2015,8.0,14.0,"","","","","","",2,22224,"","","","",3134.935766030759,248,248,248,197
"BEN","BJ",370,3237.0,3237,"epp kidaroukperou","",3.32737,10.30139,3,"","mapping",2013,8.0,14.0,"","","","","","",2,21909,"","","","",14593.11670788391,249,249,249,198
"BEN","BJ",372,3250.0,3250,"epp kikele","",1.72945,9.013219,3,"","mapping",2015,8.0,14.0,"","","","","","",2,22193,"","","","",18660.705063862166,250,250,250,199
"BEN","BJ",374,3259.0,3259,"epp kindonou","",2.361528,6.391778,4,"","mapping",2015,8.0,14.0,"","","","","","",2,22094,"","","","",3244.1107438540894,251,251,251,200
"BEN","BJ",373,3255.0,3255,"epp kinkinhoue","",1.718333,6.925278,3,"","mapping",2014,8.0,14.0,"","","","","","",2,22046,"","","","",3927.9231460261108,252,252,252,201
"BEN","BJ",378,3284.0,3284,"epp kinwego","",2.284708,7.287758,3,"","mapping",2015,8.0,14.0,"","","","","","",2,22170,"","","","",3927.9403218741595,253,253,253,202
"BEN","BJ",373,3254.0,3254,"epp kissamey centre","",1.730833,6.992778,3,"","mapping",2014,8.0,14.0,"","","","","","",2,22040,"","","","",936.5100588725211,254,254,254,203
"BEN","BJ",367,3212.0,3212,"epp kokey","",2.5225,11.38056,3,"","mapping",2014,8.0,14.0,"","","","","","",2,21919,"","","","",15526.953501135178,255,255,255,204
"BEN","BJ",372,3252.0,3252,"epp kolokonde/a","",1.733925,9.888214,3,"","mapping",2015,8.0,14.0,"","","","","","",2,22237,"","","","",8558.274641011167,256,256,256,205
"BEN","BJ",372,3223.0,3223,"epp komde a","",1.399597,9.647315,3,"","mapping",2013,8.0,14.0,"","","","","","",2,21914,"","","","",10541.215687186173,257,257,257,206
"BEN","BJ",367,3212.0,3212,"epp kommon","",2.420556,11.28722,3,"","mapping",2014,8.0,14.0,"","","","","","",2,21920,"","","","",5361.354054903922,258,258,258,207
"BEN","BJ",367,3214.0,3214,"epp kompa","",3.033056,12.20361,3,"","mapping",2014,8.0,14.0,"","","","","","",2,21975,"","","","",15881.119127487997,259,259,259,208
"BEN","BJ",370,3240.0,3240,"epp korobororou","",2.6675,9.373333,3,"","mapping",2014,8.0,14.0,"","","","","","",2,21986,"","","","",6584.78455725363,260,260,260,209
"BEN","BJ",368,3222.0,3222,"epp kota monongou","",1.457787,10.24778,3,"","mapping",2013,8.0,14.0,"","","","","","",2,21915,"","","","",6897.302384733802,261,261,261,210
"BEN","BJ",367,3215.0,3215,"epp kotchi","",3.422222,11.85611,3,"","mapping",2014,8.0,14.0,"","","","","","",2,21959,"","","","",4409.958365784093,262,262,262,211
"BEN","BJ",378,3289.0,3289,"epp kotokpa","",2.166897,7.095275,3,"","mapping",2015,8.0,14.0,"","","","","","",2,22203,"","","","",3506.0115298421724,263,263,263,212
"BEN","BJ",368,3226.0,3226,"epp kouba","",1.64,10.47167,3,"","mapping",2014,8.0,14.0,"","","","","","",2,21953,"","","","",8543.344508884706,264,264,264,213
"BEN","BJ",368,3219.0,3219,"epp kouboro","",1.553611,10.05444,3,"","mapping",2014,8.0,14.0,"","","","","","",2,21948,"","","","",17816.973202306828,265,265,265,214
"BEN","BJ",368,3217.0,3217,"epp koumontchirgou","",1.132778,10.12639,3,"","mapping",2014,8.0,14.0,"","","","","","",2,21936,"","","","",2460.5834550425307,266,266,266,215
"BEN","BJ",368,3218.0,3218,"epp kountori","",0.9463889,10.41167,3,"","mapping",2014,8.0,14.0,"","","","","","",2,21932,"","","","",6362.454739043808,267,267,267,216
"BEN","BJ",368,3221.0,3221,"epp koussega","",1.003889,10.82722,3,"","mapping",2014,8.0,14.0,"","","","","","",2,21941,"","","","",11201.748054248153,268,268,268,217
"BEN","BJ",368,3217.0,3217,"epp koutagou","",1.139167,10.14722,3,"","mapping",2014,8.0,14.0,"","","","","","",2,21938,"","","","",2460.5834550425307,269,269,269,218
"BEN","BJ",368,3217.0,3217,"epp koutchagou a","",1.115,10.22306,3,"","mapping",2014,8.0,14.0,"","","","","","",2,21935,"","","","",3898.7430460915407,270,270,270,219
"BEN","BJ",368,3217.0,3217,"epp koutchata a","",1.103333,10.19056,3,"","mapping",2014,8.0,14.0,"","","","","","",2,21937,"","","","",3898.7430460915407,271,271,271,220
"BEN","BJ",369,3227.0,3227,"epp kpanrou","",2.369156,6.6826,3,"","mapping",2015,8.0,14.0,"","","","","","",2,22089,"","","","",2736.8278753085806,272,272,272,221
"BEN","BJ",370,3243.0,3243,"epp kpassa","",2.728056,9.285556,3,"","mapping",2014,8.0,14.0,"","","","","","",2,21967,"","","","",11979.021666092593,273,273,273,222
"BEN","BJ",373,3265.0,3265,"epp kpassakanme","",1.929167,6.915,3,"","mapping",2014,8.0,14.0,"","","","","","",2,22050,"","","","",2083.9421670761917,274,274,274,223
"BEN","BJ",370,3241.0,3241,"epp kpebie","",3.001278,9.698317,3,"","mapping",2015,8.0,14.0,"","","","","","",2,22240,"","","","",6071.824645945411,275,275,275,224
"BEN","BJ",375,3260.0,3260,"epp kpinnou b","",1.768056,6.583611,3,"","mapping",2014,8.0,14.0,"","","","","","",2,22017,"","","","",4615.547514726419,276,276,276,225
"BEN","BJ",373,3255.0,3255,"epp kpoba centre a","",1.656111,6.840278,3,"","mapping",2014,8.0,14.0,"","","","","","",2,22047,"","","","",2877.4830397666155,277,277,277,226
"BEN","BJ",378,3288.0,3288,"epp kpoto","",2.443753,7.229569,3,"","mapping",2015,8.0,14.0,"","","","","","",2,22070,"","","","",2987.408468131484,278,278,278,227
"BEN","BJ",377,3279.0,3279,"epp lagbe","",2.690542,6.682714,3,"","mapping",2015,8.0,14.0,"","","","","","",2,22101,"","","","",2482.7301800814457,279,279,279,228
"BEN","BJ",371,3246.0,3246,"epp lagbo b","",2.184722,8.223056,3,"","mapping",2014,8.0,14.0,"","","","","","",2,21996,"","","","",21876.473515381498,280,280,280,229
"BEN","BJ",367,3216.0,3216,"epp libante a","",3.583889,10.78639,3,"","mapping",2014,8.0,14.0,"","","","","","",2,21981,"","","","",5306.370580044347,281,281,281,230
"BEN","BJ",367,3216.0,3216,"epp liboussou","",3.487778,10.92083,3,"","mapping",2014,8.0,14.0,"","","","","","",2,21980,"","","","",15501.038827783379,282,282,282,231
"BEN","BJ",378,3285.0,3285,"epp lobeta","",1.873328,7.622828,3,"","mapping",2015,8.0,14.0,"","","","","","",2,22178,"","","","",23204.87555290736,283,283,283,232
"BEN","BJ",375,3261.0,3261,"epp lobogo a","",1.908333,6.623056,3,"","mapping",2014,8.0,14.0,"","","","","","",2,22009,"","","","",6478.836184587466,284,284,284,233
"BEN","BJ",371,3248.0,3248,"epp logozohe b","",2.082222,7.896111,3,"","mapping",2014,8.0,14.0,"","","","","","",2,22001,"","","","",13248.461303871594,285,285,285,234
"BEN","BJ",373,3265.0,3265,"epp lokogba 1","",1.87,6.870278,3,"","mapping",2014,8.0,14.0,"","","","","","",2,22049,"","","","",4319.700778909116,286,286,286,235
"BEN","BJ",378,3287.0,3287,"epp lontonkpa","",2.169194,7.220286,3,"","mapping",2015,8.0,14.0,"","","","","","",2,22195,"","","","",7081.178310178361,287,287,287,236
"BEN","BJ",367,3216.0,3216,"epp lougou a","",3.375833,11.11944,3,"","mapping",2014,8.0,14.0,"","","","","","",2,21979,"","","","",25741.93627683698,288,288,288,237
"BEN","BJ",376,3275.0,3275,"epp louho a","",2.583864,6.488214,3,"","mapping",2015,8.0,14.0,"","","","","","",2,22107,"","","","",1194.2655675438816,289,289,289,238
"BEN","BJ",367,3215.0,3215,"epp madekali","",3.545833,11.70472,3,"","mapping",2014,8.0,14.0,"","","","","","",2,21963,"","","","",9857.095753759744,290,290,290,239
"BEN","BJ",378,3283.0,3283,"epp madje","",2.161994,7.155794,3,"","mapping",2015,8.0,14.0,"","","","","","",2,22258,"","","","",6811.283761660403,291,291,291,240
"BEN","BJ",373,3256.0,3256,"epp madjre b","",1.846389,6.825556,3,"","mapping",2014,8.0,14.0,"","","","","","",2,22038,"","","","",5661.317137027647,292,292,292,241
"BEN","BJ",368,3225.0,3225,"epp makou","",1.162222,10.55694,3,"","mapping",2014,8.0,14.0,"","","","","","",2,21955,"","","","",5832.550413416405,293,293,293,242
"BEN","BJ",376,3271.0,3271,"epp male a","",2.624761,6.519811,3,"","mapping",2015,8.0,14.0,"","","","","","",2,22159,"","","","",2611.7736093686053,294,294,294,243
"BEN","BJ",368,3217.0,3217,"epp manta a","",1.109444,10.34917,3,"","mapping",2014,8.0,14.0,"","","","","","",2,21934,"","","","",13358.12749003072,295,295,295,244
"BEN","BJ",378,3286.0,3286,"epp midjannagan","",2.411,6.984811,3,"","mapping",2015,8.0,14.0,"","","","","","",2,22165,"","","","",3474.6858043499374,296,296,296,245
"BEN","BJ",367,3214.0,3214,"epp monsey","",2.922222,12.29139,3,"","mapping",2014,8.0,14.0,"","","","","","",2,21974,"","","","",15881.119127487997,297,297,297,246
"BEN","BJ",368,3226.0,3226,"epp nabaga","",1.377222,10.45611,3,"","mapping",2014,8.0,14.0,"","","","","","",2,21952,"","","","",4591.662028536666,298,298,298,247
"BEN","BJ",368,3218.0,3218,"epp nanagade","",0.9066667,10.47556,3,"","mapping",2014,8.0,14.0,"","","","","","",2,21929,"","","","",8476.71917846466,299,299,299,248
"BEN","BJ",378,3284.0,3284,"epp naogon/a","",2.337514,7.238181,3,"","mapping",2015,8.0,14.0,"","","","","","",2,22171,"","","","",8093.680950691314,300,300,300,249
"BEN","BJ",368,3225.0,3225,"epp natagata","",1.081944,10.56611,3,"","mapping",2014,8.0,14.0,"","","","","","",2,21956,"","","","",6143.837903146655,301,301,301,250
"BEN","BJ",368,3219.0,3219,"epp niarosson","",1.615556,10.19972,3,"","mapping",2014,8.0,14.0,"","","","","","",2,21946,"","","","",17816.973202306828,302,302,302,251
"BEN","BJ",368,3221.0,3221,"epp nodi a","",1.026944,10.63083,3,"","mapping",2014,8.0,14.0,"","","","","","",2,21939,"","","","",8100.39192888905,303,303,303,252
"BEN","BJ",368,3218.0,3218,"epp nouagou","",1.008333,10.51056,3,"","mapping",2014,8.0,14.0,"","","","","","",2,21930,"","","","",6894.807436686616,304,304,304,253
"BEN","BJ",371,3244.0,3244,"epp oladje a","",1.885556,8.4175,3,"","mapping",2014,8.0,14.0,"","","","","","",2,22007,"","","","",11723.650459815703,305,305,305,254
"BEN","BJ",375,3263.0,3263,"epp onkinhoue","",1.804722,6.276389,3,"","mapping",2014,8.0,14.0,"","","","","","",2,22033,"","","","",1495.9176948043976,306,306,306,255
"BEN","BJ",368,3218.0,3218,"epp orou kouare","",0.9936111,10.38,3,"","mapping",2014,8.0,14.0,"","","","","","",2,21933,"","","","",6362.454739043808,307,307,307,256
"BEN","BJ",371,3246.0,3246,"epp ouedeme centre a","",2.178889,8.013056,3,"","mapping",2014,8.0,14.0,"","","","","","",2,21994,"","","","",4008.058297819871,308,308,308,257
"BEN","BJ",375,3262.0,3262,"epp ouedeme pedah 2","",1.943889,6.490833,3,"","mapping",2014,8.0,14.0,"","","","","","",2,22022,"","","","",2776.184074371488,309,309,309,258
"BEN","BJ",376,3271.0,3271,"epp ouindodji b","",2.616314,6.544867,3,"","mapping",2015,8.0,14.0,"","","","","","",2,22156,"","","","",2213.7789801330346,310,310,310,259
"BEN","BJ",376,3270.0,3270,"epp ouiya","",2.603753,6.587917,3,"","mapping",2015,8.0,14.0,"","","","","","",2,22143,"","","","",1919.279525751458,311,311,311,260
"BEN","BJ",367,3212.0,3212,"epp ounet a","",2.403611,11.22944,3,"","mapping",2014,8.0,14.0,"","","","","","",2,21922,"","","","",6315.830120640955,312,312,312,261
"BEN","BJ",371,3249.0,3249,"epp ouoghi","",2.561742,8.123847,3,"","mapping",2015,8.0,14.0,"","","","","","",2,22246,"","","","",18420.829465419785,313,313,313,262
"BEN","BJ",378,3286.0,3286,"epp ouokon b","",2.462303,7.096422,3,"","mapping",2015,8.0,14.0,"","","","","","",2,22168,"","","","",5758.005137176765,314,314,314,263
"BEN","BJ",367,3213.0,3213,"epp pade","",2.883333,11.04111,3,"","mapping",2014,8.0,14.0,"","","","","","",2,21993,"","","","",5115.149712334592,315,315,315,264
"BEN","BJ",370,3241.0,3241,"epp pane","",3.03875,9.737383,3,"","mapping",2015,8.0,14.0,"","","","","","",2,22242,"","","","",6071.824645945411,316,316,316,265
"BEN","BJ",370,3241.0,3241,"epp perere centre /a","",2.991011,9.801431,3,"","mapping",2015,8.0,14.0,"","","","","","",2,22243,"","","","",1063.7022097909708,317,317,317,266
"BEN","BJ",371,3244.0,3244,"epp pira c","",1.73,8.494444,3,"","mapping",2014,8.0,14.0,"","","","","","",2,22006,"","","","",19360.91999171361,318,318,318,267
"BEN","BJ",368,3221.0,3221,"epp porga a","",0.9919444,11.01306,3,"","mapping",2014,8.0,14.0,"","","","","","",2,21943,"","","","",17820.620080810593,319,319,319,268
"BEN","BJ",370,3238.0,3238,"epp pourapare","",2.678727,9.833963,3,"","mapping",2013,8.0,14.0,"","","","","","",2,21908,"","","","",15266.54896287277,320,320,320,269
"BEN","BJ",371,3246.0,3246,"epp riffo a","",2.316667,8.078889,3,"","mapping",2014,8.0,14.0,"","","","","","",2,21998,"","","","",2921.8157167972463,321,321,321,270
"BEN","BJ",378,3288.0,3288,"epp sagbovi","",2.368672,7.126728,3,"","mapping",2015,8.0,14.0,"","","","","","",2,22072,"","","","",2170.546965207398,322,322,322,271
"BEN","BJ",375,3263.0,3263,"epp sague","",1.803889,6.440278,3,"","mapping",2014,8.0,14.0,"","","","","","",2,22032,"","","","",2010.9219498774996,323,323,323,272
"BEN","BJ",378,3282.0,3282,"epp sahe fonli","",1.948431,7.08135,3,"","mapping",2015,8.0,14.0,"","","","","","",2,22252,"","","","",1477.71321182091,324,324,324,273
"BEN","BJ",367,3216.0,3216,"epp saonzi","",3.587778,10.7175,3,"","mapping",2014,8.0,14.0,"","","","","","",2,21982,"","","","",7817.834979726493,325,325,325,274
"BEN","BJ",373,3257.0,3257,"epp sawame","",1.780278,7.098056,3,"","mapping",2014,8.0,14.0,"","","","","","",2,22066,"","","","",6192.44393472361,326,326,326,275
"BEN","BJ",369,3229.0,3229,"epp segbeya","",2.053164,6.506669,3,"","mapping",2015,8.0,14.0,"","","","","","",2,22079,"","","","",5477.629841252165,327,327,327,276
"BEN","BJ",368,3219.0,3219,"epp sekougourou","",1.755833,10.38111,3,"","mapping",2014,8.0,14.0,"","","","","","",2,21944,"","","","",8140.84013134342,328,328,328,277
"BEN","BJ",369,3230.0,3230,"epp seme tohokpa","",2.195275,6.401078,3,"","mapping",2015,8.0,14.0,"","","","","","",2,22220,"","","","",1283.8914659028965,329,329,329,278
"BEN","BJ",370,3239.0,3239,"epp serekali","",3.040386,9.9169,3,"","mapping",2015,8.0,14.0,"","","","","","",2,22186,"","","","",9153.526784180383,330,330,330,279
"BEN","BJ",369,3234.0,3234,"epp sessivami","",2.380997,6.868197,3,"","mapping",2015,8.0,14.0,"","","","","","",2,22212,"","","","",8752.02398761628,331,331,331,280
"BEN","BJ",370,3242.0,3242,"epp siki a","",2.388611,10.17583,3,"","mapping",2014,8.0,14.0,"","","","","","",2,21971,"","","","",7193.805736116412,332,332,332,281
"BEN","BJ",369,3231.0,3231,"epp so zounko","",2.415056,6.468269,3,"","mapping",2015,8.0,14.0,"","","","","","",2,22084,"","","","",5925.27698105001,333,333,333,282
"BEN","BJ",373,3255.0,3255,"epp sokouhoue","",1.684167,6.904444,3,"","mapping",2014,8.0,14.0,"","","","","","",2,22044,"","","","",33.294939347835104,334,334,334,283
"BEN","BJ",370,3241.0,3241,"epp sonon/b","",2.892342,9.541194,3,"","mapping",2015,8.0,14.0,"","","","","","",2,22241,"","","","",1056.2759568762986,335,335,335,284
"BEN","BJ",367,3236.0,3236,"epp sori b","",2.782222,10.71694,3,"","mapping",2014,8.0,14.0,"","","","","","",2,21925,"","","","",10364.468037802162,336,336,336,285
"BEN","BJ",372,3252.0,3252,"epp soubouroukou/a","",1.642856,9.667939,3,"","mapping",2015,8.0,14.0,"","","","","","",2,22234,"","","","",3618.7695972744414,337,337,337,286
"BEN","BJ",367,3236.0,3236,"epp soukarou a","",2.693333,10.68972,3,"","mapping",2014,8.0,14.0,"","","","","","",2,21928,"","","","",2682.732977392292,338,338,338,287
"BEN","BJ",371,3246.0,3246,"epp sowe b","",2.166111,7.979722,3,"","mapping",2014,8.0,14.0,"","","","","","",2,21995,"","","","",4008.058297819871,339,339,339,288
"BEN","BJ",372,3252.0,3252,"epp taifa a","",1.661183,9.694406,3,"","mapping",2015,8.0,14.0,"","","","","","",2,22235,"","","","",3618.7695972744414,340,340,340,289
"BEN","BJ",369,3232.0,3232,"epp takon","",2.086272,6.818606,3,"","mapping",2015,8.0,14.0,"","","","","","",2,22205,"","","","",2465.1332546676085,341,341,341,290
"BEN","BJ",372,3251.0,3251,"epp taneka koko","",1.496838,9.859328,3,"","mapping",2013,8.0,14.0,"","","","","","",2,21912,"","","","",3473.713711097955,342,342,342,291
"BEN","BJ",373,3258.0,3258,"epp tannou cola b","",1.7902779999999998,6.875556,3,"","mapping",2014,8.0,14.0,"","","","","","",2,22058,"","","","",20.858084588218528,343,343,343,292
"BEN","BJ",368,3225.0,3225,"epp tanongou","",1.436111,10.81306,3,"","mapping",2014,8.0,14.0,"","","","","","",2,21957,"","","","",10605.260684992238,344,344,344,293
"BEN","BJ",368,3218.0,3218,"epp tapoga a","",0.9905556,10.56889,3,"","mapping",2014,8.0,14.0,"","","","","","",2,21931,"","","","",6894.807436686616,345,345,345,294
"BEN","BJ",370,3239.0,3239,"epp tasso","",3.232342,9.675275,3,"","mapping",2015,8.0,14.0,"","","","","","",2,22187,"","","","",21594.731164633264,346,346,346,295
"BEN","BJ",368,3226.0,3226,"epp tchakalakou","",1.344722,10.54111,3,"","mapping",2014,8.0,14.0,"","","","","","",2,21950,"","","","",6103.410955714701,347,347,347,296
"BEN","BJ",368,3226.0,3226,"epp tchakifaga","",1.346111,10.48722,3,"","mapping",2014,8.0,14.0,"","","","","","",2,21951,"","","","",3624.7438186834966,348,348,348,297
"BEN","BJ",376,3271.0,3271,"epp tchakla ouanho b","",2.650175,6.534058,3,"","mapping",2015,8.0,14.0,"","","","","","",2,22152,"","","","",2744.3448902993628,349,349,349,298
"BEN","BJ",370,3243.0,3243,"epp tchatchou a","",2.556389,9.125556,3,"","mapping",2014,8.0,14.0,"","","","","","",2,21966,"","","","",17333.402367363113,350,350,350,299
"BEN","BJ",370,3239.0,3239,"epp tchikandou a","",3.357642,9.839372,3,"","mapping",2015,8.0,14.0,"","","","","","",2,22184,"","","","",25.338994962254073,351,351,351,300
"BEN","BJ",372,3223.0,3223,"epp tchitchakou","",1.439343,9.732037,3,"","mapping",2013,8.0,14.0,"","","","","","",2,21917,"","","","",10541.215687186173,352,352,352,301
"BEN","BJ",368,3225.0,3225,"epp tchoutchoubou a","",1.263333,10.61583,3,"","mapping",2014,8.0,14.0,"","","","","","",2,21954,"","","","",12397.00058319385,353,353,353,302
"BEN","BJ",372,3250.0,3250,"epp terou","",2.086608,9.072397,4,"","mapping",2015,8.0,14.0,"","","","","","",2,22189,"","","","",20100.815079924996,354,354,354,303
"BEN","BJ",367,3213.0,3213,"epp thuy","",3.023611,11.28917,3,"","mapping",2014,8.0,14.0,"","","","","","",2,21990,"","","","",3405.428268734186,355,355,355,304
"BEN","BJ",368,3224.0,3224,"epp tobre /a","",2.128056,10.19011,3,"","mapping",2013,8.0,14.0,"","","","","","",2,21911,"","","","",14735.591367562502,356,356,356,305
"BEN","BJ",378,3287.0,3287,"epp togadji","",2.160344,7.337503,3,"","mapping",2015,8.0,14.0,"","","","","","",2,22197,"","","","",6161.850423432094,357,357,357,306
"BEN","BJ",369,3227.0,3227,"epp togba a","",2.304383,6.457656,3,"","mapping",2015,8.0,14.0,"","","","","","",2,22086,"","","","",6635.91517754359,358,358,358,307
"BEN","BJ",369,3233.0,3233,"epp togoudo","",2.13745,6.494378,3,"","mapping",2015,8.0,14.0,"","","","","","",2,22216,"","","","",6751.990091410256,359,359,359,308
"BEN","BJ",373,3257.0,3257,"epp tokamey aliho","",1.826111,7.065833,3,"","mapping",2014,8.0,14.0,"","","","","","",2,22067,"","","","",3109.7858572939062,360,360,360,309
"BEN","BJ",375,3264.0,3264,"epp tokpa","",1.821389,6.656944,3,"","mapping",2014,8.0,14.0,"","","","","","",2,22062,"","","","",3595.244639331356,361,361,361,310
"BEN","BJ",378,3282.0,3282,"epp tokpa","",2.001061,6.959067,3,"","mapping",2015,8.0,14.0,"","","","","","",2,22253,"","","","",7895.022134129662,362,362,362,311
"BEN","BJ",369,3228.0,3228,"epp tokpa bolly","",2.058853,6.716133,3,"","mapping",2015,8.0,14.0,"","","","","","",2,22075,"","","","",1499.8562039884669,363,363,363,312
"BEN","BJ",369,3229.0,3229,"epp tokpa dome a","",2.004869,6.497303,3,"","mapping",2015,8.0,14.0,"","","","","","",2,22080,"","","","",5477.629841252165,364,364,364,313
"BEN","BJ",369,3228.0,3228,"epp tokpa gbedji","",2.065461,6.727794,3,"","mapping",2015,8.0,14.0,"","","","","","",2,22076,"","","","",1499.8562039884669,365,365,365,314
"BEN","BJ",378,3285.0,3285,"epp tokpe","",1.708575,7.465639,3,"","mapping",2015,8.0,14.0,"","","","","","",2,22174,"","","","",25454.298693478904,366,366,366,315
"BEN","BJ",367,3214.0,3214,"epp tondikoaria","",3.206944,12.0325,3,"","mapping",2014,8.0,14.0,"","","","","","",2,21976,"","","","",4793.105725985403,367,367,367,316
"BEN","BJ",367,3215.0,3215,"epp tonmboutou","",3.288889,11.8575,3,"","mapping",2014,8.0,14.0,"","","","","","",2,21960,"","","","",10701.213437146012,368,368,368,317
"BEN","BJ",369,3233.0,3233,"epp tori cada gbedou","",2.189683,6.580294,3,"","mapping",2015,8.0,14.0,"","","","","","",2,22217,"","","","",1508.7678553544258,369,369,369,318
"BEN","BJ",376,3277.0,3277,"epp tori agonsa/a","",2.585892,6.432892,3,"","mapping",2015,8.0,14.0,"","","","","","",2,22228,"","","","",1285.7227552947954,370,370,370,319
"BEN","BJ",368,3226.0,3226,"epp toukountouna c","",1.377222,10.49667,3,"","mapping",2014,8.0,14.0,"","","","","","",2,21949,"","","","",3624.7438186834966,371,371,371,320
"BEN","BJ",370,3240.0,3240,"epp tourou c","",2.548333,9.348056,3,"","mapping",2014,8.0,14.0,"","","","","","",2,21988,"","","","",7597.128668158507,372,372,372,321
"BEN","BJ",377,3278.0,3278,"epp towi","",2.517742,6.927242,3,"","mapping",2015,8.0,14.0,"","","","","","",2,22163,"","","","",5289.061228003096,373,373,373,322
"BEN","BJ",370,3235.0,3235,"epp wanrarou","",2.742037,10.17026,3,"","mapping",2013,8.0,14.0,"","","","","","",2,21904,"","","","",10423.854652990209,374,374,374,323
"BEN","BJ",367,3236.0,3236,"epp wara a","",2.673611,10.67611,3,"","mapping",2014,8.0,14.0,"","","","","","",2,21927,"","","","",2682.732977392292,375,375,375,324
"BEN","BJ",370,3240.0,3240,"epp wore b","",2.623889,9.5625,3,"","mapping",2014,8.0,14.0,"","","","","","",2,21984,"","","","",14136.025241115456,376,376,376,325
"BEN","BJ",374,3259.0,3259,"epp yabbe a","",2.47105,6.371967,3,"","mapping",2015,8.0,14.0,"","","","","","",2,22092,"","","","",3537.936282896755,377,377,377,326
"BEN","BJ",372,3251.0,3251,"epp yaka","",1.500306,9.828773,3,"","mapping",2013,8.0,14.0,"","","","","","",2,21913,"","","","",3473.713711097955,378,378,378,327
"BEN","BJ",370,3242.0,3242,"epp yarra","",2.474444,10.50278,3,"","mapping",2014,8.0,14.0,"","","","","","",2,21973,"","","","",26777.747565208705,379,379,379,328
"BEN","BJ",375,3261.0,3261,"epp yegodoe","",1.882778,6.724722,3,"","mapping",2014,8.0,14.0,"","","","","","",2,22012,"","","","",7438.949952289041,380,380,380,329
"BEN","BJ",371,3246.0,3246,"epp zaffe centre c","",2.237222,7.941944,3,"","mapping",2014,8.0,14.0,"","","","","","",2,21997,"","","","",8983.049725022973,381,381,381,330
"BEN","BJ",378,3287.0,3287,"epp zakpota","",2.159239,7.282611,3,"","mapping",2015,8.0,14.0,"","","","","","",2,22196,"","","","",5490.107784497046,382,382,382,331
"BEN","BJ",377,3276.0,3276,"epp zimon","",2.638083,6.714342,3,"","mapping",2015,8.0,14.0,"","","","","","",2,22112,"","","","",5577.947264638521,383,383,383,332
"BEN","BJ",369,3227.0,3227,"epp zinvie agoledji","",2.342164,6.603683,3,"","mapping",2015,8.0,14.0,"","","","","","",2,22088,"","","","",6919.471454735326,384,384,384,333
"BEN","BJ",374,3259.0,3259,"epp zogbo","",2.390669,6.392056,3,"","mapping",2015,8.0,14.0,"","","","","","",2,22093,"","","","",3244.1107438540894,385,385,385,334
"BEN","BJ",373,3255.0,3255,"epp zohoudji kpoba a","",1.638611,6.821389,3,"","mapping",2014,8.0,14.0,"","","","","","",2,22048,"","","","",2877.4830397666155,386,386,386,335
"BEN","BJ",376,3269.0,3269,"epp zougame","",2.544989,6.459428,3,"","mapping",2015,8.0,14.0,"","","","","","",2,22116,"","","","",372.9379067336428,387,387,387,336
"BEN","BJ",378,3285.0,3285,"epp zoukon","",2.022508,7.284808,3,"","mapping",2015,8.0,14.0,"","","","","","",2,22176,"","","","",7727.5073236214475,388,388,388,337
"BEN","BJ",375,3266.0,3266,"epp zoungame","",1.694167,6.6675,3,"","mapping",2014,8.0,14.0,"","","","","","",2,22024,"","","","",4463.058187181158,389,389,389,338
"BEN","BJ",375,3260.0,3260,"epp zounhoue b","",1.701667,6.601389,3,"","mapping",2014,8.0,14.0,"","","","","","",2,22016,"","","","",3620.1578135585596,390,390,390,339
"BEN","BJ",372,3250.0,3250,"epp/abila","",1.709844,8.848756,3,"","mapping",2015,8.0,14.0,"","","","","","",2,22190,"","","","",18660.705063862166,391,391,391,340
"BEN","BJ",372,3250.0,3250,"epp/gbomakro","",1.906189,9.079656,3,"","mapping",2015,8.0,14.0,"","","","","","",2,22192,"","","","",20100.815079924996,392,392,392,341
"BEN","BJ",369,3232.0,3232,"epp/kpokpa","",2.066758,6.764953,3,"","mapping",2015,8.0,14.0,"","","","","","",2,22204,"","","","",1823.8492819916394,393,393,393,342
"BEN","BJ",367,3213.0,3213,"euc kandi a","",2.936389,11.13889,3,"","mapping",2014,8.0,14.0,"","","","","","",2,21991,"","","","",7469.802375616129,394,394,394,343
"BEN","BJ",375,3263.0,3263,"ewe condji","",1.791389,6.274722,3,"","mapping",2014,8.0,14.0,"","","","","","",2,22029,"","","","",1495.9176948043976,395,395,395,344
"BEN","BJ",370,3239.0,3239,"fombawi","",3.3765831,10.026694,3,"","mapping",2012,"","",0.0,0.0,0.0,0.0,60.0,0.0,1,30337,"","",0.0,"",1641.9267291405174,396,396,396,345
"BEN","BJ",369,3230.0,3230,"gakpe centre","",2.130858,6.426253,3,"","mapping",2015,8.0,14.0,"","","","","","",2,22221,"","","","",3339.732023366215,397,397,397,346
"BEN","BJ",376,3270.0,3270,"ganmi a","",2.607767,6.562706,3,"","mapping",2015,8.0,14.0,"","","","","","",2,22130,"","","","",780.7271494406768,398,398,398,347
"BEN","BJ",376,3270.0,3270,"gbakpo sedje","",2.606461,6.619339,3,"","mapping",2015,8.0,14.0,"","","","","","",2,22132,"","","","",1619.9784473511118,399,399,399,348
"BEN","BJ",376,3277.0,3277,"gbakpodji","",2.493656,6.401361,3,"","mapping",2015,8.0,14.0,"","","","","","",2,22226,"","","","",1105.1455589630248,400,400,400,349
"BEN","BJ",370,3239.0,3239,"gbaoussi","",3.181,9.931,3,"","mapping",2012,"","",0.0,0.0,0.0,0.0,69.0,0.0,1,30344,"","",0.0,"",3634.76610765162,401,401,401,350
"BEN","BJ",378,3281.0,3281,"gbecon aligoudo/a","",2.001392,7.170703,3,"","mapping",2015,8.0,14.0,"","","","","","",2,22257,"","","","",1382.4780345366646,402,402,402,351
"BEN","BJ",378,3289.0,3289,"gohisssanou","",2.379686,7.031744,3,"","mapping",2015,8.0,14.0,"","","","","","",2,22200,"","","","",3019.0516953469396,403,403,403,352
"BEN","BJ",370,3239.0,3239,"gori maro","",3.197778,9.869528,3,"","mapping",2012,"","",0.0,0.0,0.0,0.0,64.0,0.0,1,30347,"","",0.0,"",7193.183648306416,404,404,404,353
"BEN","BJ",378,3289.0,3289,"gueme","",2.072789,6.933592,3,"","mapping",2015,8.0,14.0,"","","","","","",2,22201,"","","","",8032.171792018025,405,405,405,354
"BEN","BJ",370,3241.0,3241,"guina gourou","",2.9500647,9.5632379,1,"","mapping",2012,"","",89.0,0.0,89.0,0.0,89.0,0.0,1,30728,0.0,0.0,0.0,0.0,6753.175192278476,406,406,406,355
"BEN","BJ",378,3289.0,3289,"hlanhonou","",2.171536,7.064361,3,"","mapping",2015,8.0,14.0,"","","","","","",2,22202,"","","","",3506.0115298421724,407,407,407,356
"BEN","BJ",377,3279.0,3279,"houmbo a","",2.708314,6.696097,3,"","mapping",2015,8.0,14.0,"","","","","","",2,22102,"","","","",2482.7301800814457,408,408,408,357
"BEN","BJ",369,3232.0,3232,"houngbo dame","",2.051439,6.759183,3,"","mapping",2015,8.0,14.0,"","","","","","",2,22207,"","","","",1823.8492819916394,409,409,409,358
"BEN","BJ",377,3280.0,3280,"ibo ede","",2.704658,7.166408,3,"","mapping",2015,8.0,14.0,"","","","","","",2,22122,"","","","",1132.8693264234107,410,410,410,359
"BEN","BJ",377,3280.0,3280,"igbidi idioro","",2.674011,7.020942,3,"","mapping",2015,8.0,14.0,"","","","","","",2,22120,"","","","",3850.2915445942785,411,411,411,360
"BEN","BJ",377,3274.0,3274,"iwessou","",2.663183,7.608978,3,"","mapping",2015,8.0,14.0,"","","","","","",2,22128,"","","","",4347.811929766238,412,412,412,361
"BEN","BJ",377,3274.0,3274,"iwoye beninois","",2.740994,7.554686,3,"","mapping",2015,8.0,14.0,"","","","","","",2,22126,"","","","",10592.560886405854,413,413,413,362
"BEN","BJ",370,3241.0,3241,"kpebie","",2.6164463,9.343856,1,"","mapping",2012,"","",0.0,0.0,47.0,0.0,47.0,0.0,1,30334,"",0.0,0.0,"",6584.78455725363,414,414,414,363
"BEN","BJ",375,3262.0,3262,"kpetou a","",1.915556,6.426389,3,"","mapping",2014,8.0,14.0,"","","","","","",2,22023,"","","","",2687.2400610723776,415,415,415,364
"BEN","BJ",372,3250.0,3250,"kpindi","",1.429269,9.403406,3,"","mapping",2015,8.0,14.0,"","","","","","",2,22191,"","","","",27728.872756677185,416,416,416,365
"BEN","BJ",373,3256.0,3256,"kpodaha a","",1.709444,6.825278,3,"","mapping",2014,8.0,14.0,"","","","","","",2,22037,"","","","",5617.290484625437,417,417,417,366
"BEN","BJ",376,3275.0,3275,"lokpodji","",2.655444,6.455447,3,"","mapping",2015,8.0,14.0,"","","","","","",2,22108,"","","","",2245.7307570668913,418,418,418,367
"BEN","BJ",376,3268.0,3268,"lowe houenoussou","",2.473836,6.653303,3,"","mapping",2015,8.0,14.0,"","","","","","",2,22145,"","","","",602.8708170126954,419,419,419,368
"BEN","BJ",375,3264.0,3264,"monhov2","",1.817778,6.561111,3,"","mapping",2014,8.0,14.0,"","","","","","",2,22060,"","","","",4445.038185249775,420,420,420,369
"BEN","BJ",370,3241.0,3241,"nassy","",2.982111,9.614028,3,"","mapping",2012,"","",0.0,0.0,0.0,0.0,80.0,0.0,1,30338,"","",0.0,"",6753.175192278476,421,421,421,370
"BEN","BJ",370,3239.0,3239,"nikki","",3.2131232,9.936763,1,"","mapping",2012,"","",0.0,0.0,0.0,0.0,120.0,0.0,1,30336,"","",0.0,"",3634.76610765162,422,422,422,371
"BEN","BJ",371,3249.0,3249,"oke owo/b","",2.708775,8.048681,3,"","mapping",2015,8.0,14.0,"","","","","","",2,22244,"","","","",18420.829465419785,423,423,423,372
"BEN","BJ",377,3280.0,3280,"otetan b","",2.708872,7.157217,3,"","mapping",2015,8.0,14.0,"","","","","","",2,22123,"","","","",1132.8693264234107,424,424,424,373
"BEN","BJ",371,3248.0,3248,"ottola b","",1.658611,8.158889,3,"","mapping",2014,8.0,14.0,"","","","","","",2,22003,"","","","",14911.26877355394,425,425,425,374
"BEN","BJ",369,3230.0,3230,"ouidah","",2.0763253,6.3716474,1,"","",2005,12.0,17.0,100.0,0.0,100.0,4.0,100.0,0.0,2,29996,0.0,0.04,0.0,0.0377358490566037,6727.394440544975,426,426,426,375
"BEN","BJ",370,3238.0,3238,"ourarou","",2.80666,9.88264,3,"","mapping",2012,"","",0.0,0.0,0.0,0.0,72.0,0.0,1,30342,"","",0.0,"",15266.54896287277,427,427,427,376
"BEN","BJ",370,3241.0,3241,"p?a?r?a?r?a?",50057.0,2.991528,9.810833,3,"","",2012,"","",93.0,0.0,93.0,0.0,93.0,0.0,1,18696,0.0,0.0,0.0,0.0,0.0,428,428,429,377
"BEN","BJ",370,3241.0,3241,"perere","",2.991528,9.810833,3,"","mapping",2012,"","",0.0,0.0,0.0,0.0,93.0,0.0,1,30333,"","",0.0,"",0.0,429,429,428,377
"BEN","BJ",376,3275.0,3275,"porto novo","",2.6288523,6.4968574,1,"","",2005,12.0,17.0,80.0,0.0,80.0,0.0,80.0,0.0,2,29997,0.0,0.0,0.0,0.0,2611.7736093686053,430,430,430,378
"BEN","BJ",370,3239.0,3239,"sakabansi","",3.3829869,10.0397778,1,"","mapping",2012,"","",47.0,0.0,47.0,0.0,47.0,0.0,1,30727,0.0,0.0,0.0,0.0,1641.9267291405174,431,431,431,379
"BEN","BJ",369,3230.0,3230,"savi houeyiho b","",2.100858,6.426533,3,"","mapping",2015,8.0,14.0,"","","","","","",2,22222,"","","","",3339.732023366215,432,432,432,380
"BEN","BJ",369,3234.0,3234,"sedje houegoudo  b","",2.371853,6.744625,3,"","mapping",2015,8.0,14.0,"","","","","","",2,22209,"","","","",4235.559939986229,433,433,433,381
"BEN","BJ",369,3229.0,3229,"segbohoue a","",1.961922,6.406203,3,"","mapping",2015,8.0,14.0,"","","","","","",2,22081,"","","","",2410.8725854466475,434,434,434,382
"BEN","BJ",378,3287.0,3287,"sogbelankou","",2.208539,7.28395,3,"","mapping",2015,8.0,14.0,"","","","","","",2,22194,"","","","",5490.107784497046,435,435,435,383
"BEN","BJ",370,3241.0,3241,"sonon","",2.883444,9.537944,3,"","",2012,"","",0.0,0.0,69.0,0.0,0.0,0.0,1,30350,"",0.0,"","",1056.2759568762986,436,436,436,384
"BEN","BJ",370,3239.0,3239,"soumarou","",3.12125,9.876167,3,"","mapping",2012,"","",72.0,0.0,72.0,0.0,0.0,0.0,1,30349,0.0,0.0,"","",3929.284942216577,437,437,437,385
"BEN","BJ",370,3239.0,3239,"suya","",3.0933164,9.8549079,1,"","mapping",2009,"","",0.0,0.0,53.0,0.0,53.0,0.0,1,30514,"",0.0,0.0,"",3929.284942216577,438,438,438,386
"BEN","BJ",376,3267.0,3267,"tchakou a","",2.705058,6.484539,3,"","mapping",2015,8.0,14.0,"","","","","","",2,22140,"","","","",1410.4497619008064,439,439,439,387
"BEN","BJ",370,3239.0,3239,"tchikandou","",3.357833,9.83925,3,"","mapping",2012,"","",0.0,0.0,0.0,0.0,97.0,0.0,1,30352,"","",0.0,"",25.338994962254073,440,440,440,388
"BEN","BJ",376,3277.0,3277,"tchonvi a","",2.502422,6.405992,3,"","mapping",2015,8.0,14.0,"","","","","","",2,22227,"","","","",1105.1455589630248,441,441,441,389
"BEN","BJ",378,3286.0,3286,"tevedjia/a","",2.410578,7.096486,3,"","mapping",2015,8.0,14.0,"","","","","","",2,22166,"","","","",5758.005137176765,442,442,442,390
"BEN","BJ",370,3241.0,3241,"tisserou","",3.01667,9.8,3,"","mapping",2012,"","",0.0,0.0,69.0,0.0,0.0,0.0,1,30339,"",0.0,"","",2860.9177298125296,443,443,443,391
"BEN","BJ",369,3232.0,3232,"toffo kinzoun","",2.125383,6.820172,3,"","mapping",2015,8.0,14.0,"","","","","","",2,22208,"","","","",4357.355079470123,444,444,444,392
"BEN","BJ",369,3228.0,3228,"togoudo a","",2.170578,6.669719,3,"","mapping",2015,8.0,14.0,"","","","","","",2,22074,"","","","",6177.339677423237,445,445,445,393
"BEN","BJ",376,3270.0,3270,"tohouikanme","",2.604372,6.605033,3,"","mapping",2015,8.0,14.0,"","","","","","",2,22133,"","","","",1619.9784473511118,446,446,446,394
"BEN","BJ",375,3266.0,3266,"urbaine centre a","",1.712222,6.631944,3,"","mapping",2014,8.0,14.0,"","","","","","",2,22025,"","","","",3620.1578135585596,447,447,447,395
