iso3,iso2,admin1_id,admin2_id,iu_id,location,site_id,longitude,latitude,georeliability,location_type,survey_type,year,age_start,age_end,hk_examined,hk_positive,hk_perc_highinfection,hk_perc_moderateinfection,asc_examined,asc_positive,asc_perc_highinfection,asc_perc_moderateinfection,tt_examined,tt_positive,tt_perc_highinfection,tt_perc_moderateinfection,quality,sn,hk_prevalence,asc_prevalence,tt_prevalence,sth_prevalence,shortest,id,src,dst,identifier
COD,CD,1498.0,24760.0,13954.0,abbe mangongo,11460.0,20.39833333,2.415277778,3,,,2015.0,,,50,23,,,50,3,,,50,0,,,1,3473,0.46,0.06,0.0,0.4645283018867924,11747.247559490852,0,0,0,1
COD,CD,1506.0,24780.0,14228.0,abulakama,50809.0,25.24098,1.09174,3,,,2013.0,,,50,14,,,50,18,,,50,8,,,1,4249,0.28,0.36,0.16,0.5782339622641509,4882.02353328145,1,1,1,2
COD,CD,1498.0,24760.0,13936.0,ado mbangi,11327.0,21.04194444,2.784722222,3,,,2015.0,,,50,1,,,50,29,,,50,19,,,1,3387,0.02,0.58,0.38,0.7026490566037735,17928.484113703056,2,2,2,3
COD,CD,1506.0,24779.0,14219.0,adobea,50726.0,30.54483,3.0539701,3,,,2013.0,,,30,0,,,30,1,,,30,0,,,1,4197,0.0,0.0333333333333333,0.0,0.0314465408805031,2739.7134777753754,3,3,3,4
COD,CD,1506.0,24780.0,14225.0,afilondo,50772.0,25.311934,1.5656,3,,,2013.0,,,50,26,,,50,13,,,50,3,,,1,4235,0.52,0.26,0.06,0.6284075471698113,1731.0069147170313,4,4,4,5
COD,CD,1506.0,24779.0,14220.0,agamba,50730.0,30.828671,2.86128,3,,,2013.0,,,50,0,,,50,0,,,50,0,,,1,4201,0.0,0.0,0.0,0.0,968.3458786704678,5,5,5,6
COD,CD,1506.0,24779.0,14286.0,agoyi,52022.0,27.96586,2.1063001,3,,,2013.0,,,50,0,,,50,0,,,50,0,,,1,4481,0.0,0.0,0.0,0.0,6078.066471399566,6,6,6,7
COD,CD,1506.0,24779.0,14221.0,ahologo,50735.0,30.50576,2.5537,3,,,2013.0,,,50,1,,,50,1,,,50,0,,,1,4206,0.02,0.02,0.0,0.0373584905660377,5259.218024810496,7,7,7,8
COD,CD,1506.0,24779.0,14258.0,akonzkanyi,51550.0,31.011101,2.2184701,3,,,2013.0,,,50,0,,,50,1,,,50,0,,,1,4372,0.0,0.02,0.0,0.0188679245283018,1703.476699643848,8,8,8,9
COD,CD,1506.0,24777.0,14276.0,akpudu,51875.0,26.98814,3.0595801,3,,,2013.0,,,50,9,,,50,1,,,50,12,,,1,4447,0.18,0.02,0.24,0.3672301886792452,13255.651141312956,9,9,9,10
COD,CD,1498.0,24762.0,13920.0,akula,11185.0,20.1834431,2.3780262,1,,,2014.0,,,50,9,,,50,10,,,50,3,,,1,3312,0.18,0.2,0.06,0.3616603773584905,6735.677533940356,10,10,10,11
COD,CD,1506.0,24778.0,14239.0,alimoke,51001.0,29.71689,3.74577,3,,,2013.0,,,50,11,,,50,0,,,50,0,,,1,4307,0.22,0.0,0.0,0.2075471698113207,13631.119917579234,11,11,11,12
COD,CD,1506.0,24779.0,14272.0,alla ceca,51812.0,31.124701,2.25035,3,,,2013.0,,,36,0,,,36,0,,,36,0,,,1,4429,0.0,0.0,0.0,0.0,13135.150512280938,12,12,12,13
COD,CD,1504.0,24775.0,14164.0,alunguli,51093.0,25.938351,-2.95859,3,,,2013.0,,,64,22,,,64,1,,,64,0,,,1,4118,0.34375,0.015625,0.0,0.3339659492924527,804.2623975019601,13,13,13,14
COD,CD,1506.0,24778.0,14243.0,ambekure,51019.0,29.0434,2.7149301,3,,,2013.0,,,50,0,,,50,0,,,50,0,,,1,4324,0.0,0.0,0.0,0.0,556.7364369975105,14,14,14,15
COD,CD,1506.0,24778.0,14239.0,andata,51002.0,30.042721,3.8136401,3,,,2013.0,,,50,4,,,50,1,,,50,0,,,1,4299,0.08,0.02,0.0,0.0928301886792452,1368.1444724489181,15,15,15,16
COD,CD,1506.0,24779.0,14272.0,ang' aba,51813.0,30.2224227,3.8685895,2,,,2013.0,,,34,0,,,34,0,,,34,0,,,1,4430,0.0,0.0,0.0,0.0,1251.4291042601312,16,16,16,17
COD,CD,1506.0,24779.0,14220.0,ania,50731.0,30.83449,2.84057,3,,,2013.0,,,50,0,,,50,0,,,50,0,,,1,4199,0.0,0.0,0.0,0.0,2397.452102590313,17,17,17,18
COD,CD,1506.0,24780.0,14259.0,anuarite,51553.0,25.050182,0.53437299,3,,,2013.0,,,50,10,,,50,10,,,50,0,,,1,4379,0.2,0.2,0.0,0.3396226415094339,1171.5365116685532,18,18,18,19
COD,CD,1498.0,24759.0,13957.0,artisanal,11493.0,18.26034,0.0332296,1,,,2014.0,,,50,21,,,50,26,,,50,22,,,1,3487,0.42,0.52,0.44,0.7963169811320753,0.0,19,19,232,20
COD,CD,1498.0,24759.0,13901.0,artisanal/itela,11068.0,19.80205,1.2174408,1,,,2014.0,,,50,10,,,50,18,,,50,13,,,1,3225,0.2,0.36,0.26,0.5859622641509434,0.0,20,20,1334,21
COD,CD,1506.0,24779.0,14237.0,as jiba,50988.0,30.67989,1.865868,1,,,2013.0,,,50,0,,,50,15,,,50,0,,,1,4292,0.0,0.3,0.0,0.2830188679245282,3836.3138954871497,21,21,21,22
COD,CD,1500.0,24767.0,14028.0,asami,51396.0,23.591511,-3.51405,3,,,2012.0,,,47,11,,,47,2,,,47,1,,,1,3832,0.2340425531914893,0.0425531914893617,0.0212765957446808,0.2662641189586267,1556.067173401449,22,22,22,23
COD,CD,1500.0,24767.0,14027.0,asanga mbanga (50),51349.0,22.44536,-3.77916,3,,,2012.0,,,50,21,,,50,14,,,50,14,,,1,3828,0.42,0.28,0.28,0.6597433962264151,12284.925003999906,23,23,23,24
COD,CD,1506.0,24777.0,14252.0,asuku,51381.0,23.633333,3.5166669,3,,,2012.0,,,50,21,,,50,18,,,50,20,,,1,4349,0.42,0.36,0.4,0.7332830188679245,12135.576699805659,24,24,24,25
COD,CD,1506.0,24779.0,14215.0,atsinia,50708.0,30.555981,3.0819199,3,,,2013.0,,,30,1,,,30,0,,,30,0,,,1,4180,0.0333333333333333,0.0,0.0,0.0314465408805031,3353.988487515071,25,25,25,26
COD,CD,1506.0,24779.0,14251.0,aubha,51372.0,30.45207,3.3678601,3,,,2013.0,,,33,6,,,33,0,,,33,0,,,1,4343,0.1818181818181818,0.0,0.0,0.1715265866209262,11044.852383851925,26,26,26,27
COD,CD,1506.0,24779.0,14220.0,autsai,50732.0,30.822399,2.8673,3,,,2013.0,,,50,1,,,50,0,,,50,0,,,1,4198,0.02,0.0,0.0,0.0188679245283018,968.3458786704678,27,27,27,28
COD,CD,1498.0,24762.0,13952.0,av /kambo,11435.0,19.11666667,2.925555556,3,,,2014.0,,,50,1,,,50,5,,,50,0,,,1,3464,0.02,0.1,0.0,0.1113207547169811,19065.615347301886,28,28,28,29
COD,CD,1496.0,24753.0,13824.0,awe nganga,50977.0,18.566429,-4.0920868,3,,,2013.0,,,50,5,,,50,7,,,50,0,,,1,2753,0.1,0.14,0.0,0.2132075471698113,15472.437507912644,29,29,29,30
COD,CD,1506.0,24777.0,14276.0,azaya,51876.0,26.80991,3.0500901,3,,,2013.0,,,50,7,,,50,1,,,50,12,,,1,4450,0.14,0.02,0.24,0.3391245283018868,11998.978262519737,30,30,30,31
COD,CD,1499.0,24765.0,13988.0,b. nkelende/ep. ditabija,51492.0,23.26615,-5.6233802,3,,,2012.0,,,50,37,,,50,2,,,50,0,,,1,3636,0.74,0.04,0.0,0.7079245283018868,7444.726170570247,31,31,31,32
COD,CD,1500.0,24768.0,14050.0,ba nkunda,51979.0,23.30024,-6.33746,3,,,2012.0,,,50,11,,,50,1,,,50,0,,,1,3921,0.22,0.02,0.0,0.2222641509433962,5672.059870562688,32,32,32,33
COD,CD,1506.0,24780.0,14287.0,babagulu,52028.0,25.64736,0.4779,3,,,2013.0,,,47,17,,,47,1,,,47,1,,,1,4485,0.3617021276595745,0.0212765957446808,0.0212765957446808,0.3665799867299553,10942.715541403284,33,33,33,34
COD,CD,1506.0,24780.0,14274.0,babagulu,51834.0,27.25,0.5,3,,,2013.0,,,50,18,,,50,0,,,50,25,,,1,4437,0.36,0.0,0.5,0.641509433962264,6995.417160966247,34,34,34,35
COD,CD,1506.0,24780.0,14274.0,babule,51835.0,26.266667,0.766667,1,,,2013.0,,,50,22,,,50,0,,,50,25,,,1,4438,0.44,0.0,0.5,0.6792452830188678,1074.3652097526613,35,35,35,36
COD,CD,1506.0,24780.0,14228.0,badambila,50810.0,25.202459,1.07078,3,,,2013.0,,,50,18,,,50,18,,,50,10,,,1,4247,0.36,0.36,0.2,0.6342641509433962,4882.02353328145,36,36,36,37
COD,CD,1496.0,24753.0,13864.0,badi,52010.0,18.438259,-4.4667802,3,,,2013.0,,,50,7,,,50,6,,,50,4,,,1,2932,0.14,0.12,0.08,0.2865509433962264,6679.280767087359,37,37,37,38
COD,CD,1500.0,24766.0,14030.0,badimay,51433.0,25.736481,-5.38901,3,,,2012.0,,,45,19,,,45,0,,,45,0,,,1,3845,0.4222222222222222,0.0,0.0,0.3983228511530398,10688.731780583683,38,38,38,39
COD,CD,1500.0,24767.0,14038.0,badingue,51638.0,23.960751,-5.1630602,3,,,2012.0,,,50,4,,,50,8,,,50,5,,,1,3877,0.08,0.16,0.1,0.2872452830188679,12203.203969743301,39,39,39,40
COD,CD,1506.0,24777.0,14229.0,badja baya,11083.0,19.9627329,4.5847874,4,,,2014.0,,,50,4,,,50,7,,,50,1,,,1,4257,0.08,0.14,0.02,0.2119094339622641,21773.55107840189,40,40,40,41
COD,CD,1506.0,24777.0,14217.0,badolo,50723.0,25.85302,4.0296998,3,,,2013.0,,,50,9,,,50,7,,,50,5,,,1,4193,0.18,0.14,0.1,0.3446415094339622,2706.3792041579277,41,41,41,42
COD,CD,1506.0,24780.0,14274.0,baego,51836.0,26.2570385,0.7673283,1,,,2013.0,,,45,15,,,45,0,,,45,1,,,1,4434,0.3333333333333333,0.0,0.0222222222222222,0.3284416491963661,1074.3652097526613,42,42,42,43
COD,CD,1506.0,24778.0,14330.0,bafwabaka,50875.0,27.678333,2.1205561,3,,,2013.0,,,50,0,,,50,0,,,50,0,,,1,4538,0.0,0.0,0.0,0.0,8970.113398977024,43,43,43,44
COD,CD,1506.0,24780.0,14223.0,bafwabalinga,50745.0,26.9351994,0.8308310999999999,1,,,2013.0,,,50,16,,,50,0,,,50,1,,,1,4218,0.32,0.0,0.02,0.3147169811320754,26324.348905214843,44,44,44,45
COD,CD,1506.0,24780.0,14222.0,bafwagbogbo,50741.0,27.00366,1.39467,3,,,2013.0,,,50,33,,,50,1,,,50,9,,,1,4212,0.66,0.02,0.18,0.6856377358490565,228.34635376006796,45,45,45,46
COD,CD,1506.0,24780.0,14223.0,bafwamate,50746.0,27.014219,1.31771,3,,,2013.0,,,50,27,,,50,2,,,50,13,,,1,4216,0.54,0.04,0.26,0.6351094339622642,8649.785602699163,46,46,46,47
COD,CD,1506.0,24780.0,14244.0,bagbanje,51058.0,24.556931,1.00029,3,,,2013.0,,,50,20,,,50,19,,,50,10,,,1,4329,0.4,0.38,0.2,0.6626415094339623,24721.65215136112,47,47,47,48
COD,CD,1498.0,24761.0,13932.0,bagon 2,11259.0,19.61583333,3.376111111,3,,,2014.0,,,50,3,,,50,0,,,50,3,,,1,3370,0.06,0.0,0.06,0.1098113207547169,30.975860678008758,48,48,48,49
COD,CD,1498.0,24761.0,13960.0,bainga,11513.0,22.47535,4.07087,3,,,2014.0,,,50,14,,,50,28,,,50,3,,,1,3505,0.28,0.56,0.06,0.6624603773584906,4534.690114308161,49,49,49,50
COD,CD,1500.0,24767.0,14047.0,bakamba,51849.0,23.808929,-4.8829098,3,,,2012.0,,,46,3,,,46,9,,,46,3,,,1,3917,0.0652173913043478,0.1956521739130435,0.0652173913043478,0.2803263854750942,18696.93963423903,50,50,50,51
COD,CD,1506.0,24778.0,14275.0,bakangi,51858.0,27.66226,2.3168399,3,,,2013.0,,,50,1,,,50,0,,,50,0,,,1,4440,0.02,0.0,0.0,0.0188679245283018,14606.576746454752,51,51,51,52
COD,CD,1506.0,24778.0,14279.0,bakanza,51901.0,27.83445,3.10147,3,,,2013.0,,,50,0,,,50,0,,,50,0,,,1,4464,0.0,0.0,0.0,0.0,9408.894869747468,52,52,52,53
COD,CD,1506.0,24779.0,14220.0,bakhita,50733.0,30.84322,2.8684101,3,,,2013.0,,,44,1,,,44,0,,,44,0,,,1,4200,0.0227272727272727,0.0,0.0,0.0214408233276157,1804.0594802665755,53,53,53,54
COD,CD,1500.0,24766.0,14021.0,bakile,51147.0,24.633333,-5.566667,1,,,2012.0,,,48,0,,,48,0,,,48,0,,,1,3802,0.0,0.0,0.0,0.0,6564.616041665694,54,54,54,55
COD,CD,1506.0,24779.0,14286.0,bakombese,52023.0,27.99332,2.1663401,3,,,2013.0,,,50,0,,,50,0,,,50,0,,,1,4482,0.0,0.0,0.0,0.0,7353.720140297669,55,55,55,56
COD,CD,1498.0,24761.0,13967.0,bakpa,11498.0,21.20861111,3.82,3,,,2014.0,,,50,2,,,50,1,,,50,0,,,1,3536,0.04,0.02,0.0,0.0558490566037735,127.76218300006143,56,56,56,57
COD,CD,1500.0,24766.0,14044.0,bakua mfumu,51762.0,23.89613,-6.6205802,3,,,2012.0,,,27,0,,,27,0,,,27,0,,,1,3904,0.0,0.0,0.0,0.0,7111.288432922432,57,57,57,58
COD,CD,1500.0,24766.0,14023.0,bakua mukendi,51191.0,23.52392,-6.7964702,3,,,2012.0,,,50,6,,,50,3,,,50,0,,,1,3811,0.12,0.06,0.0,0.1630188679245282,2917.461088953823,58,58,58,59
COD,CD,1500.0,24768.0,14040.0,bakua mulumba,51686.0,23.725416,-6.023983,3,,,2012.0,,,49,2,,,49,2,,,49,0,,,1,3888,0.0408163265306122,0.0408163265306122,0.0,0.0754402646695952,1793.4541852474545,59,59,59,60
COD,CD,1499.0,24765.0,14000.0,bakua ndala,51743.0,22.894291,-4.7170901,3,,,2012.0,,,46,21,,,46,10,,,46,2,,,1,3697,0.4565217391304347,0.217391304347826,0.0434782608695652,0.5595866331912333,2324.870534763785,60,60,60,61
COD,CD,1499.0,24765.0,13983.0,bakua ndaye,51233.0,23.13377,-5.4170198,3,,,2012.0,,,49,19,,,49,6,,,49,0,,,1,3603,0.3877551020408163,0.1224489795918367,0.0,0.4365319481662514,12877.120384710406,61,61,61,62
COD,CD,1506.0,24777.0,14276.0,bakumba,51877.0,26.90328,3.1614399,3,,,2013.0,,,50,5,,,50,0,,,50,16,,,1,4452,0.1,0.0,0.32,0.3660377358490566,1687.482775127375,62,62,62,63
COD,CD,1498.0,24762.0,13952.0,balabala,11436.0,20.6966944,2.846381,3,,,2014.0,,,50,2,,,50,5,,,50,3,,,1,3466,0.04,0.1,0.06,0.1772075471698113,18925.399199205665,63,63,63,64
COD,CD,1500.0,24766.0,14030.0,balangu,51434.0,25.4391,-5.2792301,3,,,2012.0,,,49,23,,,49,1,,,49,0,,,1,3843,0.4693877551020408,0.0204081632653061,0.0,0.4530345060627254,6069.838406663592,64,64,64,65
COD,CD,1506.0,24780.0,14291.0,baluola,52051.0,23.59026,0.44158,3,,,2013.0,,,50,29,,,50,1,,,50,1,,,1,4502,0.58,0.02,0.02,0.5628603773584905,8539.970728819506,65,65,65,66
COD,CD,1498.0,24759.0,13944.0,bamanya,11390.0,18.3163497,0.009961,1,,,2014.0,,,50,2,,,50,13,,,50,16,,,1,3423,0.04,0.26,0.32,0.4876679245283019,3668.1601914326325,66,66,66,67
COD,CD,1506.0,24779.0,14224.0,bambu,50759.0,30.24361,1.795278,3,,,2013.0,,,75,0,,,75,8,,,75,1,,,1,4227,0.0,0.1066666666666666,0.0133333333333333,0.1118658280922431,1120.5507330454795,67,67,67,68
COD,CD,1506.0,24780.0,14225.0,banalia,50773.0,25.32228,1.5524616,1,,,2013.0,,,49,18,,,49,17,,,49,5,,,1,4237,0.3673469387755102,0.3469387755102041,0.1020408163265306,0.5933944542745233,772.306375451802,68,68,68,69
COD,CD,1497.0,24756.0,13888.0,banana,51599.0,12.3893488,-5.9871641,1,,,2013.0,,,50,0,,,50,12,,,50,3,,,1,3123,0.0,0.24,0.06,0.2694339622641509,6428.274597279147,69,69,69,70
COD,CD,1498.0,24763.0,13959.0,banana,11508.0,21.10583333,-0.9002777780000001,3,,,2015.0,,,50,1,,,50,18,,,50,1,,,1,3498,0.02,0.36,0.02,0.3635320754716981,24009.84607293723,70,70,70,71
COD,CD,1497.0,24757.0,13885.0,bandakani,51530.0,13.85809,-4.852092,1,,,2013.0,,,41,12,,,41,3,,,41,0,,,1,3090,0.2926829268292683,0.073170731707317,0.0,0.3249413534172156,0.0,71,71,72,72
COD,CD,1497.0,24757.0,13885.0,bandakani,11356.0,13.85809,-4.852092,1,,,2012.0,,,41,10,,,41,1,,,41,0,,,1,3087,0.2439024390243902,0.024390243902439,0.0,0.2474941914628534,0.0,72,72,71,72
COD,CD,1506.0,24777.0,14229.0,bandima,11084.0,25.17547,4.151,1,,,2014.0,,,50,6,,,50,10,,,50,5,,,1,4259,0.12,0.2,0.1,0.3456603773584906,0.0,73,73,485,73
COD,CD,1506.0,24778.0,14275.0,banetsane,51859.0,27.70314,2.5404401,3,,,2013.0,,,50,0,,,50,0,,,50,0,,,1,4445,0.0,0.0,0.0,0.0,73.60254384012627,74,74,74,74
COD,CD,1499.0,24764.0,13968.0,banga centre,50781.0,20.46562,-5.463693,1,,,2012.0,,,40,9,,,40,14,,,40,10,,,1,3542,0.225,0.35,0.25,0.5869693396226413,0.0,75,75,76,75
COD,CD,1499.0,24764.0,13968.0,banga cmco,50782.0,20.46562,-5.463693,1,,,2012.0,,,47,5,,,47,15,,,47,12,,,1,3544,0.1063829787234042,0.3191489361702128,0.2553191489361702,0.5159633985198685,0.0,76,76,75,75
COD,CD,1498.0,24763.0,13959.0,bangalakala,11509.0,21.28055556,-0.641388889,3,,,2015.0,,,50,0,,,50,26,,,50,8,,,1,3500,0.0,0.52,0.16,0.5630188679245283,10779.926475650924,77,77,77,76
COD,CD,1506.0,24780.0,14228.0,bangole,50811.0,25.193333,0.87805599,3,,,2013.0,,,50,20,,,50,17,,,50,7,,,1,4246,0.4,0.34,0.14,0.6221132075471699,21481.08761332955,78,78,78,77
COD,CD,1496.0,24753.0,13816.0,banguimi,50754.0,17.67227,-3.5023,3,,,2013.0,,,50,10,,,50,12,,,50,7,,,1,2721,0.2,0.24,0.14,0.4501132075471698,11113.549977819619,79,79,79,78
COD,CD,1497.0,24755.0,13884.0,bangunza,51526.0,12.95314,-5.40808,3,,,2013.0,,,50,0,,,50,15,,,50,12,,,1,3081,0.0,0.3,0.24,0.4415094339622641,0.0,80,80,81,79
COD,CD,1497.0,24755.0,13884.0,bangunza,11351.0,12.95314,-5.40808,3,,,2012.0,,,50,0,,,50,0,,,50,0,,,1,3085,0.0,0.0,0.0,0.0,0.0,81,81,80,79
COD,CD,1496.0,24753.0,13839.0,bansiengwon,51301.0,19.29002,-4.4579301000000005,3,,,2013.0,,,50,1,,,50,1,,,50,0,,,1,2827,0.02,0.02,0.0,0.0373584905660377,7809.966421584175,82,82,82,80
COD,CD,1496.0,24753.0,13829.0,bansuo,51053.0,19.508341,-4.0750599,3,,,2013.0,,,50,0,,,50,0,,,50,0,,,1,2782,0.0,0.0,0.0,0.0,2.3914462335602704,83,83,83,81
COD,CD,1496.0,24754.0,14329.0,banzow moke,50786.0,17.466667,-1.816667,3,,,2013.0,,,50,0,,,50,33,,,50,13,,,1,4534,0.0,0.66,0.26,0.7060377358490566,8163.277580123935,84,84,84,82
COD,CD,1496.0,24752.0,13865.0,bariga,52025.0,17.32688,-6.7497301,3,,,2013.0,,,37,6,,,37,0,,,37,0,,,1,2933,0.1621621621621621,0.0,0.0,0.1529831718510963,14151.413427174311,85,85,85,83
COD,CD,1506.0,24778.0,14243.0,baruti 1,51020.0,29.04767,2.72644,3,,,2013.0,,,50,0,,,50,1,,,50,0,,,1,4327,0.0,0.02,0.0,0.0188679245283018,1279.7618978964283,86,86,86,84
COD,CD,1506.0,24778.0,14243.0,baruti 2,51021.0,29.087669,2.7269399,3,,,2013.0,,,50,0,,,50,0,,,50,0,,,1,4325,0.0,0.0,0.0,0.0,4453.016830320509,87,87,87,85
COD,CD,1499.0,24765.0,13998.0,basanga,51719.0,22.281469,-5.664793,1,,,2012.0,,,50,19,,,50,12,,,50,0,,,1,3689,0.38,0.24,0.0,0.4988679245283017,7301.961190188301,88,88,88,86
COD,CD,1500.0,24766.0,14017.0,basase,51074.0,24.6111245,-5.6210361,1,,,2012.0,,,49,0,,,49,0,,,49,0,,,1,3783,0.0,0.0,0.0,0.0,6564.616041665694,89,89,89,87
COD,CD,1506.0,24780.0,14274.0,basaula,51837.0,27.44845,0.2577,3,,,2013.0,,,49,27,,,49,0,,,49,22,,,1,4436,0.5510204081632653,0.0,0.4489795918367347,0.7100029075935341,2714.892246477724,90,90,90,88
COD,CD,1496.0,24754.0,14329.0,basimba,50787.0,17.7265,-1.6580499,3,,,2013.0,,,50,0,,,50,42,,,50,24,,,1,4531,0.0,0.84,0.48,0.8649056603773583,19735.417058766347,91,91,91,89
COD,CD,1496.0,24754.0,13818.0,basoko,50776.0,17.3789697,-3.3071655,1,,,2013.0,,,50,1,,,50,10,,,50,0,,,1,2727,0.02,0.2,0.0,0.2037735849056603,1075.2720864358125,92,92,92,90
COD,CD,1506.0,24780.0,14257.0,basoko,51488.0,23.611537,1.2408277,1,,,2013.0,,,50,21,,,50,13,,,50,2,,,1,4369,0.42,0.26,0.04,0.55468679245283,0.0,93,93,94,91
COD,CD,1504.0,24775.0,14164.0,basoko,51094.0,23.611537,1.2408277,1,,,2013.0,,,50,12,,,50,0,,,50,0,,,1,4122,0.24,0.0,0.0,0.2264150943396226,0.0,94,94,93,91
COD,CD,1506.0,24780.0,14284.0,basua,51997.0,25.402779,-0.39162999,3,,,2013.0,,,29,7,,,29,12,,,29,14,,,1,4476,0.2413793103448276,0.4137931034482758,0.4827586206896552,0.7263945932940693,5155.567844254361,95,95,95,92
COD,CD,1506.0,24780.0,14287.0,basukwambula,52029.0,25.999281,0.55492002,3,,,2013.0,,,45,10,,,45,0,,,45,0,,,1,4486,0.2222222222222222,0.0,0.0,0.2096436058700209,30070.850936190287,96,96,96,93
COD,CD,1498.0,24762.0,13934.0,batanga,11313.0,18.5947504,3.7127573,3,,,2014.0,,,50,5,,,50,8,,,50,0,,,1,3379,0.1,0.16,0.0,0.230188679245283,8449.154835419591,97,97,97,94
COD,CD,1506.0,24780.0,14259.0,batiamuka,51554.0,25.187883,0.55186701,3,,,2013.0,,,45,10,,,45,5,,,45,8,,,1,4382,0.2222222222222222,0.1111111111111111,0.1777777777777777,0.4071227062142505,984.3407952278186,98,98,98,95
COD,CD,1506.0,24780.0,14257.0,batikobabo,51489.0,25.084829,0.23023,3,,,2013.0,,,52,26,,,52,2,,,52,2,,,1,4371,0.5,0.0384615384615384,0.0384615384615384,0.5072848051803058,4248.398072450107,99,99,99,96
COD,CD,1499.0,24764.0,13995.0,batshinga,51696.0,21.53307,-4.5897899,3,,,2012.0,,,36,0,,,36,10,,,36,2,,,1,3671,0.0,0.2777777777777778,0.0555555555555555,0.2999068250640577,0.0,100,100,1270,97
COD,CD,1499.0,24764.0,13976.0,baudouin,51040.0,20.595066,-4.3186831,3,,,2012.0,,,50,0,,,50,12,,,50,12,,,1,3569,0.0,0.24,0.24,0.3984905660377358,1160.268499718292,101,101,101,98
COD,CD,1506.0,24777.0,14241.0,bauduali,50957.0,26.280041,3.4043701,3,,,2013.0,,,50,39,,,50,13,,,50,5,,,1,4314,0.78,0.26,0.1,0.8051698113207547,26073.52063627852,102,102,102,99
COD,CD,1506.0,24778.0,14330.0,bavabokea,50876.0,27.76194,2.19678,3,,,2013.0,,,50,0,,,50,0,,,50,0,,,1,4536,0.0,0.0,0.0,0.0,5802.327925985363,103,103,103,100
COD,CD,1506.0,24780.0,14222.0,bavakuzi,50742.0,26.572901,1.3951,3,,,2013.0,,,50,26,,,50,1,,,50,4,,,1,4210,0.52,0.02,0.08,0.5351245283018867,113.92416815290417,104,104,104,101
COD,CD,1506.0,24778.0,14275.0,bavananga,51860.0,27.70986,2.1946599,3,,,2013.0,,,50,0,,,50,1,,,50,0,,,1,4443,0.0,0.02,0.0,0.0188679245283018,5802.327925985363,105,105,105,102
COD,CD,1506.0,24780.0,14222.0,bavazabali,50743.0,27.00309,1.3966399,3,,,2013.0,,,50,20,,,50,0,,,50,5,,,1,4211,0.4,0.0,0.1,0.4339622641509433,228.34635376006796,106,106,106,103
COD,CD,1506.0,24779.0,14286.0,bavemo,52024.0,27.921869,2.0739801,3,,,2013.0,,,50,0,,,50,0,,,50,0,,,1,4483,0.0,0.0,0.0,0.0,6078.066471399566,107,107,107,104
COD,CD,1506.0,24777.0,14217.0,bayule,50724.0,26.198191,3.9381199,3,,,2013.0,,,50,28,,,50,13,,,50,8,,,1,4192,0.56,0.26,0.16,0.6853735849056604,35779.344519217884,108,108,108,105
COD,CD,1506.0,24778.0,14245.0,bede,51060.0,27.556629,2.8285899,3,,,2013.0,,,50,2,,,50,1,,,50,0,,,1,4331,0.04,0.02,0.0,0.0558490566037735,14087.991663354622,109,109,109,106
COD,CD,1499.0,24765.0,14007.0,bel an f,51967.0,22.646667,-5.8698902,3,,,2012.0,,,51,5,,,51,1,,,51,0,,,1,3728,0.0980392156862745,0.0196078431372549,0.0,0.1091742653406164,0.0,110,110,196,107
COD,CD,1504.0,24775.0,14175.0,belia,51889.0,27.45031,-1.46201,3,,,2013.0,,,50,0,,,50,23,,,50,3,,,1,4160,0.0,0.46,0.06,0.4645283018867924,23428.756900243592,111,111,111,108
COD,CD,1498.0,24759.0,13939.0,belondo,11341.0,18.51138889,-0.578888889,3,,,2014.0,,,50,9,,,50,12,,,50,20,,,1,3400,0.18,0.24,0.4,0.5906415094339623,166.52800613055547,112,112,112,109
COD,CD,1506.0,24777.0,14241.0,bembia,50958.0,25.84149,3.5042801,3,,,2013.0,,,50,22,,,50,7,,,50,3,,,1,4319,0.44,0.14,0.06,0.5163169811320756,19963.82565317604,113,113,113,110
COD,CD,1498.0,24759.0,13930.0,bempumpa,11244.0,19.16117,-0.42954,3,,,2014.0,,,50,19,,,50,25,,,50,27,,,1,3363,0.38,0.5,0.54,0.8088679245283017,33254.89370805834,114,114,114,111
COD,CD,1500.0,24768.0,14016.0,bena cidingi,51068.0,23.173599,-6.1149402,3,,,2012.0,,,50,3,,,50,0,,,50,0,,,1,3779,0.06,0.0,0.0,0.0566037735849056,6720.611789230486,115,115,115,112
COD,CD,1500.0,24768.0,14016.0,bena kabamba,51069.0,23.17177,-5.920638,1,,,2012.0,,,50,8,,,50,0,,,50,0,,,1,3777,0.16,0.0,0.0,0.1509433962264151,12935.096799892744,116,116,116,113
COD,CD,1500.0,24768.0,14051.0,bena kabangu,51985.0,23.45586,-6.2308402,3,,,2012.0,,,50,10,,,50,13,,,50,0,,,1,3929,0.2,0.26,0.0,0.3849056603773584,2220.8242339217195,117,117,117,114
COD,CD,1499.0,24765.0,13983.0,bena kalala,51234.0,23.01779,-5.40097,3,,,2012.0,,,50,28,,,50,4,,,50,0,,,1,3606,0.56,0.08,0.0,0.561509433962264,9250.708691299305,118,118,118,115
COD,CD,1500.0,24768.0,14037.0,bena kalamba,51619.0,23.375601,-6.2469802,3,,,2012.0,,,50,14,,,50,0,,,50,0,,,1,3869,0.28,0.0,0.0,0.2641509433962264,2849.2883638532626,119,119,119,116
COD,CD,1499.0,24765.0,14000.0,bena kamanda,51744.0,22.87373,-4.7134399,3,,,2012.0,,,41,15,,,41,9,,,41,1,,,1,3695,0.3658536585365853,0.2195121951219512,0.024390243902439,0.4878568927563496,2324.870534763785,120,120,120,117
COD,CD,1500.0,24768.0,14016.0,bena kazadi,51070.0,26.033333,-5.416667,1,,,2012.0,,,50,5,,,50,0,,,50,1,,,1,3780,0.1,0.0,0.02,0.1113207547169811,22610.635803575766,121,121,121,118
COD,CD,1499.0,24764.0,13969.0,bena leka,50805.0,22.1728283,-5.1284001,1,,,2012.0,,,40,18,,,40,8,,,40,0,,,1,3549,0.45,0.2,0.0,0.5283018867924528,9609.990378698478,122,122,122,119
COD,CD,1500.0,24768.0,14037.0,bena mbaya,51620.0,23.32889,-6.2754998,3,,,2012.0,,,50,4,,,50,1,,,50,0,,,1,3871,0.08,0.02,0.0,0.0928301886792452,6102.375868292986,123,123,123,120
COD,CD,1499.0,24765.0,14000.0,bena muambi,51745.0,22.63793,-4.6878099,3,,,2012.0,,,40,19,,,40,3,,,40,6,,,1,3691,0.475,0.075,0.15,0.5539799528301885,9114.798884125446,124,124,124,121
COD,CD,1499.0,24765.0,13991.0,bena mwanyi,51522.0,22.42495,-5.8700399,3,,,2012.0,,,50,24,,,50,4,,,50,0,,,1,3648,0.48,0.08,0.0,0.4920754716981131,2811.5980108070926,125,125,125,122
COD,CD,1499.0,24764.0,13999.0,bena nshimba,51731.0,21.40667,-5.3260102,3,,,2012.0,,,49,18,,,49,7,,,49,1,,,1,3690,0.3673469387755102,0.1428571428571428,0.0204081632653061,0.4422573253956404,3275.4779333401966,126,126,126,123
COD,CD,1500.0,24768.0,14049.0,bena tshibangu,51977.0,21.3351783,-6.1833979,2,,,2012.0,,,39,4,,,39,1,,,39,0,,,1,3918,0.1025641025641025,0.0256410256410256,0.0,0.1184672447372011,37596.316553054,127,127,127,124
COD,CD,1499.0,24764.0,13976.0,benmulumba +bukaka,51041.0,20.721416,-4.3502331,3,,,2012.0,,,49,0,,,49,16,,,49,8,,,1,3571,0.0,0.3265306122448979,0.1632653061224489,0.4117781113215405,6222.0010158776195,128,128,128,125
COD,CD,1506.0,24779.0,14255.0,betu,51401.0,30.928949,2.1493101,3,,,2013.0,,,49,0,,,49,2,,,49,0,,,1,4360,0.0,0.0408163265306122,0.0,0.0385059684251058,3185.3880526766125,129,129,129,126
COD,CD,1499.0,24765.0,13974.0,biancky,50933.0,22.397461,-5.4125099,3,,,2012.0,,,46,9,,,46,3,,,46,0,,,1,3558,0.1956521739130435,0.0652173913043478,0.0,0.2340656988978849,6173.709169348885,130,130,130,127
COD,CD,1500.0,24768.0,14010.0,bibanga,50813.0,23.933333,-6.25,1,,,2012.0,,,41,1,,,41,0,,,41,0,,,1,3743,0.024390243902439,0.0,0.0,0.0230096640589047,5883.933675384613,131,131,131,128
COD,CD,1496.0,24753.0,13847.0,bibodi,51592.0,17.890818,-4.7719831,3,,,2013.0,,,50,1,,,50,0,,,50,1,,,1,2856,0.02,0.0,0.02,0.0373584905660377,557.3445936898771,132,132,132,129
COD,CD,1504.0,24775.0,14174.0,bielela,51846.0,26.6464,-3.16465,3,,,2013.0,,,51,17,,,51,3,,,51,1,,,1,4157,0.3333333333333333,0.0588235294117647,0.0196078431372549,0.3630679056676314,0.0,133,133,134,130
COD,CD,1504.0,24775.0,14174.0,bielela,51845.0,26.6464,-3.16465,3,,,2013.0,,,50,12,,,50,2,,,50,0,,,1,4155,0.24,0.04,0.0,0.2550943396226414,0.0,134,134,133,130
COD,CD,1506.0,24779.0,14255.0,bika,51402.0,30.90756,2.2263701,3,,,2013.0,,,50,0,,,50,1,,,50,0,,,1,4362,0.0,0.02,0.0,0.0188679245283018,2712.309133293547,135,135,135,131
COD,CD,1499.0,24765.0,13988.0,bikuanga,51493.0,23.24848,-5.43188,3,,,2012.0,,,47,26,,,47,5,,,47,0,,,1,3637,0.5531914893617021,0.1063829787234042,0.0,0.5667210468324265,12877.120384710406,136,136,136,132
COD,CD,1499.0,24765.0,13970.0,bikuta,50822.0,22.24518,-6.3276401,3,,,2012.0,,,45,23,,,45,9,,,45,0,,,1,3553,0.5111111111111111,0.2,0.0,0.5744234800838574,6100.01262714027,137,137,137,133
COD,CD,1496.0,24753.0,13847.0,bimbembo,51593.0,17.8913,-4.7670169,3,,,2013.0,,,50,0,,,50,0,,,50,2,,,1,2853,0.0,0.0,0.04,0.0377358490566037,557.3445936898771,138,138,138,134
COD,CD,1498.0,24761.0,13967.0,bine,11499.0,21.20888889,3.818888889,3,,,2014.0,,,50,0,,,50,3,,,50,0,,,1,3538,0.0,0.06,0.0,0.0566037735849056,127.76218300006143,139,139,139,135
COD,CD,1498.0,24760.0,13904.0,binga usine,11088.0,20.5219197,2.3744884,3,,,2015.0,,,50,1,,,50,0,,,50,1,,,1,3238,0.02,0.0,0.02,0.0373584905660377,8715.115689349743,140,140,140,136
COD,CD,1507.0,24781.0,14305.0,binkutu,51121.0,27.207109,-3.497988,1,,,2013.0,,,50,0,,,50,0,,,50,0,,,1,4530,0.0,0.0,0.0,0.0,68592.39570893487,141,141,141,137
COD,CD,1500.0,24768.0,14039.0,bipemba,51674.0,23.5609459,-6.1028602,1,,,2012.0,,,50,0,,,50,0,,,50,0,,,1,3883,0.0,0.0,0.0,0.0,134.03718098949778,142,142,142,138
COD,CD,1497.0,24756.0,13888.0,biwewe,,13.48141,-5.81895,3,school,sentinel site,2015.0,7.0,16.0,120,0,0.0,0.0,120,10,0.0,0.0417,120,5,0.0,0.0,1,23635,0.0,0.0833333333333333,0.0416666666666666,0.1146488469601677,740.0135056014263,143,143,143,139
COD,CD,1503.0,24774.0,14130.0,biyela,50833.0,15.3980224,-4.4416328,1,,,2009.0,,,235,0,,,235,0,,,235,0,,,1,4106,0.0,0.0,0.0,0.0,3189.3999185013654,144,144,144,140
COD,CD,1504.0,24775.0,14172.0,biyungi,51548.0,27.257669,-4.4651098,3,,,2013.0,,,50,17,,,50,5,,,50,0,,,1,4152,0.34,0.1,0.0,0.3830188679245283,10358.801142745902,145,145,145,141
COD,CD,1500.0,24766.0,14022.0,bk mbulu,51167.0,23.212799,-6.6350098,3,,,2012.0,,,49,3,,,49,4,,,49,0,,,1,3807,0.0612244897959183,0.0816326530612244,0.0,0.1300558729460209,3427.531818529936,146,146,146,142
COD,CD,1500.0,24768.0,14012.0,bk tshiabaka,50888.0,23.5728501,-6.033623,2,,,2012.0,,,50,2,,,50,0,,,50,0,,,1,3757,0.04,0.0,0.0,0.0377358490566037,0.0,147,147,1605,143
COD,CD,1500.0,24768.0,14033.0,bk tshilanda,51517.0,23.638411,-6.1426601,3,,,2012.0,,,47,1,,,47,1,,,47,0,,,1,3853,0.0212765957446808,0.0212765957446808,0.0,0.0397174509083765,400.9595476105312,148,148,148,144
COD,CD,1500.0,24768.0,14050.0,bkua mbuyi,51980.0,23.270741,-6.3787498,3,,,2012.0,,,50,7,,,50,0,,,50,0,,,1,3923,0.14,0.0,0.0,0.1320754716981132,5672.059870562688,149,149,149,145
COD,CD,1498.0,24759.0,13925.0,bobambo,11210.0,19.58222222,1.868055556,3,,,2014.0,,,50,20,,,50,13,,,50,6,,,1,3338,0.4,0.26,0.12,0.5747924528301886,35642.350021420454,150,150,150,146
COD,CD,1498.0,24762.0,13911.0,bobandu,11130.0,19.93583333,3.178888889,3,,,2014.0,,,50,2,,,50,11,,,50,1,,,1,3272,0.04,0.22,0.02,0.2511094339622641,19170.002874774458,151,151,151,147
COD,CD,1498.0,24759.0,13940.0,bobanga,11346.0,19.503929,3.913748,1,,,2014.0,,,50,1,,,50,3,,,50,2,,,1,3404,0.02,0.06,0.04,0.1091018867924528,29126.54558305839,152,152,152,148
COD,CD,1498.0,24762.0,13906.0,bobangala,11145.0,19.75135,3.5691833,1,,,2014.0,,,50,0,,,50,0,,,50,0,,,1,3246,0.0,0.0,0.0,0.0,0.0,153,153,154,149
COD,CD,1498.0,24762.0,13906.0,bobangaza,11146.0,19.75135,3.5691833,1,,,2014.0,,,50,1,,,50,0,,,50,0,,,1,3248,0.02,0.0,0.0,0.0188679245283018,0.0,154,154,153,149
COD,CD,1498.0,24759.0,13966.0,bobangi,11317.0,17.74692,-0.16175,1,,,2014.0,,,50,1,,,50,2,,,50,2,,,1,3531,0.02,0.04,0.04,0.0913509433962264,48172.98781501324,155,155,155,150
COD,CD,1504.0,24775.0,14165.0,bobela,51132.0,26.626671,-2.5648301,3,,,2013.0,,,50,3,,,50,5,,,50,0,,,1,4130,0.06,0.1,0.0,0.1452830188679245,966.4977789935034,156,156,156,151
COD,CD,1498.0,24762.0,13955.0,bobito,11478.0,19.36336,2.96712,1,,,2014.0,,,50,13,,,50,13,,,50,0,,,1,3479,0.26,0.26,0.0,0.4267924528301887,0.0,157,157,207,152
COD,CD,1499.0,24765.0,13980.0,bobozo i,51187.0,22.45335,-5.9256401,3,,,2012.0,,,43,4,,,43,0,,,43,0,,,1,3595,0.0930232558139534,0.0,0.0,0.0877577885037297,1011.3107258075678,158,158,158,153
COD,CD,1498.0,24762.0,13906.0,bodea,11147.0,19.52516,2.97172,3,,,2014.0,,,50,0,,,50,0,,,50,0,,,1,3249,0.0,0.0,0.0,0.0,5063.007507187815,159,159,159,154
COD,CD,1498.0,24762.0,13955.0,bodumbili,11479.0,19.727289,3.164885,1,,,2014.0,,,50,12,,,50,27,,,50,1,,,1,3480,0.24,0.54,0.02,0.6201811320754717,4105.436999152814,160,160,160,155
COD,CD,1506.0,24777.0,14229.0,boduna,11085.0,19.7405069,5.1070069,4,,,2014.0,,,50,5,,,50,4,,,50,3,,,1,4255,0.1,0.08,0.06,0.2091320754716981,44257.71040654045,161,161,161,156
COD,CD,1498.0,24759.0,13901.0,boende,11069.0,20.8850949,-0.2842862,1,,,2014.0,,,50,10,,,50,12,,,50,9,,,1,3229,0.2,0.24,0.18,0.4730566037735847,599.7889860283083,162,162,162,157
COD,CD,1506.0,24779.0,14231.0,boga,50834.0,29.9538172,1.0273655,1,,,2013.0,,,50,0,,,50,2,,,50,3,,,1,4263,0.0,0.04,0.06,0.0920754716981132,3935.635518163155,163,163,163,158
COD,CD,1498.0,24762.0,13933.0,bogba,11303.0,18.71111111,2.873888889,3,,,2014.0,,,50,18,,,50,17,,,50,0,,,1,3377,0.36,0.34,0.0,0.5449056603773583,3677.1219547146125,164,164,164,159
COD,CD,1498.0,24762.0,13918.0,bogbabili,11175.0,18.96027778,3.139722222,3,,,2014.0,,,50,0,,,50,10,,,50,2,,,1,3303,0.0,0.2,0.04,0.2188679245283018,191.93492996678543,165,165,165,160
COD,CD,1498.0,24762.0,13906.0,bogosekonu,11148.0,19.74284,3.44455,3,,,2014.0,,,49,1,,,49,4,,,49,0,,,1,3245,0.0204081632653061,0.0816326530612244,0.0,0.0946932488821481,1699.214290548157,166,166,166,161
COD,CD,1498.0,24760.0,13963.0,bogozi,11528.0,21.64666667,3.0225,3,,,2014.0,,,50,0,,,50,19,,,50,3,,,1,3521,0.0,0.38,0.06,0.3935849056603773,12366.428868921921,167,167,167,162
COD,CD,1498.0,24762.0,13900.0,bokalakiti/moluku,11063.0,19.3225589,2.614675,1,,,2014.0,,,50,7,,,50,12,,,50,2,,,1,3222,0.14,0.24,0.04,0.3514566037735848,16408.39144598041,168,168,168,163
COD,CD,1506.0,24777.0,14241.0,bokalasa,50959.0,25.582689,3.4542999,3,,,2013.0,,,50,14,,,50,6,,,50,3,,,1,4316,0.28,0.12,0.06,0.3815245283018867,20244.93657554355,169,169,169,164
COD,CD,1498.0,24761.0,13915.0,bokanda,11165.0,19.93927084,3.527118046,3,,,2014.0,,,50,9,,,50,11,,,50,0,,,1,3288,0.18,0.22,0.0,0.34,21279.75362848901,170,170,170,165
COD,CD,1506.0,24780.0,14226.0,bokanga,50791.0,24.456266,1.63205,3,,,2013.0,,,50,21,,,50,27,,,50,5,,,1,4241,0.42,0.54,0.1,0.7168679245283018,8599.822015605696,171,171,171,166
COD,CD,1498.0,24762.0,13911.0,bokanzi,11131.0,19.76333333,3.145,3,,,2014.0,,,50,3,,,50,6,,,50,1,,,1,3270,0.06,0.12,0.02,0.1786264150943396,2262.6413366230645,172,172,172,167
COD,CD,1497.0,24757.0,13868.0,boko village,50841.0,14.9228243,-5.2168524,1,,,2013.0,,,33,3,,,33,4,,,33,1,,,1,2945,0.0909090909090909,0.1212121212121212,0.0303030303030303,0.2125575102341046,501.01001220404817,173,173,173,168
COD,CD,1497.0,24757.0,13868.0,boko villop,11098.0,15.13053,-4.3476004,1,,,2012.0,,,33,0,,,33,1,,,33,0,,,1,2941,0.0,0.0303030303030303,0.0,0.028587764436821,0.0,174,174,1029,169
COD,CD,1498.0,24759.0,13950.0,bokolombongo,11425.0,19.53308333,0.155277778,3,,,2014.0,,,50,2,,,50,13,,,50,16,,,1,3457,0.04,0.26,0.32,0.4876679245283019,20051.431620592444,175,175,175,170
COD,CD,1498.0,24759.0,13950.0,bokolongo/ilenga,11426.0,19.3634495,0.0947022999999999,1,,,2014.0,,,50,1,,,50,2,,,50,2,,,1,3453,0.02,0.04,0.04,0.0913509433962264,20051.431620592444,176,176,176,171
COD,CD,1498.0,24762.0,13923.0,bokonga,11200.0,20.334841,-0.1193689999999999,1,,,2014.0,,,50,21,,,50,18,,,50,0,,,1,3329,0.42,0.36,0.0,0.5932075471698113,43862.99829321008,177,177,177,172
COD,CD,1506.0,24780.0,14226.0,bokongolia,50792.0,24.070311,1.7505229999999998,1,,,2013.0,,,50,8,,,50,26,,,50,17,,,1,4240,0.16,0.52,0.34,0.6923471698113207,30435.207046879586,178,178,178,173
COD,CD,1498.0,24762.0,13907.0,bokonzi,11103.0,19.0473054,1.5585957,3,,,2014.0,,,50,6,,,50,9,,,50,1,,,1,3253,0.12,0.18,0.02,0.2762566037735848,2843.276524792974,179,179,179,174
COD,CD,1496.0,24754.0,13820.0,bokoro,50854.0,18.37141,-2.3677299,3,,,2013.0,,,50,5,,,50,5,,,50,0,,,1,2742,0.1,0.1,0.0,0.1792452830188679,30511.763310955805,180,180,180,175
COD,CD,1498.0,24759.0,13950.0,bokote,11427.0,19.95,0.268611111,3,,,2014.0,,,50,1,,,50,3,,,50,2,,,1,3455,0.02,0.06,0.04,0.1091018867924528,34867.938430194015,181,181,181,176
COD,CD,1498.0,24761.0,13932.0,bokpasi,11260.0,19.61583333,3.375833333,3,,,2014.0,,,50,2,,,50,0,,,50,0,,,1,3372,0.04,0.0,0.0,0.0377358490566037,30.975860678008758,182,182,182,177
COD,CD,1498.0,24762.0,13918.0,bokumu,11176.0,18.96190972,3.140277778,3,,,2014.0,,,50,0,,,50,5,,,50,0,,,1,3304,0.0,0.1,0.0,0.0943396226415094,191.93492996678543,183,183,183,178
COD,CD,1498.0,24761.0,13937.0,bokutau 1,11332.0,24.45,-3.5,1,,,2014.0,,,50,23,,,50,14,,,50,0,,,1,3390,0.46,0.28,0.0,0.5766037735849056,0.0,184,184,1314,179
COD,CD,1498.0,24759.0,13950.0,bolanda,11428.0,19.869676,1.154968,1,,,2014.0,,,50,0,,,50,2,,,50,1,,,1,3456,0.0,0.04,0.02,0.0558490566037735,10249.738911685463,185,185,185,180
COD,CD,1497.0,24756.0,13869.0,bolebo,50867.0,13.05421,-5.8421898,3,,,2013.0,,,50,1,,,50,3,,,50,2,,,1,2957,0.02,0.06,0.04,0.1091018867924528,0.0,186,186,187,181
COD,CD,1497.0,24756.0,13869.0,bolebo,11123.0,13.05421,-5.8421898,3,,,2012.0,,,50,1,,,50,0,,,50,2,,,1,2955,0.02,0.0,0.04,0.0558490566037735,0.0,187,187,186,181
COD,CD,1498.0,24759.0,13939.0,bolena,11342.0,18.51083333,-0.5775,3,,,2014.0,,,50,4,,,50,5,,,50,4,,,1,3398,0.08,0.1,0.08,0.224754716981132,166.52800613055547,188,188,188,182
COD,CD,1498.0,24759.0,13909.0,bolenge,11113.0,18.21667,0.0,3,,,2014.0,,,50,14,,,50,19,,,50,7,,,1,19132,0.28,0.38,0.14,0.581222641509434,738.5801054090425,189,189,189,183
COD,CD,1498.0,24761.0,13915.0,bolo,11166.0,19.70416667,4.609166667,3,,,2014.0,,,50,4,,,50,4,,,50,1,,,1,3287,0.08,0.08,0.02,0.1608754716981131,28911.942725994202,190,190,190,184
COD,CD,1498.0,24763.0,13914.0,bolombi,101816.0,20.90428,-0.5212249999999999,1,,,2014.0,9.0,0.0,50,0,,,50,10,,,50,4,,,1,637,0.0,0.2,0.08,0.2490566037735848,11962.426935739873,191,191,191,185
COD,CD,1498.0,24759.0,13941.0,bolombo,11367.0,18.68751,0.8703259999999999,1,,,2014.0,,,50,4,,,50,14,,,50,27,,,1,3408,0.08,0.28,0.54,0.6559396226415094,0.0,192,192,1321,186
COD,CD,1506.0,24780.0,14247.0,bolonge,51081.0,25.304832,0.63826698,3,,,2013.0,,,50,4,,,50,13,,,50,17,,,1,4335,0.08,0.26,0.34,0.5195018867924527,0.0,193,193,1597,187
COD,CD,1496.0,24754.0,13867.0,bolu,52086.0,16.55088,-1.90289,3,,,2013.0,,,50,4,,,50,9,,,50,2,,,1,2940,0.08,0.18,0.04,0.260166037735849,527.1788458110997,194,194,194,188
COD,CD,1498.0,24761.0,13932.0,bomago,11261.0,19.64805556,3.283055556,3,,,2014.0,,,50,12,,,50,0,,,50,0,,,1,3373,0.24,0.0,0.0,0.2264150943396226,43.76571497642793,195,195,195,189
COD,CD,1499.0,24765.0,14007.0,bomashi,51968.0,22.646667,-5.8698902,3,,,2012.0,,,50,2,,,50,4,,,50,0,,,1,3726,0.04,0.08,0.0,0.110188679245283,0.0,196,196,110,107
COD,CD,1498.0,24761.0,13915.0,bombe,11167.0,19.4538762,4.1989713,3,,,2014.0,,,50,6,,,50,13,,,50,1,,,1,3286,0.12,0.26,0.02,0.3413433962264151,21087.507773144633,197,197,197,190
COD,CD,1498.0,24762.0,13900.0,bombolongo,11064.0,18.54583333,2.403055556,3,,,2014.0,,,50,11,,,50,17,,,50,3,,,1,3221,0.22,0.34,0.06,0.486875471698113,13488.847065624757,198,198,198,191
COD,CD,1498.0,24762.0,13906.0,bombura,11149.0,19.641291,3.691547,1,,,2014.0,,,49,0,,,49,1,,,49,0,,,1,3247,0.0,0.0204081632653061,0.0,0.0192529842125529,18341.09385535843,199,199,199,192
COD,CD,1498.0,24759.0,13912.0,bomongo,11135.0,18.3512875,1.3801715,3,,,2014.0,,,50,7,,,50,17,,,50,11,,,1,3275,0.14,0.34,0.22,0.5257283018867925,89.72870633732332,200,200,200,193
COD,CD,1498.0,24759.0,13902.0,bompempe,11078.0,18.84777778,0.728333333,3,,,2014.0,,,50,8,,,50,15,,,50,8,,,1,3231,0.16,0.3,0.16,0.4774339622641508,23836.831336312316,201,201,201,194
COD,CD,1496.0,24754.0,13854.0,bompesole,51706.0,16.94146,-2.8731501,3,,,2013.0,,,50,3,,,50,14,,,50,0,,,1,2881,0.06,0.28,0.0,0.3049056603773585,15921.447374470747,202,202,202,195
COD,CD,1506.0,24778.0,14238.0,bomukande,50996.0,28.59359,3.50966,3,,,2013.0,,,50,0,,,50,0,,,50,0,,,1,4298,0.0,0.0,0.0,0.0,10078.779087193318,203,203,203,196
COD,CD,1498.0,24762.0,13911.0,bondama,11132.0,19.75805556,3.443333333,3,,,2014.0,,,50,4,,,50,8,,,50,2,,,1,3271,0.08,0.16,0.04,0.2435018867924528,1699.214290548157,204,204,204,197
COD,CD,1496.0,24754.0,13818.0,bondeko,50777.0,17.3789697,-3.3168087,1,,,2013.0,,,50,8,,,50,6,,,50,1,,,1,2724,0.16,0.12,0.02,0.2599849056603773,0.0,205,205,710,198
COD,CD,1499.0,24765.0,13998.0,bondo,51720.0,23.827101,-5.80147,1,,,2012.0,,,50,25,,,50,12,,,50,0,,,1,3688,0.5,0.24,0.0,0.5849056603773585,27157.034811033012,206,206,206,199
COD,CD,1498.0,24762.0,13955.0,bongbia,11480.0,19.36336,2.96712,1,,,2014.0,,,50,11,,,50,6,,,50,0,,,1,3477,0.22,0.12,0.0,0.2958490566037735,0.0,207,207,157,152
COD,CD,1498.0,24759.0,13942.0,bonginda,102237.0,19.0241945,1.547725,3,,,2014.0,8.0,0.0,50,14,,,50,8,,,50,0,,,1,655,0.28,0.16,0.0,0.3728301886792453,2843.276524792974,208,208,208,200
COD,CD,1498.0,24759.0,13909.0,bongonde,11114.0,18.2288552,-0.1575606,1,,,2014.0,,,50,0,,,50,33,,,50,40,,,1,3261,0.0,0.66,0.8,0.8792452830188677,11889.469890054623,209,209,209,201
COD,CD,1498.0,24759.0,13942.0,bongwele,11362.0,18.8325,2.134166667,3,,,2014.0,,,50,8,,,50,3,,,50,1,,,1,3414,0.16,0.06,0.02,0.213388679245283,14223.788582865918,210,210,210,202
COD,CD,1498.0,24759.0,13928.0,bonongo,11232.0,18.51667,-0.28333,3,,,2014.0,,,50,2,,,50,21,,,50,8,,,1,3350,0.04,0.42,0.16,0.5021584905660377,32705.526939292824,211,211,211,203
COD,CD,1498.0,24759.0,13957.0,bonsomi,11494.0,18.2355793,0.0351707,2,,,2014.0,,,50,24,,,50,23,,,50,25,,,1,3490,0.48,0.46,0.5,0.810943396226415,0.0,212,212,213,204
COD,CD,1498.0,24763.0,13959.0,bonsomi,11510.0,18.2355793,0.0351707,2,,,2015.0,,,50,0,,,50,17,,,50,7,,,1,3497,0.0,0.34,0.14,0.4079245283018867,0.0,213,213,212,204
COD,CD,1498.0,24760.0,13962.0,bonzo,11523.0,21.34694444,2.8225,3,,,2015.0,,,50,1,,,50,9,,,50,0,,,1,3516,0.02,0.18,0.0,0.1852830188679245,20681.46299424367,214,214,214,205
COD,CD,1496.0,24754.0,13821.0,bonzongo,50862.0,16.229799,-2.15854,3,,,2013.0,,,50,11,,,50,11,,,50,3,,,1,2748,0.22,0.22,0.06,0.4038716981132075,218.34127047736547,215,215,215,206
COD,CD,1496.0,24754.0,14329.0,boondo,50788.0,17.53919,-1.80581,3,,,2013.0,,,50,0,,,50,30,,,50,12,,,1,4533,0.0,0.6,0.24,0.6566037735849055,8163.277580123935,216,216,216,207
COD,CD,1506.0,24780.0,14225.0,bopepe,50774.0,25.355433,1.722883,3,,,2013.0,,,50,18,,,50,21,,,50,7,,,1,4238,0.36,0.42,0.14,0.6422339622641509,18172.887130034695,217,217,217,208
COD,CD,1498.0,24759.0,13939.0,bosaa,11343.0,18.48638889,-0.5755555560000001,3,,,2014.0,,,50,14,,,50,15,,,50,9,,,1,3401,0.28,0.3,0.18,0.5535094339622642,2729.7388931501546,218,218,218,209
COD,CD,1498.0,24762.0,13920.0,bosakabo,11186.0,19.74861111,3.5133333330000003,3,,,2014.0,,,50,2,,,50,8,,,50,2,,,1,3314,0.04,0.16,0.04,0.2130716981132075,6236.541309202815,219,219,219,210
COD,CD,1498.0,24762.0,13918.0,bosebu,11177.0,18.94829861,3.139548611,3,,,2014.0,,,50,0,,,50,12,,,50,0,,,1,3300,0.0,0.24,0.0,0.2264150943396226,1333.6555639251737,220,220,220,211
COD,CD,1496.0,24754.0,13841.0,bosele,51324.0,18.88077,-1.4807,3,,,2013.0,,,50,6,,,50,21,,,50,30,,,1,2841,0.12,0.42,0.6,0.7507924528301887,5480.622558104392,221,221,221,212
COD,CD,1498.0,24762.0,13923.0,bosepanga,11201.0,18.67194444,3.211111111,3,,,2014.0,,,50,11,,,50,13,,,50,0,,,1,3327,0.22,0.26,0.0,0.3988679245283018,1895.7099276882157,222,222,222,213
COD,CD,1498.0,24759.0,13910.0,bosesomodja,11119.0,18.67888889,0.3625,3,,,2014.0,,,50,13,,,50,31,,,50,17,,,1,3266,0.26,0.62,0.34,0.768309433962264,18295.874946206306,223,223,223,214
COD,CD,1498.0,24762.0,13900.0,boso kubu,11065.0,19.32587,2.44878,3,,,2014.0,,,50,3,,,50,21,,,50,0,,,1,3224,0.06,0.42,0.0,0.4290566037735848,2861.1275611791366,224,224,224,215
COD,CD,1498.0,24760.0,13954.0,boso mayale,11461.0,20.9495,1.780422,1,,,2015.0,,,50,8,,,50,0,,,50,0,,,1,3472,0.16,0.0,0.0,0.1509433962264151,33363.10744330325,225,225,225,216
COD,CD,1498.0,24760.0,13954.0,boso nzanoa,11462.0,18.39611111,2.48,3,,,2015.0,,,50,1,,,50,2,,,50,0,,,1,3475,0.02,0.04,0.0,0.0558490566037735,15441.172822228464,226,226,226,217
COD,CD,1496.0,24754.0,13820.0,bosobe,50855.0,18.216667,-1.183333,1,,,2013.0,,,50,1,,,50,1,,,50,0,,,1,2740,0.02,0.02,0.0,0.0373584905660377,39145.01153544752,227,227,227,218
COD,CD,1498.0,24759.0,13910.0,bosoisongo,11120.0,20.08724,1.196517,1,,,2014.0,,,50,5,,,50,15,,,50,10,,,1,3265,0.1,0.3,0.2,0.4679245283018867,15636.728311472461,228,228,228,219
COD,CD,1498.0,24759.0,13941.0,bosomba,11368.0,18.72232639,1.355833333,3,,,2014.0,,,50,9,,,50,16,,,50,21,,,1,3407,0.18,0.32,0.42,0.6382943396226414,39822.27484631907,229,229,229,220
COD,CD,1498.0,24762.0,13955.0,bosombali,11481.0,18.60555556,3.0475,3,,,2014.0,,,50,4,,,50,14,,,50,0,,,1,3478,0.08,0.28,0.0,0.3184905660377358,13585.47816351984,230,230,230,221
COD,CD,1498.0,24759.0,13925.0,bosombi,11211.0,19.00527778,1.826944444,3,,,2014.0,,,50,24,,,50,19,,,50,5,,,1,3337,0.48,0.38,0.1,0.6696603773584905,26352.91734705415,231,231,231,222
COD,CD,1498.0,24759.0,13957.0,bosondjo,11495.0,18.26034,0.0332296,1,,,2014.0,,,50,30,,,50,27,,,50,28,,,1,3488,0.6,0.54,0.56,0.8670188679245283,0.0,232,232,19,20
COD,CD,1498.0,24761.0,13915.0,bosongbolo,11168.0,19.8833,4.1874673,1,,,2014.0,,,50,0,,,50,9,,,50,1,,,1,3289,0.0,0.18,0.02,0.1852830188679245,18602.172988453076,233,233,233,223
COD,CD,1498.0,24760.0,13964.0,boteko,11533.0,18.92263,0.0321349,1,,,2015.0,,,50,0,,,50,12,,,50,1,,,1,3523,0.0,0.24,0.02,0.240754716981132,18983.874611090756,234,234,234,224
COD,CD,1498.0,24762.0,13923.0,botela,11202.0,19.072161,3.7499675,3,,,2014.0,,,50,2,,,50,12,,,50,0,,,1,3325,0.04,0.24,0.0,0.2550943396226414,34206.854557755774,235,235,235,225
COD,CD,1498.0,24759.0,13930.0,botende,11245.0,19.09011,0.0,3,,,2014.0,,,50,19,,,50,25,,,50,27,,,1,3359,0.38,0.5,0.54,0.8088679245283017,0.0,236,236,237,226
COD,CD,1498.0,24759.0,13902.0,botende,11079.0,19.09011,0.0,3,,,2014.0,,,50,11,,,50,12,,,50,9,,,1,3234,0.22,0.24,0.18,0.4848150943396226,0.0,237,237,236,226
COD,CD,1498.0,24761.0,13932.0,botulugu,11262.0,19.64833333,3.283333333,3,,,2014.0,,,50,7,,,50,2,,,50,3,,,1,3369,0.14,0.04,0.06,0.2112603773584905,43.76571497642793,238,238,238,227
COD,CD,1498.0,24759.0,13931.0,botunu,11249.0,17.75614,-0.619968,1,,,2014.0,,,50,1,,,50,2,,,50,2,,,1,3368,0.02,0.04,0.04,0.0913509433962264,0.0,239,239,1198,228
COD,CD,1498.0,24761.0,13967.0,boya,11500.0,20.223221,-0.88368,1,,,2014.0,,,50,0,,,50,4,,,50,0,,,1,3537,0.0,0.08,0.0,0.0754716981132075,61821.52656751671,240,240,240,229
COD,CD,1498.0,24762.0,13911.0,boyabagia,11133.0,19.76416667,3.165277778,3,,,2014.0,,,50,4,,,50,9,,,50,1,,,1,3268,0.08,0.18,0.02,0.245932075471698,2262.6413366230645,241,241,241,230
COD,CD,1498.0,24762.0,13934.0,boyabu,11314.0,18.7660364,3.72334,1,,,2014.0,,,50,8,,,50,14,,,50,0,,,1,3381,0.16,0.28,0.0,0.3728301886792453,16717.831127818452,242,242,242,231
COD,CD,1496.0,24754.0,13821.0,boyambola,50863.0,16.2314,-2.1668,3,,,2013.0,,,50,10,,,50,11,,,50,7,,,1,2745,0.2,0.22,0.14,0.4371320754716981,719.454859240471,243,243,243,232
COD,CD,1506.0,24780.0,14226.0,boyanga,50793.0,24.529818,1.608433,3,,,2013.0,,,50,31,,,50,23,,,50,7,,,1,4242,0.62,0.46,0.14,0.7769132075471699,8599.822015605696,244,244,244,233
COD,CD,1498.0,24762.0,13918.0,boyase a,11178.0,18.985861,3.097045,2,,,2014.0,,,50,0,,,50,6,,,50,0,,,1,3301,0.0,0.12,0.0,0.1132075471698113,0.0,245,245,246,234
COD,CD,1498.0,24762.0,13918.0,boyase b,11179.0,18.985861,3.097045,2,,,2014.0,,,50,0,,,50,7,,,50,0,,,1,3302,0.0,0.14,0.0,0.1320754716981132,0.0,246,246,245,234
COD,CD,1498.0,24761.0,13937.0,boyasegeze,11333.0,20.55433,3.47716,3,,,2014.0,,,50,24,,,50,18,,,50,0,,,1,3389,0.48,0.36,0.0,0.6294339622641509,14891.191112882403,247,247,247,235
COD,CD,1498.0,24759.0,13944.0,boyeka,11391.0,20.1,-1.516667,1,,,2014.0,,,50,1,,,50,3,,,50,2,,,1,3426,0.02,0.06,0.04,0.1091018867924528,40266.75774336596,248,248,248,236
COD,CD,1498.0,24762.0,13955.0,boyele bowali,11482.0,19.32535,2.9617500000000003,3,,,2014.0,,,50,16,,,50,10,,,50,0,,,1,3481,0.32,0.2,0.0,0.430188679245283,3411.956844452738,249,249,249,237
COD,CD,1498.0,24759.0,13939.0,boyera,11344.0,18.4125,-0.683055556,3,,,2014.0,,,50,5,,,50,7,,,50,9,,,1,3397,0.1,0.14,0.18,0.3446415094339622,11525.160567077446,250,250,250,238
COD,CD,1506.0,24780.0,14223.0,boyulu,50747.0,27.069201,0.56265002,3,,,2013.0,,,50,27,,,50,0,,,50,1,,,1,4221,0.54,0.0,0.02,0.5181132075471698,4556.743705923563,251,251,251,239
COD,CD,1504.0,24775.0,14164.0,brazza,51095.0,25.90276,-2.9391699,3,,,2013.0,,,50,5,,,50,0,,,50,0,,,1,4114,0.1,0.0,0.0,0.0943396226415094,13.07635343844892,252,252,252,240
COD,CD,1497.0,24756.0,13870.0,brigade,11124.0,27.71395,-5.8396417,1,,,2012.0,,,50,0,,,50,23,,,50,5,,,1,2967,0.0,0.46,0.1,0.4849056603773584,29327.569114331764,253,253,253,241
COD,CD,1506.0,24780.0,14222.0,buambi,50744.0,26.57188,1.39503,3,,,2013.0,,,50,27,,,50,2,,,50,1,,,1,4209,0.54,0.04,0.02,0.5351245283018868,113.92416815290417,254,254,254,242
COD,CD,1498.0,24761.0,13915.0,bubanda,11169.0,19.6411617,4.2273328,3,,,2014.0,,,50,3,,,50,10,,,50,0,,,1,3285,0.06,0.2,0.0,0.2339622641509433,8941.794823279242,255,255,255,243
COD,CD,1499.0,24764.0,13995.0,bulape,51697.0,21.607201,-4.675594,1,,,2012.0,,,26,17,,,26,14,,,26,2,,,1,3674,0.6538461538461539,0.5384615384615384,0.0769230769230769,0.8042699736347162,2642.8901189991916,256,256,256,244
COD,CD,1499.0,24764.0,13979.0,bulelela,51176.0,20.797119,-6.4152498,3,,,2012.0,,,50,3,,,50,3,,,50,0,,,1,3589,0.06,0.06,0.0,0.1098113207547169,631.7989412747032,257,257,257,245
COD,CD,1499.0,24764.0,13995.0,bulongo,51698.0,22.086269,-4.037936,1,,,2012.0,,,50,0,,,50,2,,,50,14,,,1,3672,0.0,0.04,0.28,0.2913207547169811,42375.79493141949,258,258,258,246
COD,CD,1496.0,24753.0,13839.0,bulwem,51302.0,19.390961,-4.3183899,3,,,2013.0,,,50,0,,,50,0,,,50,2,,,1,2829,0.0,0.0,0.04,0.0377358490566037,19208.733610629544,259,259,259,247
COD,CD,1496.0,24753.0,13846.0,bumbaputa,51545.0,18.716667,-5.116667,1,,,2013.0,,,50,11,,,50,4,,,50,1,,,1,2852,0.22,0.08,0.02,0.279954716981132,2388.6490623780933,260,260,260,248
COD,CD,1500.0,24766.0,14017.0,bunduki,51075.0,24.503309,-6.1212902,3,,,2012.0,,,50,1,,,50,1,,,50,0,,,1,3786,0.02,0.02,0.0,0.0373584905660377,3567.038759124929,261,261,261,249
COD,CD,1498.0,24762.0,13965.0,burungangu,11538.0,18.7,4.3522,3,,,2014.0,,,50,26,,,50,10,,,50,0,,,1,3530,0.52,0.2,0.0,0.5811320754716981,11245.997635273769,262,262,262,250
COD,CD,1496.0,24753.0,13824.0,busala,50978.0,18.358681,-4.1576571,3,,,2013.0,,,50,4,,,50,4,,,50,0,,,1,2757,0.08,0.08,0.0,0.1449056603773585,534.7803885824015,263,263,263,251
COD,CD,1498.0,24763.0,13914.0,busanga,11151.0,22.0834066,-0.8834662999999999,1,,,2014.0,,,50,0,,,50,9,,,50,12,,,1,3283,0.0,0.18,0.24,0.3554716981132075,32930.79532142186,264,264,264,252
COD,CD,1496.0,24753.0,14335.0,buseke,50883.0,17.995291,-4.5237098,3,,,2013.0,,,50,1,,,50,0,,,50,2,,,1,4545,0.02,0.0,0.04,0.0558490566037735,2551.994375392548,265,265,265,253
COD,CD,1499.0,24764.0,13995.0,busholo,51699.0,21.46583,-4.6148,3,,,2012.0,,,36,4,,,36,23,,,36,4,,,1,3670,0.1111111111111111,0.6388888888888888,0.1111111111111111,0.6742241892486477,7989.278157847659,266,266,266,254
COD,CD,1502.0,24770.0,14102.0,bustani ya elinu,51455.0,27.48514,-11.68678,3,,,2012.0,,,41,0,,,41,7,,,41,0,,,1,4029,0.0,0.1707317073170731,0.0,0.1610676484123331,683.3920988589507,267,267,267,255
COD,CD,1498.0,24759.0,13928.0,butela,11233.0,18.66667,-0.8166700000000001,3,,,2014.0,,,50,7,,,50,17,,,50,11,,,1,3353,0.14,0.34,0.22,0.5257283018867925,8796.229011570114,268,268,268,256
COD,CD,1500.0,24767.0,14047.0,butele,51850.0,23.8,-5.05,1,,,2012.0,,,50,8,,,50,17,,,50,7,,,1,3916,0.16,0.34,0.14,0.4936,16288.727876413945,269,269,269,257
COD,CD,1500.0,24768.0,14049.0,c s lubanga,,23.44541,-6.01738,3,school,sentinel site,2015.0,8.0,14.0,120,0,0.0,0.0,120,2,0.0,0.0083,120,0,0.0,0.0,1,23646,0.0,0.0166666666666666,0.0,0.0157232704402515,9579.938215967528,270,270,270,258
COD,CD,1506.0,24778.0,14239.0,c.baudoin,51003.0,30.02322,3.8708301,3,,,2013.0,,,50,3,,,50,2,,,50,0,,,1,4304,0.06,0.04,0.0,0.0920754716981132,6701.942852032942,271,271,271,259
COD,CD,1502.0,24770.0,14102.0,c.s  andjela,51456.0,27.482571,-11.69224,3,,,2012.0,,,50,0,,,50,2,,,50,0,,,1,4052,0.0,0.04,0.0,0.0377358490566037,0.0,272,272,539,260
COD,CD,1498.0,24762.0,13952.0,c/ebale nzambe,11437.0,19.90027778,2.9908333330000003,3,,,2014.0,,,50,1,,,50,5,,,50,3,,,1,3463,0.02,0.1,0.06,0.1612452830188679,21334.994596573935,273,273,273,261
COD,CD,1502.0,24770.0,14075.0,c/kikula,51153.0,26.7201775,-10.9746057,1,,,2012.0,,,50,0,,,50,6,,,50,0,,,1,3986,0.0,0.12,0.0,0.1132075471698113,244.15627205935698,274,274,274,262
COD,CD,1497.0,24756.0,13870.0,camp brigade,50868.0,13.2624,-5.6939101,3,,,2013.0,,,50,0,,,50,23,,,50,5,,,1,2966,0.0,0.46,0.1,0.4849056603773584,18568.359526203112,275,275,275,263
COD,CD,1499.0,24764.0,13997.0,camp dintshiantshia,51715.0,21.223419,-6.7379298,3,,,2012.0,,,50,0,,,50,1,,,50,0,,,1,3681,0.0,0.02,0.0,0.0188679245283018,4522.154667776927,276,276,276,264
COD,CD,1497.0,24755.0,13881.0,camp panji,51345.0,12.9289,-4.9863100000000005,3,,,2013.0,,,50,0,,,50,16,,,50,14,,,1,3055,0.0,0.32,0.28,0.4815094339622642,2481.47808562285,277,277,277,265
COD,CD,1497.0,24755.0,13897.0,camp panji,11483.0,12.9484,-4.99707,1,,,2012.0,,,50,0,,,50,16,,,50,14,,,1,3200,0.0,0.32,0.28,0.4815094339622642,2316.214357690079,278,278,278,266
COD,CD,1499.0,24765.0,13974.0,camp pm,50934.0,22.43541,-5.5994711,3,,,2012.0,,,46,5,,,46,2,,,46,2,,,1,3564,0.108695652173913,0.0434782608695652,0.0434782608695652,0.1740712195530439,14776.445105407205,279,279,279,267
COD,CD,1502.0,24770.0,14102.0,casi ort   congo,51457.0,27.47296,-11.70809,3,,,2012.0,,,50,0,,,50,6,,,50,0,,,1,4042,0.0,0.12,0.0,0.1132075471698113,1217.8892025374635,280,280,280,268
COD,CD,1496.0,24753.0,13824.0,cbco,50979.0,18.597031,-4.52601,3,,,2013.0,,,50,10,,,50,10,,,50,3,,,1,2755,0.2,0.2,0.06,0.3758490566037736,1295.6970052379593,281,281,281,269
COD,CD,1496.0,24753.0,13864.0,cbco,52011.0,18.59564,-4.5375299,3,,,2013.0,,,50,9,,,50,4,,,50,4,,,1,2929,0.18,0.08,0.08,0.2886339622641509,1295.6970052379593,282,282,282,270
COD,CD,1498.0,24762.0,13920.0,cdi kuma,11187.0,19.56805556,2.905,3,,,2014.0,,,50,3,,,50,6,,,50,2,,,1,3310,0.06,0.12,0.04,0.1942339622641509,5325.160191633446,283,283,283,271
COD,CD,1496.0,24754.0,13857.0,cebu,51841.0,19.430849,-3.4181199,3,,,2013.0,,,50,31,,,50,37,,,50,0,,,1,2897,0.62,0.74,0.0,0.8501886792452829,0.0,284,284,285,272
COD,CD,1496.0,24754.0,13857.0,cebu,51842.0,19.430849,-3.4181199,3,,,2013.0,,,50,22,,,50,33,,,50,0,,,1,2894,0.44,0.66,0.0,0.7637735849056604,0.0,285,285,284,272
COD,CD,1496.0,24754.0,13857.0,cebu,51840.0,19.430849,-3.4181199,3,,,2013.0,,,50,23,,,50,31,,,50,0,,,1,2898,0.46,0.62,0.0,0.749811320754717,0.0,286,286,284,272
COD,CD,1496.0,24754.0,13863.0,cebu,51953.0,17.17392,-2.13533,3,,,2013.0,,,50,7,,,50,26,,,50,3,,,1,2927,0.14,0.52,0.06,0.5773283018867924,5014.464848499063,287,287,287,273
COD,CD,1497.0,24757.0,13876.0,ceco,102054.0,14.42658,-5.5496402,3,,,2012.0,,,50,0,,,50,9,,,50,3,,,1,644,0.0,0.18,0.06,0.2162264150943396,0.0,288,288,289,274
COD,CD,1497.0,24757.0,13876.0,ceco,51290.0,14.42658,-5.5496402,3,,,2013.0,,,56,0,,,56,10,,,56,3,,,1,3012,0.0,0.1785714285714285,0.0535714285714285,0.2099778590681555,0.0,289,289,288,274
COD,CD,1500.0,24766.0,14043.0,cellule 810,51739.0,23.478371,-7.0176902,3,,,2012.0,,,47,3,,,47,10,,,47,0,,,1,3901,0.0638297872340425,0.2127659574468085,0.0,0.2481273008362018,3472.9515856234752,290,290,290,275
COD,CD,1500.0,24766.0,14034.0,central,51536.0,23.715891,-7.1617999,3,,,2012.0,,,50,0,,,50,0,,,50,0,,,1,3859,0.0,0.0,0.0,0.0,1545.9330660348462,291,291,291,276
COD,CD,1500.0,24768.0,14010.0,ciala,50814.0,23.75613,-6.0373302,3,,,2012.0,,,56,1,,,56,0,,,56,0,,,1,3745,0.0178571428571428,0.0,0.0,0.0168463611859838,1965.9827512138663,292,292,292,277
COD,CD,1500.0,24768.0,14033.0,cikama,51518.0,23.639732,-6.1153998,3,,,2012.0,,,50,6,,,50,1,,,50,0,,,1,3855,0.12,0.02,0.0,0.1298113207547169,167.01985754401355,293,293,293,278
COD,CD,1500.0,24768.0,14057.0,cikaya,52091.0,23.731251,-6.1055398,3,,,2012.0,,,45,10,,,45,0,,,45,0,,,1,3946,0.2222222222222222,0.0,0.0,0.2096436058700209,8122.625091254293,294,294,294,279
COD,CD,1500.0,24768.0,14050.0,cilundu,51981.0,23.24313,-6.2684102,3,,,2012.0,,,50,5,,,50,0,,,50,0,,,1,3924,0.1,0.0,0.0,0.0943396226415094,7671.3192583582395,295,295,295,280
COD,CD,1497.0,24757.0,13883.0,cit?ac kwuilu,51367.0,14.68025,-5.4985099,3,,,2013.0,,,50,1,,,50,3,,,50,3,,,1,3075,0.02,0.06,0.06,0.1264830188679245,2227.955474907282,296,296,296,281
COD,CD,1497.0,24755.0,13898.0,cit?ac luvu,52001.0,12.96715,-5.08566,3,,,2013.0,,,50,0,,,50,11,,,50,8,,,1,3205,0.0,0.22,0.16,0.3252830188679245,3724.4857184696425,297,297,297,282
COD,CD,1506.0,24780.0,14274.0,cit?ac opienge,51838.0,27.427759,0.24479,3,,,2013.0,,,49,24,,,49,2,,,49,0,,,1,4433,0.4897959183673469,0.0408163265306122,0.0,0.4817175233589778,2714.892246477724,298,298,298,283
COD,CD,1498.0,24761.0,13922.0,cite 1,11195.0,21.61166667,2.181111111,3,,,2015.0,,,50,1,,,50,4,,,50,1,,,1,3323,0.02,0.08,0.02,0.1098415094339622,11877.107529163537,299,299,299,284
COD,CD,1498.0,24761.0,13922.0,cite 2,11196.0,20.88577,3.3420568,1,,,2015.0,,,50,3,,,50,0,,,50,0,,,1,3321,0.06,0.0,0.0,0.0566037735849056,0.0,300,300,1040,285
COD,CD,1499.0,24765.0,13984.0,cite bethel,51237.0,22.401739,-5.8964300000000005,3,,,2012.0,,,52,2,,,52,5,,,52,2,,,1,3609,0.0384615384615384,0.0961538461538461,0.0384615384615384,0.1550409649522075,1728.2865048075857,301,301,301,286
COD,CD,1497.0,24757.0,13885.0,cite luozi,11357.0,14.1640355,-4.9118563,1,,,2012.0,,,34,2,,,34,5,,,34,3,,,1,3094,0.0588235294117647,0.1470588235294117,0.088235294117647,0.2528908671257234,0.0,302,302,1166,287
COD,CD,1496.0,24752.0,13861.0,cite popo,51884.0,16.585819,-5.6949701,3,,,2013.0,,,49,1,,,49,22,,,49,1,,,1,2914,0.0204081632653061,0.4489795918367347,0.0204081632653061,0.4445667212528729,3446.0504893749476,303,303,303,288
COD,CD,1499.0,24765.0,14008.0,cite yangala,52080.0,22.81176,-7.4007602,3,,,2012.0,,,40,12,,,40,0,,,40,0,,,1,3733,0.3,0.0,0.0,0.2830188679245282,17157.355069240955,304,304,304,289
COD,CD,1500.0,24768.0,14051.0,citolo,51986.0,23.40415,-6.2016501,3,,,2012.0,,,50,13,,,50,0,,,50,0,,,1,3927,0.26,0.0,0.0,0.2452830188679245,1856.2604430804195,305,305,305,290
COD,CD,1498.0,24759.0,13940.0,commerciale,11347.0,17.1821,-1.0756073,1,,,2014.0,,,50,0,,,50,2,,,50,1,,,1,3406,0.0,0.04,0.02,0.0558490566037735,0.0,306,306,1451,291
COD,CD,1502.0,24770.0,14102.0,communaut?ac,51458.0,27.505836,-11.65837,3,,,2012.0,,,50,0,,,50,13,,,50,0,,,1,4033,0.0,0.26,0.0,0.2452830188679245,0.0,307,307,530,292
COD,CD,1496.0,24753.0,13826.0,congo,51029.0,19.313419,-5.7293401,3,,,2013.0,,,50,2,,,50,22,,,50,0,,,1,2766,0.04,0.44,0.0,0.4362264150943395,2164.3883495964005,308,308,308,293
COD,CD,1499.0,24764.0,13976.0,congo,51042.0,20.591917,-4.3338828,3,,,2012.0,,,50,0,,,50,12,,,50,14,,,1,3570,0.0,0.24,0.28,0.4271698113207546,1090.4507830454083,309,309,309,294
COD,CD,1506.0,24778.0,14239.0,daka,51004.0,29.612181,3.68242,3,,,2013.0,,,50,3,,,50,2,,,50,0,,,1,4305,0.06,0.04,0.0,0.0920754716981132,13631.119917579234,310,310,310,295
COD,CD,1506.0,24778.0,14239.0,darundu,51005.0,30.05378,3.81899,3,,,2013.0,,,50,4,,,50,0,,,50,0,,,1,4300,0.08,0.0,0.0,0.0754716981132075,411.8364495113158,311,311,311,296
COD,CD,1498.0,24762.0,13952.0,de l'hopital,11438.0,19.35555556,2.966944444,3,,,2014.0,,,50,2,,,50,5,,,50,2,,,1,3467,0.04,0.1,0.04,0.1609056603773584,869.0066508490393,312,312,312,297
COD,CD,1498.0,24762.0,13919.0,de la mission,11180.0,19.70734,2.650658,1,,,2014.0,,,50,6,,,50,10,,,50,0,,,1,3307,0.12,0.2,0.0,0.2792452830188678,0.0,313,313,694,298
COD,CD,1500.0,24766.0,14019.0,de la plaine,51126.0,23.436911,-6.8439398,3,,,2012.0,,,50,3,,,50,7,,,50,0,,,1,3795,0.06,0.14,0.0,0.180754716981132,7848.990263362703,314,314,314,299
COD,CD,1504.0,24775.0,14177.0,de luba gare,51924.0,26.25444,-4.50172,3,,,2013.0,,,50,19,,,50,1,,,50,0,,,1,4170,0.38,0.02,0.0,0.370188679245283,9564.296057238056,315,315,315,300
COD,CD,1497.0,24756.0,13893.0,de nzanga,11455.0,15.33362,-5.28702,1,,,2012.0,,,50,0,,,50,14,,,50,3,,,1,3166,0.0,0.28,0.06,0.3049056603773585,0.0,316,316,1775,301
COD,CD,1506.0,24777.0,14232.0,dekere,50878.0,23.559839,3.88737,1,,,2013.0,,,50,2,,,50,8,,,50,0,,,1,4270,0.04,0.16,0.0,0.1826415094339622,15142.126386034264,317,317,317,302
COD,CD,1499.0,24764.0,13973.0,dekese,50929.0,21.3769118,-3.4889904,1,,,2012.0,,,24,7,,,24,8,,,24,2,,,1,3557,0.2916666666666667,0.3333333333333333,0.0833333333333333,0.5350279524807825,20296.735048493047,318,318,318,303
COD,CD,1506.0,24778.0,14243.0,dembu,51022.0,29.485371,3.0899899,3,,,2013.0,,,50,4,,,50,1,,,50,0,,,1,4323,0.08,0.02,0.0,0.0928301886792452,9118.072309848569,319,319,319,304
COD,CD,1499.0,24764.0,13977.0,dengemongo ii,51116.0,21.92448,-4.78409,3,,,2012.0,,,50,4,,,50,18,,,50,7,,,1,3577,0.08,0.36,0.14,0.4656905660377357,8508.203334763377,320,320,320,305
COD,CD,1498.0,24759.0,13912.0,depo amingowa,11136.0,18.35054,1.37987,1,,,2014.0,,,50,0,,,50,2,,,50,1,,,1,3276,0.0,0.04,0.02,0.0558490566037735,89.72870633732332,321,321,321,306
COD,CD,1499.0,24765.0,13993.0,dibatayi,51625.0,22.350559,-6.1265898,3,,,2012.0,,,46,10,,,46,1,,,46,0,,,1,3662,0.217391304347826,0.0217391304347826,0.0,0.2211363555301922,12100.873761357987,322,322,322,307
COD,CD,1500.0,24768.0,14039.0,dibatayi,51675.0,23.567471,-6.0933199,3,,,2012.0,,,50,0,,,50,1,,,50,0,,,1,3882,0.0,0.02,0.0,0.0188679245283018,1291.6568419108971,323,323,323,308
COD,CD,1500.0,24768.0,14045.0,dibindi,51824.0,23.6502213,-6.1134586,1,,,2012.0,,,50,1,,,50,2,,,50,0,,,1,3909,0.02,0.04,0.0,0.0558490566037735,600.5533840825954,324,324,324,309
COD,CD,1500.0,24767.0,14029.0,diete,51406.0,23.25766,-2.3462801,3,,,2012.0,,,50,30,,,50,11,,,50,12,,,1,3836,0.6,0.22,0.24,0.7196981132075472,5301.290268360846,325,325,325,310
COD,CD,1500.0,24767.0,14029.0,difake,51407.0,23.36194,-2.2862999,3,,,2012.0,,,50,24,,,50,17,,,50,13,,,1,3838,0.48,0.34,0.26,0.7038037735849056,13394.389884616125,326,326,326,311
COD,CD,1500.0,24768.0,14039.0,diketele,51676.0,23.544081,-6.1006298,3,,,2012.0,,,50,0,,,50,0,,,50,0,,,1,3884,0.0,0.0,0.0,0.0,706.0703322449144,327,327,327,312
COD,CD,1502.0,24771.0,14101.0,dikolongo,51454.0,25.9,-9.9666667,1,,,2012.0,,,50,2,,,50,5,,,50,0,,,1,4027,0.04,0.1,0.0,0.1283018867924528,38937.53284585721,328,328,328,313
COD,CD,1500.0,24767.0,14028.0,dikombe,51397.0,23.58609,-3.5269101,3,,,2012.0,,,36,7,,,36,2,,,36,12,,,1,3831,0.1944444444444444,0.0555555555555555,0.3333333333333333,0.4649041074617593,1496.535199974211,329,329,329,314
COD,CD,1506.0,24778.0,14288.0,dilolo,52032.0,22.3397377,-10.6857884,1,,,2013.0,,,50,2,,,50,2,,,50,0,,,1,4488,0.04,0.04,0.0,0.0739622641509433,3796.7945091158585,330,330,330,315
COD,CD,1502.0,24769.0,14061.0,dilula,,25.852909,-9.2019701,3,school,sentinel site,2017.0,9.0,12.0,120,0,0.0,0.0,120,7,0.0,0.0083,120,1,0.0,0.0,1,23647,0.0,0.0583333333333333,0.0083333333333333,0.0624344863731656,0.0,331,331,332,316
COD,CD,1502.0,24769.0,14061.0,dilula,50899.0,25.852909,-9.2019701,3,,,2012.0,,,50,1,,,50,5,,,50,0,,,1,3953,0.02,0.1,0.0,0.1113207547169811,0.0,332,332,331,316
COD,CD,1500.0,24766.0,14034.0,dinanga,51537.0,23.72938,-7.17239,3,,,2012.0,,,50,0,,,50,0,,,50,0,,,1,3858,0.0,0.0,0.0,0.0,1914.813882638194,333,333,333,317
COD,CD,1499.0,24765.0,13974.0,dinanga/ecole lukomo,50935.0,22.228889,-5.5385499,3,,,2012.0,,,50,12,,,50,10,,,50,0,,,1,3560,0.24,0.2,0.0,0.3698113207547169,7351.943368641383,334,334,334,318
COD,CD,1500.0,24768.0,14025.0,disanganya,51210.0,23.672079,-6.4123802,3,,,2012.0,,,50,5,,,50,2,,,50,0,,,1,3818,0.1,0.04,0.0,0.1283018867924528,8650.494465895086,335,335,335,319
COD,CD,1500.0,24768.0,14039.0,ditalala,51677.0,23.54921,-6.1043401,3,,,2012.0,,,50,1,,,50,0,,,50,0,,,1,3886,0.02,0.0,0.0,0.0188679245283018,706.0703322449144,336,336,336,320
COD,CD,1506.0,24779.0,14221.0,djalasa,50736.0,30.5457,2.5789101,3,,,2013.0,,,50,7,,,50,0,,,50,0,,,1,4204,0.14,0.0,0.0,0.1320754716981132,5259.218024810496,337,337,337,321
COD,CD,1500.0,24767.0,14026.0,djalo kinshasa,51229.0,24.42461,-3.40853,3,,,2012.0,,,50,19,,,50,14,,,50,9,,,1,3826,0.38,0.28,0.18,0.5980679245283019,3.3455030114855617,338,338,338,322
COD,CD,1500.0,24767.0,14015.0,djalo loma,50968.0,24.061041,-3.6742101,3,,,2012.0,,,50,18,,,50,21,,,50,4,,,1,3766,0.36,0.42,0.08,0.6212226415094338,16302.060522996986,339,339,339,323
COD,CD,1498.0,24759.0,13966.0,djili,11318.0,18.31667,-1.9,1,,,2014.0,,,50,2,,,50,13,,,50,16,,,1,3534,0.04,0.26,0.32,0.4876679245283019,0.0,340,340,1308,324
COD,CD,1500.0,24767.0,14015.0,djombe,50969.0,22.488871,-3.422765,1,,,2012.0,,,50,22,,,50,24,,,50,27,,,1,3771,0.44,0.48,0.54,0.8170264150943396,17073.63144725621,341,341,341,325
COD,CD,1496.0,24753.0,13824.0,djuma,50980.0,18.3593639,-4.1623998,1,,,2013.0,,,50,3,,,50,4,,,50,0,,,1,2752,0.06,0.08,0.0,0.1275471698113207,534.7803885824015,342,342,342,326
COD,CD,1502.0,24770.0,14102.0,don bosco,51459.0,27.4954563,-11.683829,1,,,2012.0,,,50,0,,,50,2,,,50,0,,,1,4060,0.0,0.04,0.0,0.0377358490566037,972.2743620726673,343,343,343,327
COD,CD,1498.0,24762.0,13907.0,dongo,11104.0,18.4068343,2.7188299,1,,,2014.0,,,50,6,,,50,7,,,50,3,,,1,3250,0.12,0.14,0.06,0.2722716981132075,21730.138457105248,344,344,344,328
COD,CD,1506.0,24778.0,14239.0,doya,51006.0,29.883333,3.8,1,,,2013.0,,,50,5,,,50,1,,,50,0,,,1,4306,0.1,0.02,0.0,0.1113207547169811,17462.556490005896,345,345,345,329
COD,CD,1506.0,24779.0,14237.0,drodro/isuya,50989.0,30.5423015,1.756776,1,,,2013.0,,,48,0,,,48,4,,,48,0,,,1,4289,0.0,0.0833333333333333,0.0,0.0786163522012578,0.0,346,346,487,330
COD,CD,1500.0,24768.0,14012.0,dubai,50889.0,23.638411,-6.14994,3,,,2012.0,,,50,2,,,50,1,,,50,0,,,1,3758,0.04,0.02,0.0,0.0558490566037735,35.80365099510734,347,347,347,331
COD,CD,1500.0,24767.0,14027.0,duka  (50),51350.0,22.225929,-3.684617,3,,,2012.0,,,50,27,,,50,20,,,50,21,,,1,3827,0.54,0.4,0.42,0.792377358490566,23041.4885615926,348,348,348,332
COD,CD,1498.0,24763.0,13956.0,e p befale,11073.0,18.56944444,0.684444444,3,,,2015.0,,,50,0,,,50,6,,,50,13,,,1,3486,0.0,0.12,0.26,0.3290566037735848,4021.206018104764,349,349,349,333
COD,CD,1498.0,24763.0,13905.0,e p boende2 nsele,11093.0,20.8802396,-0.2866221,3,,,2015.0,,,50,0,,,50,31,,,50,37,,,1,3241,0.0,0.62,0.74,0.8501886792452829,599.7889860283083,350,350,350,334
COD,CD,1498.0,24763.0,13956.0,e p bokela,11074.0,18.39861111,0.7013888890000001,3,,,2015.0,,,50,0,,,50,7,,,50,20,,,1,3484,0.0,0.14,0.4,0.4566037735849056,8332.474643321157,351,351,351,335
COD,CD,1498.0,24763.0,13947.0,e p bolaka,11415.0,19.68638889,0.437777778,3,,,2015.0,,,50,2,,,50,14,,,50,4,,,1,3439,0.04,0.28,0.08,0.3434867924528302,8858.311946075555,352,352,352,336
COD,CD,1498.0,24763.0,13924.0,e p bosangilotsili,11205.0,21.36388889,0.915277778,3,,,2015.0,,,50,3,,,50,5,,,50,1,,,1,3330,0.06,0.1,0.02,0.1612452830188679,17304.29876667807,353,353,353,337
COD,CD,1498.0,24763.0,13924.0,e p djolu mongo,11206.0,22.4619282,0.6719871,1,,,2015.0,,,50,2,,,50,5,,,50,2,,,1,3334,0.04,0.1,0.04,0.1609056603773584,56629.773286710304,354,354,354,338
COD,CD,1500.0,24766.0,14017.0,e p henry dunant,,23.51816,-6.31839,3,school,sentinel site,2015.0,7.0,15.0,120,0,0.0,0.0,120,0,0.0,0.0,120,0,0.0,0.0,1,23641,0.0,0.0,0.0,0.0,7784.787420988945,355,355,355,339
COD,CD,1498.0,24763.0,13947.0,e p ikelemba,11416.0,19.50944444,0.5686111110000001,3,,,2015.0,,,50,6,,,50,20,,,50,6,,,1,3437,0.12,0.4,0.12,0.5050566037735849,19931.710989922023,356,356,356,340
COD,CD,1498.0,24763.0,13905.0,e p ilengenkindo,11094.0,20.93489,-0.41822,3,,,2015.0,,,50,0,,,50,44,,,50,32,,,1,3240,0.0,0.88,0.64,0.9026415094339622,11962.426935739873,357,357,357,341
COD,CD,1498.0,24763.0,13947.0,e p lifanga,11417.0,19.38805556,0.747222222,3,,,2015.0,,,50,0,,,50,2,,,50,9,,,1,3440,0.0,0.04,0.18,0.200754716981132,24041.25314970458,358,358,358,342
COD,CD,1498.0,24763.0,13956.0,e p likila lolengi,11075.0,18.51666667,0.336111111,3,,,2015.0,,,50,0,,,50,32,,,50,47,,,1,3485,0.0,0.64,0.94,0.9230188679245284,18295.874946206306,359,359,359,343
COD,CD,1498.0,24763.0,13924.0,e p lokanylankot,11207.0,21.35833333,0.443333333,3,,,2015.0,,,50,3,,,50,11,,,50,2,,,1,3332,0.06,0.22,0.04,0.279366037735849,52544.09620831138,360,360,360,344
COD,CD,1498.0,24763.0,13947.0,e p m0mpono/cadelu,11418.0,19.31916667,0.466944444,3,,,2015.0,,,50,3,,,50,16,,,50,8,,,1,3441,0.06,0.32,0.16,0.4368603773584905,24015.7677205772,361,361,361,345
COD,CD,1500.0,24768.0,14016.0,e p marechal,,23.37286,-6.06341,3,school,sentinel site,2015.0,8.0,14.0,120,0,0.0,0.0,120,0,0.0,0.0,120,0,0.0,0.0,1,23639,0.0,0.0,0.0,0.0,9579.938215967528,362,362,362,346
COD,CD,1498.0,24763.0,13905.0,e p mpombi,11095.0,18.31277778,0.507777778,3,,,2015.0,,,50,0,,,50,22,,,50,17,,,1,3243,0.0,0.44,0.34,0.5947169811320755,0.0,363,363,364,347
COD,CD,1498.0,24763.0,13905.0,e p ngundoyea,11096.0,18.31277778,0.507777778,3,,,2015.0,,,50,0,,,50,49,,,50,49,,,1,3244,0.0,0.98,0.98,0.9430188679245284,0.0,364,364,363,347
COD,CD,1497.0,24755.0,13894.0,e p vangana,,12.74046,-5.09226,3,school,sentinel site,2015.0,8.0,18.0,120,6,0.0,0.0,120,92,0.0,0.3917,120,106,0.0083,0.2083,1,23636,0.05,0.7666666666666667,0.8833333333333333,0.9189989517819704,4726.467525439757,365,365,365,348
COD,CD,1498.0,24763.0,13947.0,e p wakembiaka,11419.0,19.60888889,0.419722222,3,,,2015.0,,,50,2,,,50,5,,,50,4,,,1,3438,0.04,0.1,0.08,0.1935094339622641,8858.311946075555,366,366,366,349
COD,CD,1497.0,24756.0,13869.0,e p y minkondo,,13.06143,-5.83435,3,school,sentinel site,2015.0,7.0,14.0,120,1,0.0,0.0,120,14,0.0,0.0,120,33,0.0,0.0,1,23629,0.0083333333333333,0.1166666666666666,0.275,0.3442642819706499,407.507070704927,367,367,367,350
COD,CD,1498.0,24763.0,13924.0,e p yakili,11208.0,22.3,-0.25,1,,,2015.0,,,50,2,,,50,6,,,50,1,,,1,3333,0.04,0.12,0.02,0.162354716981132,74528.84439106369,368,368,368,351
COD,CD,1498.0,24763.0,13935.0,e p yampete,102165.0,23.00667,-0.7173400000000001,1,,,2015.0,8.0,0.0,50,2,,,50,5,,,50,0,,,1,653,0.04,0.1,0.0,0.1283018867924528,33990.62707154899,369,369,369,352
COD,CD,1498.0,24763.0,13948.0,e.p bokanda,11420.0,20.50555556,1.453333333,3,,,2015.0,,,50,0,,,50,23,,,50,1,,,1,3442,0.0,0.46,0.02,0.4441509433962264,36834.900094381206,370,370,370,353
COD,CD,1498.0,24763.0,13951.0,e.p bokele,11430.0,20.5695568,-1.5904405,3,,,2015.0,,,50,30,,,50,26,,,50,42,,,1,3462,0.6,0.52,0.84,0.9144150943396224,20581.019741573884,371,371,371,354
COD,CD,1498.0,24763.0,13908.0,e.p bolondo,11108.0,21.35001,-0.40393,3,,,2015.0,,,50,4,,,50,6,,,50,1,,,1,3257,0.08,0.12,0.02,0.1948981132075471,27542.38943983441,372,372,372,355
COD,CD,1498.0,24763.0,13951.0,e.p bombilo,11431.0,18.66333333,2.504166667,3,,,2015.0,,,50,0,,,50,28,,,50,27,,,1,3461,0.0,0.56,0.54,0.7524528301886793,13261.249449478815,373,373,373,356
COD,CD,1498.0,24763.0,13908.0,e.p bonsomi,11109.0,21.39527778,1.0675,3,,,2015.0,,,50,0,,,50,8,,,50,0,,,1,3255,0.0,0.16,0.0,0.1509433962264151,5880.22497229132,374,374,374,357
COD,CD,1498.0,24763.0,13961.0,e.p eyete ii,11518.0,20.87194444,-1.657222222,3,,,2015.0,,,50,0,,,50,11,,,50,4,,,1,3507,0.0,0.22,0.08,0.2664150943396225,14186.618287837158,375,375,375,358
COD,CD,1498.0,24763.0,13961.0,e.p ii yalosoy,11519.0,22.88333,-1.41667,3,,,2015.0,,,50,0,,,50,9,,,50,0,,,1,3510,0.0,0.18,0.0,0.1698113207547169,9685.145655163326,376,376,376,359
COD,CD,1498.0,24763.0,13959.0,e.p ikeliekila,11511.0,21.2225,-0.718888889,3,,,2015.0,,,50,0,,,50,29,,,50,20,,,1,3499,0.0,0.58,0.4,0.7056603773584905,10779.926475650924,377,377,377,360
COD,CD,1498.0,24763.0,13948.0,e.p ilombo,11421.0,20.76642403,1.249826389,3,,,2015.0,,,50,0,,,50,17,,,50,0,,,1,3443,0.0,0.34,0.0,0.320754716981132,36834.900094381206,378,378,378,361
COD,CD,1506.0,24779.0,14224.0,e.p itendey,50760.0,30.076668,1.770833,3,,,2013.0,,,60,0,,,60,14,,,60,16,,,1,4233,0.0,0.2333333333333333,0.2666666666666666,0.4129979035639412,2017.405721597491,379,379,379,362
COD,CD,1502.0,24770.0,14102.0,e.p kalunga,51460.0,27.443451,-11.70845,3,,,2012.0,,,50,5,,,50,2,,,50,0,,,1,4039,0.1,0.04,0.0,0.1283018867924528,0.0,380,380,578,363
COD,CD,1498.0,24763.0,13908.0,e.p linkanda,11110.0,21.44416667,1.0875,3,,,2015.0,,,50,10,,,50,1,,,50,2,,,1,3256,0.2,0.02,0.04,0.2333584905660377,5880.22497229132,381,381,381,364
COD,CD,1498.0,24763.0,13961.0,e.p lisanga,11520.0,20.44638889,-1.4125,3,,,2015.0,,,50,0,,,50,18,,,50,1,,,1,3509,0.0,0.36,0.02,0.3516981132075471,24096.217844394738,382,382,382,365
COD,CD,1498.0,24763.0,13961.0,e.p liyamba,11521.0,21.20194444,-1.657222222,3,,,2015.0,,,50,2,,,50,13,,,50,0,,,1,3511,0.04,0.26,0.0,0.2732075471698112,31265.862796788642,383,383,383,366
COD,CD,1498.0,24763.0,13948.0,e.p lokolefeko,11422.0,21.05468166,1.066394444,3,,,2015.0,,,50,0,,,50,10,,,50,0,,,1,3445,0.0,0.2,0.0,0.1886792452830188,19800.271188655974,384,384,384,367
COD,CD,1498.0,24763.0,13951.0,e.p luembe,11432.0,20.8145575,-1.8241414,3,,,2015.0,,,50,0,,,50,23,,,50,15,,,1,3459,0.0,0.46,0.3,0.5867924528301887,19656.962181130708,385,385,385,368
COD,CD,1498.0,24763.0,13951.0,e.p luilaka,11433.0,18.77194444,2.268333333,3,,,2015.0,,,50,0,,,50,23,,,50,21,,,1,3458,0.0,0.46,0.42,0.6479245283018867,4759.579778029531,386,386,386,369
COD,CD,1498.0,24763.0,13929.0,e.p mamba,11236.0,22.54222222,-1.541388889,3,,,2015.0,,,50,0,,,50,28,,,50,1,,,1,3356,0.0,0.56,0.02,0.5366037735849056,19513.230437777598,387,387,387,370
COD,CD,1498.0,24763.0,13948.0,e.p mongombe,11423.0,21.102301,2.406536,1,,,2015.0,,,50,0,,,50,21,,,50,0,,,1,3444,0.0,0.42,0.0,0.3962264150943396,26809.173115401,388,388,388,371
COD,CD,1498.0,24763.0,13929.0,e.p mpombo,11237.0,23.306038,-0.9624488,1,,,2015.0,,,50,0,,,50,24,,,50,0,,,1,3357,0.0,0.48,0.0,0.4528301886792452,43072.51997115835,389,389,389,372
COD,CD,1498.0,24763.0,13951.0,e.p ndomba,11434.0,20.7447369,-1.6495223,3,,,2015.0,,,50,0,,,50,27,,,50,32,,,1,3460,0.0,0.54,0.64,0.7871698113207548,14186.618287837158,390,390,390,373
COD,CD,1498.0,24763.0,13908.0,e.p tosongu,11111.0,21.22805556,1.026666667,3,,,2015.0,,,50,0,,,50,21,,,50,1,,,1,3258,0.0,0.42,0.02,0.4071698113207546,19162.216842332105,391,391,391,374
COD,CD,1498.0,24763.0,13961.0,e.p yaloya,11522.0,21.32361111,-1.404166667,3,,,2015.0,,,50,0,,,50,16,,,50,1,,,1,3508,0.0,0.32,0.02,0.3147169811320754,31265.862796788642,392,392,392,375
COD,CD,1502.0,24773.0,14117.0,e.p3 mapendano,51819.0,28.01815,-5.9572001,3,,,2012.0,,,40,0,,,40,0,,,40,0,,,1,4089,0.0,0.0,0.0,0.0,1654.3305199580188,393,393,393,376
COD,CD,1496.0,24754.0,13841.0,ebanza,51325.0,18.80052,-1.49658,3,,,2013.0,,,50,0,,,50,26,,,50,23,,,1,2840,0.0,0.52,0.46,0.6988679245283017,9106.728523657846,394,394,394,377
COD,CD,1496.0,24753.0,13839.0,ebay mukungu,51303.0,19.1467552,-4.4847381,1,,,2013.0,,,51,0,,,51,4,,,51,0,,,1,2830,0.0,0.0784313725490196,0.0,0.0739918608953015,16030.280635992853,395,395,395,378
COD,CD,1499.0,24764.0,13981.0,ecole  mbimbi,51203.0,20.788799,-6.4460201,3,,,2012.0,,,50,0,,,50,0,,,50,0,,,1,3601,0.0,0.0,0.0,0.0,1711.244913666199,396,396,396,379
COD,CD,1499.0,24764.0,14340.0,ecole bakadibamba,51171.0,20.92226,-6.8790998,3,,,2012.0,,,50,3,,,50,0,,,50,0,,,1,4556,0.06,0.0,0.0,0.0566037735849056,529.2393363805216,397,397,397,380
COD,CD,1499.0,24764.0,13981.0,ecole beni,51204.0,20.7927,-6.42979,3,,,2012.0,,,50,4,,,50,0,,,50,1,,,1,3599,0.08,0.0,0.02,0.0928301886792452,745.6135116521359,398,398,398,381
COD,CD,1499.0,24764.0,13981.0,ecole bon berger,51205.0,20.790421,-6.42278,3,,,2012.0,,,50,0,,,50,1,,,50,0,,,1,3597,0.0,0.02,0.0,0.0188679245283018,380.8437761744273,399,399,399,382
COD,CD,1499.0,24764.0,14340.0,ecole bupole,51172.0,20.918659,-6.87466,3,,,2012.0,,,50,1,,,50,2,,,50,0,,,1,4557,0.02,0.04,0.0,0.0558490566037735,639.1497473429365,400,400,400,383
COD,CD,1499.0,24764.0,13978.0,ecole dinanga,51140.0,20.756371,-6.4160399,3,,,2012.0,,,50,1,,,50,0,,,50,0,,,1,3580,0.02,0.0,0.0,0.0188679245283018,449.7489869500716,401,401,401,384
COD,CD,1499.0,24764.0,14340.0,ecole flamme,51173.0,20.93236,-6.8813200000000005,3,,,2012.0,,,50,2,,,50,1,,,50,0,,,1,4555,0.04,0.02,0.0,0.0558490566037735,540.5305442626849,402,402,402,385
COD,CD,1499.0,24764.0,14340.0,ecole kalombi,51174.0,20.928551,-6.8783302,3,,,2012.0,,,50,3,,,50,0,,,50,0,,,1,4554,0.06,0.0,0.0,0.0566037735849056,335.18177325298814,403,403,403,386
COD,CD,1499.0,24765.0,13991.0,ecole kamayi,51523.0,22.4251,-5.9003801,3,,,2012.0,,,44,2,,,44,14,,,44,0,,,1,3650,0.0454545454545454,0.3181818181818182,0.0,0.3294090129424606,933.1078002599133,404,404,404,387
COD,CD,1501.0,24765.0,14058.0,ecole kamenga,51766.0,21.06174,4.29262,1,,,2012.0,,,48,23,,,48,0,,,48,0,,,1,3948,0.4791666666666667,0.0,0.0,0.4520440251572327,0.0,405,405,1466,388
COD,CD,1499.0,24765.0,13983.0,ecole kanyinga ii,51235.0,22.94964,-5.4483099,3,,,2012.0,,,49,39,,,49,5,,,49,0,,,1,3604,0.7959183673469388,0.1020408163265306,0.0,0.7705122865472719,9250.708691299305,406,406,406,389
COD,CD,1499.0,24764.0,13968.0,ecole katshimu,50783.0,20.45178,-5.4461098,3,,,2012.0,,,50,5,,,50,15,,,50,12,,,1,3543,0.1,0.3,0.24,0.4916981132075471,2497.960532048078,407,407,407,390
COD,CD,1499.0,24764.0,13985.0,ecole kipaka,51336.0,20.58057,-6.2961798,3,,,2012.0,,,50,0,,,50,3,,,50,0,,,1,3614,0.0,0.06,0.0,0.0566037735849056,13471.265611568038,408,408,408,391
COD,CD,1499.0,24764.0,13981.0,ecole la fontaine,51206.0,20.78611,-6.4309802,3,,,2012.0,,,50,0,,,50,4,,,50,0,,,1,3598,0.0,0.08,0.0,0.0754716981132075,745.6135116521359,409,409,409,392
COD,CD,1499.0,24765.0,14000.0,ecole lukibu,51746.0,22.602051,-4.7611599,3,,,2012.0,,,42,15,,,42,2,,,42,5,,,1,3693,0.3571428571428571,0.0476190476190476,0.119047619047619,0.4345673579404808,9114.798884125446,410,410,410,393
COD,CD,1499.0,24764.0,13985.0,ecole lukunga,51337.0,20.45994,-6.3057599,3,,,2012.0,,,50,1,,,50,2,,,50,0,,,1,3616,0.02,0.04,0.0,0.0558490566037735,9878.759731631304,411,411,411,394
COD,CD,1499.0,24764.0,13979.0,ecole lukusa,51177.0,20.82024,-6.4098001,3,,,2012.0,,,60,4,,,60,3,,,60,0,,,1,3588,0.0666666666666666,0.05,0.0,0.1069182389937106,2571.568595333146,412,412,412,395
COD,CD,1499.0,24764.0,13976.0,ecole malu  malu,51043.0,20.666901,-4.3379331,3,,,2012.0,,,50,0,,,50,16,,,50,0,,,1,3572,0.0,0.32,0.0,0.3018867924528302,6222.0010158776195,413,413,413,396
COD,CD,1499.0,24764.0,13979.0,ecole mweke,51178.0,20.79714,-6.4096098,3,,,2012.0,,,50,0,,,50,3,,,50,0,,,1,3583,0.0,0.06,0.0,0.0566037735849056,241.67292134617168,414,414,414,397
COD,CD,1499.0,24764.0,13981.0,ecole ndeji,51207.0,20.787371,-6.4212399,3,,,2012.0,,,50,0,,,50,0,,,50,0,,,1,3600,0.0,0.0,0.0,0.0,380.8437761744273,415,415,415,398
COD,CD,1506.0,24779.0,14224.0,ecole primaire,50761.0,30.08535,1.786733,3,,,2013.0,,,60,0,,,60,10,,,60,11,,,1,4224,0.0,0.1666666666666666,0.1833333333333333,0.3013626834381551,0.0,416,416,538,399
COD,CD,1499.0,24764.0,13979.0,ecole saden,51179.0,20.796301,-6.40762,3,,,2012.0,,,50,0,,,50,1,,,50,0,,,1,3590,0.0,0.02,0.0,0.0188679245283018,241.67292134617168,417,417,417,400
COD,CD,1499.0,24764.0,13978.0,ecole tembo,51141.0,20.771,-6.4130101,3,,,2012.0,,,50,5,,,50,0,,,50,0,,,1,3581,0.1,0.0,0.0,0.0943396226415094,1663.4847894512698,418,418,418,401
COD,CD,1499.0,24765.0,13974.0,ecole tshanga,50936.0,22.271589,-5.6002598,3,,,2012.0,,,51,5,,,51,6,,,51,0,,,1,3562,0.0980392156862745,0.1176470588235294,0.0,0.1925964614480642,7301.961190188301,419,419,419,402
COD,CD,1499.0,24765.0,13990.0,ecole tshiapota,51510.0,22.386021,-7.1905899,3,,,2012.0,,,50,2,,,50,1,,,50,0,,,1,3643,0.04,0.02,0.0,0.0558490566037735,1947.9253648348442,420,420,420,403
COD,CD,1499.0,24764.0,13979.0,ecole tshibinda,51180.0,20.8880753,-7.2410039,1,,,2012.0,,,50,2,,,50,9,,,50,0,,,1,3585,0.04,0.18,0.0,0.200754716981132,40642.70641737026,421,421,421,404
COD,CD,1499.0,24764.0,14340.0,ecole tshisele,51175.0,20.926729,-6.8807101,3,,,2012.0,,,50,1,,,50,1,,,50,0,,,1,4553,0.02,0.02,0.0,0.0373584905660377,335.18177325298814,422,422,422,405
COD,CD,1506.0,24777.0,14232.0,eganda,50879.0,23.669371,3.80092,3,,,2013.0,,,50,2,,,50,3,,,50,0,,,1,4268,0.04,0.06,0.0,0.0920754716981132,1047.6149983686385,423,423,423,406
COD,CD,1500.0,24767.0,14015.0,ekanga,50970.0,23.22513,-2.381031,1,,,2012.0,,,50,27,,,50,23,,,50,6,,,1,3774,0.54,0.46,0.12,0.737177358490566,5301.290268360846,424,424,424,407
COD,CD,1498.0,24760.0,13962.0,ekango,11524.0,21.38722222,2.639444444,3,,,2015.0,,,50,1,,,50,8,,,50,1,,,1,3515,0.02,0.16,0.02,0.1823245283018867,6465.382512809553,425,425,425,408
COD,CD,1502.0,24773.0,14110.0,elia,51649.0,29.82877,-7.09341,3,,,2012.0,,,40,2,,,40,4,,,40,0,,,1,4079,0.05,0.1,0.0,0.1367924528301886,10255.514820383676,426,426,426,409
COD,CD,1504.0,24775.0,14171.0,elimu,51498.0,26.2722,-0.83494002,3,,,2013.0,,,50,11,,,50,14,,,50,0,,,1,4147,0.22,0.28,0.0,0.4135849056603773,239.4638959438224,427,427,427,410
COD,CD,1500.0,24767.0,14035.0,emangomango,51540.0,23.463831,-4.8487902,3,,,2012.0,,,50,20,,,50,9,,,50,8,,,1,3865,0.4,0.18,0.16,0.5535094339622642,13136.465086144863,428,428,428,411
COD,CD,1502.0,24773.0,14067.0,ep  kanda,51064.0,26.91547,-6.0517201,3,,,2012.0,,,41,0,,,41,0,,,41,0,,,1,3969,0.0,0.0,0.0,0.0,802.2465960652893,429,429,429,412
COD,CD,1502.0,24770.0,14102.0,ep  vangu ii,51461.0,27.49264,-11.67542,3,,,2012.0,,,50,0,,,50,15,,,50,0,,,1,4032,0.0,0.3,0.0,0.2830188679245282,39.08565702486935,430,430,430,413
COD,CD,1496.0,24752.0,13819.0,ep 1 boko,,14.92379,-5.22123,4,school,sentinel site,2018.0,9.0,12.0,120,1,0.0,0.0,120,12,0.0,0.0,120,5,0.0,0.0,1,23628,0.0083333333333333,0.1,0.0416666666666666,0.1364976415094339,501.01001220404817,431,431,431,414
COD,CD,1502.0,24773.0,14088.0,ep 1 fataki,51243.0,28.014151,-7.3204799,3,,,2012.0,,,40,0,,,40,0,,,40,0,,,1,4000,0.0,0.0,0.0,0.0,649.9240681061173,432,432,432,415
COD,CD,1506.0,24780.0,14223.0,ep 1 niania,50748.0,27.36277,1.2432801,3,,,2013.0,,,53,0,,,53,2,,,53,2,,,1,4214,0.0,0.0377358490566037,0.0377358490566037,0.0698563243482875,171.4834686376562,433,433,433,416
COD,CD,1502.0,24770.0,14102.0,ep 1 vangu,51462.0,27.492901,-11.67565,3,,,2012.0,,,50,0,,,50,10,,,50,0,,,1,4030,0.0,0.2,0.0,0.1886792452830188,39.08565702486935,434,434,434,417
COD,CD,1506.0,24779.0,14270.0,ep 2 nizi,51783.0,30.3147208,1.7291595,1,,,2013.0,,,50,0,,,50,10,,,50,0,,,1,4424,0.0,0.2,0.0,0.1886792452830188,1466.35300071723,435,435,435,418
COD,CD,1502.0,24770.0,14102.0,ep 3 camp vangu,51463.0,27.492689,-11.67468,3,,,2012.0,,,50,0,,,50,10,,,50,0,,,1,4050,0.0,0.2,0.0,0.1886792452830188,84.29338335162322,436,436,436,419
COD,CD,1502.0,24773.0,14108.0,ep abb?ac  mozwa,51613.0,26.426769,-5.4380202,3,,,2012.0,,,40,0,,,40,0,,,40,0,,,1,4070,0.0,0.0,0.0,0.0,245.36179654557483,437,437,437,420
COD,CD,1506.0,24779.0,14224.0,ep abelkozo,50762.0,30.066668,1.883333,3,,,2013.0,,,50,13,,,50,10,,,50,0,,,1,4222,0.26,0.2,0.0,0.3849056603773584,5100.809360262315,438,438,438,421
COD,CD,1498.0,24760.0,13917.0,ep aboubacar,11170.0,19.73111111,2.561388889,3,,,2015.0,,,50,0,,,50,5,,,50,0,,,1,3297,0.0,0.1,0.0,0.0943396226415094,10293.62259038398,439,439,439,422
COD,CD,1506.0,24779.0,14280.0,ep alibru,51906.0,30.14496,1.34016,3,,,2013.0,,,50,0,,,50,0,,,50,0,,,1,4469,0.0,0.0,0.0,0.0,424.3694500405039,440,440,440,423
COD,CD,1506.0,24779.0,14261.0,ep amis des enfants,51578.0,28.570129,1.2218601,3,,,2013.0,,,50,0,,,50,0,,,50,0,,,1,4397,0.0,0.0,0.0,0.0,6170.251482711813,441,441,441,424
COD,CD,1502.0,24773.0,14116.0,ep asdipev,51815.0,29.19347,-5.9114599,3,,,2012.0,,,40,0,,,40,0,,,40,0,,,1,4085,0.0,0.0,0.0,0.0,1142.9161347767615,442,442,442,425
COD,CD,1506.0,24780.0,14223.0,ep bafuankengele,50749.0,27.413179,1.35263,3,,,2013.0,,,50,0,,,50,0,,,50,0,,,1,4219,0.0,0.0,0.0,0.0,13406.77247773191,443,443,443,426
COD,CD,1506.0,24780.0,14223.0,ep bagbutambili,50750.0,27.56122,1.23353,3,,,2013.0,,,50,2,,,50,0,,,50,8,,,1,4217,0.04,0.0,0.16,0.1826415094339622,21153.099443952997,444,444,444,427
COD,CD,1506.0,24780.0,13992.0,ep bahaha,51410.0,29.366421,1.3931309,1,,,2013.0,,,50,0,,,50,1,,,50,3,,,1,3653,0.0,0.02,0.06,0.0743396226415094,14772.358520985053,445,445,445,428
COD,CD,1506.0,24777.0,14241.0,ep balebabo,50960.0,25.528299,3.28106,3,,,2013.0,,,50,19,,,50,10,,,50,0,,,1,4312,0.38,0.2,0.0,0.4754716981132075,0.0,446,446,501,429
COD,CD,1506.0,24779.0,14261.0,ep banana,51579.0,28.514721,1.22036,3,,,2013.0,,,50,3,,,50,0,,,50,3,,,1,4400,0.06,0.0,0.06,0.1098113207547169,6170.251482711813,447,447,447,430
COD,CD,1506.0,24779.0,14269.0,ep bandengauo,51778.0,28.04229,1.24375,3,,,2013.0,,,50,1,,,50,0,,,50,7,,,1,4413,0.02,0.0,0.14,0.1483018867924528,52655.22467034114,448,448,448,431
COD,CD,1506.0,24780.0,14287.0,ep batikalela,52030.0,25.730232,0.53076702,3,,,2013.0,,,50,18,,,50,3,,,50,0,,,1,4487,0.36,0.06,0.0,0.3758490566037735,10942.715541403284,449,449,449,432
COD,CD,1506.0,24780.0,14283.0,ep batima,51989.0,25.18434,0.6363829999999999,3,,,2013.0,,,45,11,,,45,11,,,45,4,,,1,4475,0.2444444444444444,0.2444444444444444,0.0888888888888888,0.4527163082019824,2904.615311441121,450,450,450,433
COD,CD,1506.0,24779.0,14280.0,ep baywana,51907.0,30.141951,1.3425,3,,,2013.0,,,50,0,,,50,1,,,50,0,,,1,4470,0.0,0.02,0.0,0.0188679245283018,7.3824161070592105,451,451,451,434
COD,CD,1506.0,24779.0,14270.0,ep bhuva,51784.0,30.301332,1.752167,3,,,2013.0,,,50,0,,,50,6,,,50,1,,,1,4419,0.0,0.12,0.02,0.1298113207547169,0.0,452,452,483,435
COD,CD,1506.0,24779.0,14233.0,ep bigo,50910.0,30.2495,1.5693671,3,,,2013.0,,,50,0,,,50,0,,,50,0,,,1,4272,0.0,0.0,0.0,0.0,0.0,453,453,473,436
COD,CD,1506.0,24779.0,14261.0,ep binase,51580.0,29.015961,1.21006,3,,,2013.0,,,50,0,,,50,0,,,50,0,,,1,4396,0.0,0.0,0.0,0.0,5030.066037871955,454,454,454,437
COD,CD,1498.0,24760.0,13949.0,ep bingi,11160.0,19.04305556,2.545277778,3,,,2015.0,,,50,0,,,50,14,,,50,0,,,1,3452,0.0,0.28,0.0,0.2641509433962264,22964.851148621718,455,455,455,438
COD,CD,1498.0,24763.0,13929.0,ep bobongo,11238.0,22.27361111,-1.11,3,,,2015.0,,,50,2,,,50,2,,,50,0,,,1,3354,0.04,0.04,0.0,0.0739622641509433,32930.79532142186,456,456,456,439
COD,CD,1506.0,24779.0,14237.0,ep boikpa,50990.0,30.60165,1.87385,3,,,2013.0,,,50,0,,,50,8,,,50,0,,,1,4290,0.0,0.16,0.0,0.1509433962264151,3678.4353752087522,457,457,457,440
COD,CD,1506.0,24780.0,14259.0,ep bolingo,51555.0,23.938761,0.334682,1,,,2013.0,,,50,16,,,50,5,,,50,0,,,1,4376,0.32,0.1,0.0,0.3660377358490566,10416.807568182083,458,458,458,441
COD,CD,1498.0,24760.0,13913.0,ep bongandanga,11140.0,21.0728664,1.5073967,1,,,2015.0,,,50,0,,,50,14,,,50,4,,,1,3278,0.0,0.28,0.08,0.3184905660377358,31592.69830046426,459,459,459,442
COD,CD,1498.0,24760.0,13936.0,ep bopua,11328.0,21.74583333,2.9725,3,,,2015.0,,,50,8,,,50,10,,,50,0,,,1,3386,0.16,0.2,0.0,0.3094339622641509,9941.533961463681,460,460,460,443
COD,CD,1498.0,24760.0,13949.0,ep boso dzengi,11161.0,19.42083333,2.280277778,3,,,2015.0,,,50,0,,,50,9,,,50,0,,,1,3448,0.0,0.18,0.0,0.1698113207547169,21545.2727279673,461,461,461,444
COD,CD,1498.0,24760.0,13949.0,ep boso ngomu,11162.0,19.18388889,1.033444444,3,,,2015.0,,,50,1,,,50,8,,,50,1,,,1,3450,0.02,0.16,0.02,0.1823245283018867,24735.11067015004,462,462,462,445
COD,CD,1506.0,24779.0,14280.0,ep budikasa,51908.0,30.151051,1.32137,3,,,2013.0,,,50,0,,,50,0,,,50,0,,,1,4467,0.0,0.0,0.0,0.0,2199.3838795561355,463,463,463,446
COD,CD,1506.0,24779.0,14240.0,ep bule 2,51010.0,30.603333,1.9068331,3,,,2013.0,,,50,0,,,50,1,,,50,0,,,1,4308,0.0,0.02,0.0,0.0188679245283018,3678.4353752087522,464,464,464,447
COD,CD,1506.0,24777.0,14234.0,ep bumbu,50915.0,15.2926308,-4.3741693,1,,,2013.0,,,45,20,,,45,6,,,45,0,,,1,4278,0.4444444444444444,0.1333333333333333,0.0,0.4891684136967155,3732.427573304475,465,465,465,448
COD,CD,1502.0,24773.0,14088.0,ep bumo,51244.0,28.00878,-7.3227501,3,,,2012.0,,,40,0,,,40,0,,,40,0,,,1,3999,0.0,0.0,0.0,0.0,315.83286331432765,466,466,466,449
COD,CD,1499.0,24764.0,14003.0,ep bupole/bena lumba,51757.0,21.163361,-5.4660101,3,,,2012.0,,,50,11,,,50,25,,,50,0,,,1,3705,0.22,0.5,0.0,0.5754716981132074,6871.779394110512,467,467,467,450
COD,CD,1502.0,24773.0,14116.0,ep butanda,51816.0,29.283171,-5.8141098,3,,,2012.0,,,40,1,,,40,1,,,40,0,,,1,4084,0.025,0.025,0.0,0.0465801886792452,12041.103579726583,468,468,468,451
COD,CD,1506.0,24779.0,14249.0,ep cecazo,51270.0,30.050949,1.92635,3,,,2013.0,,,50,16,,,50,0,,,50,2,,,1,4337,0.32,0.0,0.04,0.3275471698113207,2435.658668661774,469,469,469,452
COD,CD,1506.0,24780.0,14223.0,ep cecca 16,50751.0,27.36277,1.24174,3,,,2013.0,,,50,2,,,50,0,,,50,2,,,1,4220,0.04,0.0,0.04,0.0739622641509433,171.4834686376562,470,470,470,453
COD,CD,1502.0,24770.0,14083.0,ep chibambo,51216.0,28.6133,-10.38204,3,,,2012.0,,,50,0,,,50,0,,,50,1,,,1,3994,0.0,0.0,0.02,0.0188679245283018,360.86965821299754,471,471,471,454
COD,CD,1506.0,24780.0,13992.0,ep chungau,51411.0,29.438999,1.22726,3,,,2013.0,,,50,3,,,50,0,,,50,1,,,1,3652,0.06,0.0,0.02,0.0743396226415094,2300.033719272929,472,472,472,455
COD,CD,1506.0,24779.0,14233.0,ep de l'etat,50911.0,30.2495,1.5693671,3,,,2013.0,,,50,0,,,50,0,,,50,2,,,1,4274,0.0,0.0,0.04,0.0377358490566037,0.0,473,473,453,436
COD,CD,1498.0,24760.0,13949.0,ep dengbe,11163.0,19.16916667,1.255111111,3,,,2015.0,,,50,0,,,50,7,,,50,0,,,1,3449,0.0,0.14,0.0,0.1320754716981132,24735.11067015004,474,474,474,456
COD,CD,1498.0,24760.0,13913.0,ep dikila,11141.0,21.32916667,2.637777778,3,,,2015.0,,,50,0,,,50,8,,,50,1,,,1,3279,0.0,0.16,0.02,0.1667924528301886,6465.382512809553,475,475,475,457
COD,CD,1506.0,24779.0,14253.0,ep dirokpa,51387.0,30.908667,2.0063169,3,,,2013.0,,,51,0,,,51,0,,,51,1,,,1,4351,0.0,0.0,0.0196078431372549,0.0184979652238253,2170.8635926811153,476,476,476,458
COD,CD,1506.0,24779.0,14237.0,ep djokaba,50991.0,30.719667,1.873368,3,,,2013.0,,,50,0,,,50,1,,,50,0,,,1,4291,0.0,0.02,0.0,0.0188679245283018,3720.212073419986,477,477,477,459
COD,CD,1506.0,24779.0,14237.0,ep dzu,50992.0,30.653999,1.8886,3,,,2013.0,,,50,0,,,50,4,,,50,0,,,1,4293,0.0,0.08,0.0,0.0754716981132075,3836.3138954871497,478,478,478,460
COD,CD,1498.0,24763.0,13959.0,ep etata,11512.0,20.39861111,0.8472222220000001,3,,,2015.0,,,50,0,,,50,24,,,50,7,,,1,3501,0.0,0.48,0.14,0.521509433962264,48642.387629507306,479,479,479,461
COD,CD,1498.0,24760.0,13904.0,ep etoile,11089.0,20.51527778,3.349444444,3,,,2015.0,,,50,2,,,50,2,,,50,2,,,1,3236,0.04,0.04,0.04,0.1087396226415094,14891.191112882403,480,480,480,462
COD,CD,1506.0,24779.0,14240.0,ep fataki 2,51011.0,30.5653251,1.989165,1,,,2013.0,,,50,0,,,50,2,,,50,0,,,1,4309,0.0,0.04,0.0,0.0377358490566037,10099.43585712735,481,481,481,463
COD,CD,1498.0,24760.0,13913.0,ep gala,11142.0,19.73694444,2.668611111,3,,,2015.0,,,50,0,,,50,4,,,50,2,,,1,3280,0.0,0.08,0.04,0.110188679245283,3855.3084529072994,482,482,482,464
COD,CD,1506.0,24779.0,14270.0,ep gay,51785.0,30.301332,1.752167,3,,,2013.0,,,50,0,,,50,14,,,50,0,,,1,4414,0.0,0.28,0.0,0.2641509433962264,0.0,483,483,452,435
COD,CD,1506.0,24777.0,14234.0,ep gazi,50916.0,24.746117,2.8101671,3,,,2013.0,,,47,10,,,47,0,,,47,1,,,1,4276,0.2127659574468085,0.0,0.0212765957446808,0.216524167855343,1619.310786244393,484,484,484,465
COD,CD,1506.0,24777.0,14229.0,ep gitalio,50817.0,25.17547,4.151,1,,,2013.0,,,50,16,,,50,16,,,50,0,,,1,4258,0.32,0.32,0.0,0.5071698113207547,0.0,485,485,73,73
COD,CD,1506.0,24779.0,14277.0,ep gola,51896.0,30.902617,2.0509501,3,,,2013.0,,,50,0,,,50,1,,,50,0,,,1,4455,0.0,0.02,0.0,0.0188679245283018,2869.146268369159,486,486,486,466
COD,CD,1506.0,24779.0,14254.0,ep i drodro,51388.0,30.5423015,1.756776,2,,,2013.0,,,50,0,,,50,1,,,50,0,,,1,4357,0.0,0.02,0.0,0.0188679245283018,0.0,487,487,346,330
COD,CD,1502.0,24770.0,14102.0,ep ii mahombezi,51464.0,27.512711,-11.65009,3,,,2012.0,,,50,0,,,50,6,,,50,0,,,1,4049,0.0,0.12,0.0,0.1132075471698113,446.669858214546,488,488,488,467
COD,CD,1498.0,24760.0,13917.0,ep ii mongana,11171.0,21.683507,2.096216,1,,,2015.0,,,50,0,,,50,0,,,50,0,,,1,3298,0.0,0.0,0.0,0.0,12385.145200162819,489,489,489,468
COD,CD,1502.0,24770.0,14075.0,ep iii kampemba,51154.0,30.466667,-8.15,1,,,2012.0,,,50,0,,,50,0,,,50,0,,,1,3988,0.0,0.0,0.0,0.0,126888.77986383441,490,490,490,469
COD,CD,1506.0,24779.0,14224.0,ep iii sainte therese,50763.0,30.236334,1.802367,3,,,2013.0,,,60,0,,,60,5,,,60,3,,,1,4230,0.0,0.0833333333333333,0.05,0.1218553459119496,14.805492276325822,491,491,491,470
COD,CD,1506.0,24777.0,14241.0,ep inqi,50961.0,25.8106,3.28106,3,,,2013.0,,,50,21,,,50,4,,,50,0,,,1,4320,0.42,0.08,0.0,0.4399999999999999,21046.881981771887,492,492,492,471
COD,CD,1498.0,24760.0,13913.0,ep iyele,11143.0,20.88361111,2.8141666670000003,3,,,2015.0,,,50,1,,,50,13,,,50,0,,,1,3281,0.02,0.26,0.0,0.2592452830188679,0.0,493,493,1097,472
COD,CD,1502.0,24770.0,14102.0,ep jasiri,51465.0,27.48406,-11.67171,3,,,2012.0,,,50,0,,,50,17,,,50,0,,,1,4051,0.0,0.34,0.0,0.320754716981132,885.8258350648211,494,494,494,473
COD,CD,1502.0,24770.0,14083.0,ep kacema,51217.0,28.633333,-10.516667,3,,,2012.0,,,50,0,,,50,0,,,50,0,,,1,3993,0.0,0.0,0.0,0.0,3171.3347987934458,495,495,495,474
COD,CD,1502.0,24773.0,14088.0,ep kaleja,51245.0,28.00828,-7.3199801,3,,,2012.0,,,41,0,,,41,0,,,41,0,,,1,4001,0.0,0.0,0.0,0.0,315.83286331432765,496,496,496,475
COD,CD,1502.0,24770.0,14102.0,ep kamweneyu,51466.0,27.488939,-11.697861,3,,,2012.0,,,40,0,,,40,7,,,40,0,,,1,4044,0.0,0.175,0.0,0.1650943396226414,380.7436070408666,497,497,497,476
COD,CD,1506.0,24779.0,14281.0,ep kasenyi,51958.0,30.42461,1.396158,1,,,2013.0,,,50,0,,,50,0,,,50,0,,,1,4472,0.0,0.0,0.0,0.0,4299.987836617469,498,498,498,477
COD,CD,1502.0,24770.0,14102.0,ep katuba i,51467.0,27.4644482,-11.7148203,1,,,2012.0,,,50,0,,,50,20,,,50,4,,,1,4054,0.0,0.4,0.08,0.4226415094339623,753.3644742014492,499,499,499,478
COD,CD,1502.0,24773.0,14108.0,ep kayanza,51614.0,26.393612,-5.351944,3,,,2012.0,,,40,0,,,40,0,,,40,0,,,1,4071,0.0,0.0,0.0,0.0,10087.28667834557,500,500,500,479
COD,CD,1506.0,24777.0,14241.0,ep kezipame,50962.0,25.528299,3.28106,3,,,2013.0,,,50,17,,,50,13,,,50,0,,,1,4310,0.34,0.26,0.0,0.4826415094339623,0.0,501,501,446,429
COD,CD,1498.0,24763.0,13905.0,ep kimbangu,11097.0,21.58416667,-0.662222222,3,,,2015.0,,,50,0,,,50,19,,,50,14,,,1,3242,0.0,0.38,0.28,0.5222641509433962,33877.31947836202,502,502,502,480
COD,CD,1502.0,26059.0,14094.0,ep kiwele i,51321.0,27.47735,-11.541167,3,,,2012.0,,,50,0,,,50,2,,,50,0,,,1,4006,0.0,0.04,0.0,0.0377358490566037,5397.249926028075,503,503,503,481
COD,CD,1506.0,24779.0,14277.0,ep kokpa,51897.0,30.862833,2.0558331,3,,,2013.0,,,50,0,,,50,0,,,50,0,,,1,4458,0.0,0.0,0.0,0.0,4462.010966296883,504,504,504,482
COD,CD,1506.0,24779.0,14237.0,ep kpalo,50993.0,30.723167,1.84015,3,,,2013.0,,,47,0,,,47,0,,,47,0,,,1,4287,0.0,0.0,0.0,0.0,2334.299793326246,505,505,505,483
COD,CD,1502.0,24773.0,14088.0,ep kyusweduma,51246.0,28.09737,-7.4479899,3,,,2012.0,,,42,4,,,42,4,,,42,0,,,1,3998,0.0952380952380952,0.0952380952380952,0.0,0.171137637444915,17049.43829539294,506,506,506,484
COD,CD,1498.0,24760.0,13936.0,ep landa mibeko,11329.0,21.73722222,3.111666667,3,,,2015.0,,,50,0,,,50,13,,,50,0,,,1,3384,0.0,0.26,0.0,0.2452830188679245,14157.20930453636,507,507,507,485
COD,CD,1506.0,24778.0,14235.0,ep lawa,50926.0,30.000681,2.26001,3,,,2013.0,,,50,0,,,50,0,,,50,1,,,1,4282,0.0,0.0,0.02,0.0188679245283018,321.175442391543,508,508,508,486
COD,CD,1498.0,24760.0,13954.0,ep lendo,11463.0,20.59388889,2.405277778,3,,,2015.0,,,50,0,,,50,0,,,50,0,,,1,3474,0.0,0.0,0.0,0.0,8715.115689349743,509,509,509,487
COD,CD,1498.0,24760.0,13949.0,ep limgbangba,11164.0,19.30888889,2.468055556,3,,,2015.0,,,50,0,,,50,7,,,50,0,,,1,3451,0.0,0.14,0.0,0.1320754716981132,2861.1275611791366,510,510,510,488
COD,CD,1498.0,24760.0,13916.0,ep loboko,11155.0,20.26666667,2.275,3,,,2015.0,,,50,2,,,50,4,,,50,0,,,1,3293,0.04,0.08,0.0,0.110188679245283,14750.602735045637,511,511,511,489
COD,CD,1498.0,24763.0,13929.0,ep lokendu,11239.0,21.94555556,2.653888889,3,,,2015.0,,,50,0,,,50,3,,,50,1,,,1,3358,0.0,0.06,0.02,0.0743396226415094,31991.243964159672,512,512,512,490
COD,CD,1506.0,24779.0,14277.0,ep lokpa,51898.0,30.908182,2.0258,3,,,2013.0,,,51,0,,,51,1,,,51,0,,,1,4457,0.0,0.0196078431372549,0.0,0.0184979652238253,2170.8635926811153,513,513,513,491
COD,CD,1506.0,24780.0,13992.0,ep lolwa,51412.0,29.4962688,1.351221,1,,,2013.0,,,50,0,,,50,1,,,50,4,,,1,3654,0.0,0.02,0.08,0.0928301886792452,11686.947671589309,514,514,514,492
COD,CD,1498.0,24760.0,13917.0,ep lopori,11172.0,21.3472112,1.5800238,2,,,2015.0,,,50,0,,,50,3,,,50,0,,,1,3299,0.0,0.06,0.0,0.0566037735849056,31592.69830046426,515,515,515,493
COD,CD,1502.0,24770.0,14121.0,ep lubembe,51912.0,28.56287,-12.74297,3,,,2012.0,,,50,0,,,50,1,,,50,0,,,1,4100,0.0,0.02,0.0,0.0188679245283018,601.620061697629,516,516,516,494
COD,CD,1506.0,24779.0,14262.0,ep mabukulu,51583.0,29.2407955,1.3503863,1,,,2013.0,,,50,0,,,50,0,,,50,7,,,1,4401,0.0,0.0,0.14,0.1320754716981132,14772.358520985053,517,517,517,495
COD,CD,1506.0,24780.0,14259.0,ep madula,51556.0,25.373056,0.45888901,3,,,2013.0,,,48,17,,,48,1,,,48,0,,,1,4380,0.3541666666666667,0.0208333333333333,0.0,0.3468127620545073,14610.615762917454,518,518,518,496
COD,CD,1498.0,24760.0,13904.0,ep maisomba,11090.0,20.75444444,2.686666667,3,,,2015.0,,,50,1,,,50,0,,,50,0,,,1,3239,0.02,0.0,0.0,0.0188679245283018,18925.399199205665,519,519,519,497
COD,CD,1502.0,24770.0,14102.0,ep majrio,51468.0,27.48995,-11.67695,3,,,2012.0,,,50,0,,,50,17,,,50,0,,,1,4053,0.0,0.34,0.0,0.320754716981132,346.2908123202543,520,520,520,498
COD,CD,1506.0,24777.0,14241.0,ep makala,50963.0,25.528299,3.28106,3,,,2013.0,,,55,23,,,55,9,,,55,0,,,1,4318,0.4181818181818181,0.1636363636363636,0.0,0.4843287073132699,0.0,521,521,446,429
COD,CD,1506.0,24779.0,14261.0,ep makoko,51581.0,29.02363,1.25458,3,,,2013.0,,,50,5,,,50,10,,,50,5,,,1,4398,0.1,0.2,0.1,0.3320754716981131,5030.066037871955,522,522,522,499
COD,CD,1506.0,24777.0,14282.0,ep malingwia,51959.0,25.458889,3.2149999,3,,,2013.0,,,44,19,,,44,10,,,44,0,,,1,4473,0.4318181818181818,0.2272727272727272,0.0,0.5291985030406985,10674.917862834673,523,523,523,500
COD,CD,1506.0,24779.0,14261.0,ep mambasa,51582.0,29.0285355,1.3595321,1,,,2013.0,,,50,1,,,50,3,,,50,1,,,1,4399,0.02,0.06,0.02,0.0917207547169811,11699.008296902986,524,524,524,501
COD,CD,1498.0,24760.0,13913.0,ep mange wamba,11144.0,20.09833333,2.6097222220000003,3,,,2015.0,,,50,7,,,50,16,,,50,0,,,1,3282,0.14,0.32,0.0,0.3916981132075471,3865.1772607895737,525,525,525,502
COD,CD,1506.0,24779.0,14250.0,ep mangiva,51353.0,29.4925,1.24633,3,,,2013.0,,,50,7,,,50,0,,,50,2,,,1,4341,0.14,0.0,0.04,0.1645283018867924,4726.285766928206,526,526,526,503
COD,CD,1498.0,24760.0,13936.0,ep mapasaii,11330.0,20.1125,2.641388889,3,,,2015.0,,,50,0,,,50,8,,,50,2,,,1,3383,0.0,0.16,0.04,0.1826415094339622,3865.1772607895737,527,527,527,504
COD,CD,1506.0,24778.0,14235.0,ep marabo,50927.0,29.999994,2.26281,3,,,2013.0,,,50,0,,,50,1,,,50,1,,,1,4283,0.0,0.02,0.02,0.0373584905660377,321.175442391543,528,528,528,505
COD,CD,1502.0,24770.0,14102.0,ep matoleo,51469.0,27.534401,-11.63549,3,,,2012.0,,,50,0,,,50,3,,,50,0,,,1,4046,0.0,0.06,0.0,0.0566037735849056,715.2470585905489,529,529,529,506
COD,CD,1502.0,24770.0,14102.0,ep mawazo est,51470.0,27.505836,-11.65837,3,,,2012.0,,,50,0,,,50,15,,,50,0,,,1,4047,0.0,0.3,0.0,0.2830188679245282,0.0,530,530,307,292
COD,CD,1498.0,24760.0,13916.0,ep mbatasomba,11156.0,20.09722222,2.469722222,3,,,2015.0,,,50,0,,,50,1,,,50,0,,,1,3294,0.0,0.02,0.0,0.0188679245283018,12556.844077704784,531,531,531,507
COD,CD,1499.0,24765.0,13988.0,ep mfwaii,51494.0,23.294621,-5.6835999,3,,,2012.0,,,50,17,,,50,0,,,50,0,,,1,3633,0.34,0.0,0.0,0.320754716981132,7444.726170570247,532,532,532,508
COD,CD,1498.0,24760.0,13904.0,ep molembe,11091.0,19.0738889,4.8844444,1,,,2015.0,,,50,0,,,50,3,,,50,1,,,1,3237,0.0,0.06,0.02,0.0743396226415094,72565.25015553314,533,533,533,509
COD,CD,1506.0,24777.0,14229.0,ep mombu,50818.0,25.17547,4.151,1,,,2013.0,,,50,17,,,50,13,,,50,0,,,1,4250,0.34,0.26,0.0,0.4826415094339623,0.0,534,534,73,73
COD,CD,1498.0,24760.0,13917.0,ep mompili,11173.0,21.73333,1.95,3,,,2015.0,,,50,0,,,50,0,,,50,0,,,1,3296,0.0,0.0,0.0,0.0,17205.30477934058,535,535,535,510
COD,CD,1498.0,24760.0,13936.0,ep mosapuke,11331.0,21.62666667,2.728611111,3,,,2015.0,,,50,7,,,50,11,,,50,0,,,1,3385,0.14,0.22,0.0,0.310566037735849,10936.146975684229,536,536,536,511
COD,CD,1506.0,24780.0,13992.0,ep muangaza,51413.0,29.458611,1.22076,3,,,2013.0,,,50,4,,,50,0,,,50,2,,,1,3655,0.08,0.0,0.04,0.110188679245283,2300.033719272929,537,537,537,512
COD,CD,1506.0,24779.0,14224.0,ep mugele bamba,50764.0,30.08535,1.786733,3,,,2013.0,,,60,0,,,60,5,,,60,8,,,1,4231,0.0,0.0833333333333333,0.1333333333333333,0.1939203354297693,0.0,538,538,416,399
COD,CD,1502.0,24770.0,14102.0,ep mutumbwi,51471.0,27.482571,-11.69224,3,,,2012.0,,,50,0,,,50,5,,,50,0,,,1,4040,0.0,0.1,0.0,0.0943396226415094,0.0,539,539,272,260
COD,CD,1506.0,24779.0,14233.0,ep muzipela,50912.0,30.24165,1.585767,3,,,2013.0,,,50,0,,,50,0,,,50,0,,,1,4273,0.0,0.0,0.0,0.0,2024.6173219901257,540,540,540,513
COD,CD,1502.0,24773.0,14067.0,ep mwanga,51065.0,28.94495,-8.388295,1,,,2012.0,,,36,0,,,36,0,,,36,0,,,1,3971,0.0,0.0,0.0,0.0,5438.478507873535,541,541,541,514
COD,CD,1506.0,24779.0,14270.0,ep nana,51786.0,30.471018,1.426,3,,,2013.0,,,50,0,,,50,0,,,50,0,,,1,4421,0.0,0.0,0.0,0.0,1965.3727611822467,542,542,542,515
COD,CD,1498.0,24763.0,13948.0,ep ndeke,11424.0,20.023529,1.071354,2,,,2015.0,,,50,0,,,50,23,,,50,1,,,1,3446,0.0,0.46,0.02,0.4441509433962264,15636.728311472461,543,543,543,516
COD,CD,1506.0,24779.0,14224.0,ep ndjubu,50765.0,30.358334,1.934333,3,,,2013.0,,,45,1,,,45,9,,,45,7,,,1,4225,0.0222222222222222,0.2,0.1555555555555555,0.3202422548334497,6938.5786037905455,544,544,544,517
COD,CD,1498.0,24760.0,13916.0,ep ngombe diko,11158.0,22.7347145,-0.8561597,2,,,2015.0,,,50,4,,,50,5,,,50,1,,,1,3292,0.08,0.1,0.02,0.1778867924528301,0.0,545,545,1483,518
COD,CD,1499.0,24765.0,14000.0,ep nkana,51747.0,22.86005,-4.5988402,3,,,2012.0,,,43,19,,,43,8,,,43,2,,,1,3696,0.4418604651162791,0.1860465116279069,0.0465116279069767,0.5347458429553253,12697.595854064355,546,546,546,519
COD,CD,1506.0,24779.0,14233.0,ep nyakasanza,50913.0,30.255833,1.554933,3,,,2013.0,,,50,0,,,50,0,,,50,1,,,1,4275,0.0,0.0,0.02,0.0188679245283018,1755.1983988509835,547,547,547,520
COD,CD,1506.0,24779.0,14270.0,ep nyamusasi,51787.0,30.452917,1.422433,3,,,2013.0,,,50,0,,,50,0,,,50,0,,,1,4415,0.0,0.0,0.0,0.0,2053.7693496105903,548,548,548,521
COD,CD,1506.0,24779.0,14271.0,ep nyankunde,51803.0,30.017941,2.25632,3,,,2013.0,,,50,0,,,50,1,,,50,0,,,1,4425,0.0,0.02,0.0,0.0188679245283018,1964.8595629979175,549,549,549,522
COD,CD,1506.0,24779.0,14242.0,ep nyanzige,51018.0,30.219351,1.0207,3,,,2013.0,,,50,0,,,50,2,,,50,0,,,1,4321,0.0,0.04,0.0,0.0377358490566037,14754.11885364926,550,550,550,523
COD,CD,1506.0,24779.0,14271.0,ep okere,51804.0,30.1,2.3166669,1,,,2013.0,,,50,0,,,50,0,,,50,1,,,1,4426,0.0,0.0,0.02,0.0188679245283018,8322.993816047943,551,551,551,524
COD,CD,1506.0,24778.0,14260.0,ep oki,51566.0,30.20575,2.8571501,3,,,2013.0,,,50,0,,,50,0,,,50,0,,,1,4388,0.0,0.0,0.0,0.0,3956.4127432068335,552,552,552,525
COD,CD,1506.0,24779.0,14224.0,ep petsi lycee,50766.0,30.236467,1.802367,3,,,2013.0,,,60,3,,,60,9,,,60,10,,,1,4226,0.05,0.15,0.1666666666666666,0.308569182389937,14.805492276325822,553,553,553,526
COD,CD,1506.0,24780.0,13992.0,ep pinzili,51414.0,29.433781,1.1816601,3,,,2013.0,,,50,0,,,50,0,,,50,1,,,1,3656,0.0,0.0,0.02,0.0188679245283018,5110.398464490284,554,554,554,527
COD,CD,1498.0,24763.0,13908.0,ep pleiade,11112.0,21.77972222,1.609722222,3,,,2015.0,,,50,0,,,50,14,,,50,0,,,1,3259,0.0,0.28,0.0,0.2641509433962264,38248.14488651486,555,555,555,528
COD,CD,1506.0,24779.0,14249.0,ep pluto,51271.0,30.026434,1.971033,3,,,2013.0,,,50,10,,,50,4,,,50,3,,,1,4338,0.2,0.08,0.06,0.2907169811320755,3380.8521996565696,556,556,556,529
COD,CD,1506.0,24779.0,14224.0,ep rara,50767.0,30.342333,1.841333,3,,,2013.0,,,60,0,,,60,15,,,60,3,,,1,4229,0.0,0.25,0.05,0.2712264150943396,1812.1646917378293,557,557,557,530
COD,CD,1506.0,24779.0,14254.0,ep raudjo,51389.0,30.633432,1.808167,3,,,2013.0,,,51,0,,,51,0,,,51,1,,,1,4358,0.0,0.0,0.0196078431372549,0.0184979652238253,8126.177791746329,558,558,558,531
