iso3,iso2,admin1_id,admin2_id,iu_id,location,site_id,longitude,latitude,georeliability,location_type,survey_type,year,age_start,age_end,hk_examined,hk_positive,hk_perc_highinfection,hk_perc_moderateinfection,asc_examined,asc_positive,asc_perc_highinfection,asc_perc_moderateinfection,tt_examined,tt_positive,tt_perc_highinfection,tt_perc_moderateinfection,quality,sn,hk_prevalence,asc_prevalence,tt_prevalence,sth_prevalence,shortest,id,src,dst,identifier
KEN,KE,2534.0,24797.0,24797.0,a. c. tegat,12530.0,35.09603,0.20122,3,,,2013.0,,,55.0,0,,,55.0,10,,,55.0,0,,,1,19522,0.0,0.1818181818181818,0.0,0.1715265866209262,5576.609574995546,0,0,0,1
KEN,KE,2528.0,24761.0,54081.0,a. k. magugu,12388.0,36.79287,-1.08847,3,,,2013.0,,,54.0,1,,,54.0,6,,,54.0,0,,,1,6169,0.0185185185185185,0.1111111111111111,0.0,0.1203509589253823,3936.7168061935827,1,1,1,2
KEN,KE,2532.0,24783.0,54285.0,abakore,53996.0,39.7111401,0.6288978,1,,,2008.0,,,52.0,0,,,52.0,0,,,52.0,0,,,1,7562,0.0,0.0,0.0,0.0,21468.473810281073,2,2,2,3
KEN,KE,2533.0,24789.0,54244.0,abidha,,34.188202,-0.0299,3,,,2005.0,5.0,20.0,31.0,17,,,31.0,8,,,31.0,1,,,2,30362,0.5483870967741935,0.2580645161290322,0.032258064516129,0.6374915052855649,2421.7586104964657,3,3,3,4
KEN,KE,2533.0,24789.0,54244.0,abom,52743.0,34.334499,-0.038957998,3,,,1997.0,,,378.0,77,,,378.0,175,,,378.0,35,,,3,7287,0.2037037037037037,0.4629629629629629,0.0925925925925925,0.5773167439769401,0.0,4,4,5,5
KEN,KE,2533.0,24789.0,54244.0,abom,52742.0,34.334499,-0.038957998,3,,,1996.0,,,869.0,101,,,869.0,218,,,869.0,52,,,3,7304,0.1162255466052934,0.2508630609896433,0.0598388952819332,0.3561786172104266,0.0,5,5,4,5
KEN,KE,2529.0,24770.0,1986.0,abori,,37.692799,-3.45778,3,,,2009.0,5.0,15.0,0.0,0,,,106.0,1,,,106.0,1,,,1,28893,,0.0094339622641509,0.0094339622641509,,274.50963531350084,6,6,6,6
KEN,KE,2529.0,24770.0,54250.0,abori,53972.0,37.6936411,-3.4600935,1,,,1998.0,,,316.0,5,,,316.0,2,,,316.0,3,,,3,7478,0.0158227848101265,0.0063291139240506,0.0094936708860759,0.029562333313829,274.50963531350084,7,7,7,7
KEN,KE,2531.0,24780.0,,addar academy,12488.0,36.92313,-1.23088,3,,,2013.0,,,61.0,0,,,61.0,0,,,61.0,0,,,1,19383,0.0,0.0,0.0,0.0,650.3639521390444,8,8,8,8
KEN,KE,2533.0,24784.0,54044.0,adiedo,53574.0,34.6064,-0.42601001,3,,,2007.0,,,25.0,1,,,25.0,1,,,25.0,0,,,1,6686,0.04,0.04,0.0,0.0739622641509433,2231.956899774936,9,9,9,9
KEN,KE,2529.0,24766.0,54092.0,adu,,39.9804,-2.8351,3,,,2008.0,5.0,16.0,97.0,0,,,97.0,1,,,97.0,4,,,1,29007,0.0,0.0103092783505154,0.0412371134020618,0.0482276102567393,0.011145590920932591,10,10,11,10
KEN,KE,2529.0,24766.0,54091.0,adu,53359.0,39.9804,-2.8350999,3,,,2012.0,,,108.0,34,,,108.0,9,,,108.0,3,,,1,6889,0.3148148148148148,0.0833333333333333,0.0277777777777777,0.3673211558868441,0.011145590920932591,11,11,10,10
KEN,KE,2533.0,24789.0,54244.0,aduoyo,,34.396999,-0.1726879999999999,3,,,2001.0,10.0,12.0,36.0,12,,,36.0,5,,,36.0,11,,,2,31559,0.3333333333333333,0.1388888888888889,0.3055555555555556,0.5672994797732742,1227.5005168189837,12,12,12,11
KEN,KE,2535.0,24805.0,1934.0,agenga,,34.063702,0.24367,3,,,1999.0,5.0,17.0,65.0,37,,,65.0,6,,,65.0,9,,,3,30139,0.5692307692307692,0.0923076923076923,0.1384615384615384,0.6255975129035305,863.2936278384935,13,13,13,12
KEN,KE,2533.0,24784.0,54044.0,agoro sare,53575.0,34.734798,-0.49735001,3,,,2007.0,,,221.0,16,,,221.0,73,,,221.0,11,,,1,6672,0.0723981900452488,0.3303167420814479,0.0497737556561085,0.3865283255795052,1232.470986474965,14,14,14,13
KEN,KE,2533.0,24789.0,54244.0,agwara,,34.195599,-0.064317,3,,,2005.0,5.0,20.0,41.0,15,,,41.0,0,,,41.0,1,,,2,30371,0.3658536585365853,0.0,0.024390243902439,0.3597364551648277,914.1195133390686,15,15,15,14
KEN,KE,2534.0,24802.0,24802.0,aic besiebor,12613.0,35.0472,0.61733,3,,,2013.0,,,59.0,0,,,59.0,0,,,59.0,0,,,1,19569,0.0,0.0,0.0,0.0,5853.219955121121,16,16,16,15
KEN,KE,2534.0,24803.0,1997.0,aic kameris,,35.027401,2.27526,3,,,2009.0,5.0,18.0,110.0,1,,,0.0,0,,,110.0,0,,,1,28999,0.009090909090909,,0.0,,1.2245143982581794,17,17,17,16
KEN,KE,2534.0,24797.0,24797.0,aic kamotong,12531.0,35.12635,0.52739,3,,,2013.0,,,55.0,0,,,55.0,1,,,55.0,0,,,1,19525,0.0,0.0181818181818181,0.0,0.0171526586620926,4227.041941573185,18,18,18,17
KEN,KE,2534.0,24801.0,1993.0,aic lopiding,,34.39046,4.20626,3,,,2008.0,5.0,16.0,196.0,0,,,196.0,0,,,196.0,2,,,1,28853,0.0,0.0,0.010204081632653,0.0096264921062764,0.0,19,19,20,18
KEN,KE,2534.0,24801.0,1993.0,aic lopiding,,34.39046,4.20626,3,,,2009.0,5.0,18.0,106.0,0,,,106.0,0,,,106.0,0,,,1,29482,0.0,0.0,0.0,0.0,0.0,20,20,19,18
KEN,KE,2534.0,24793.0,24793.0,aic namanga,12368.0,37.39992,-2.54605,3,,,2013.0,,,64.0,0,,,64.0,0,,,64.0,2,,,1,19491,0.0,0.0,0.03125,0.0294811320754716,14532.069478084532,21,21,21,19
KEN,KE,2534.0,24796.0,24796.0,ainamoi,12508.0,35.25162,0.28440005,3,,,2015.0,,,46.0,0,,,46.0,1,,,46.0,1,,,1,19500,0.0,0.0217391304347826,0.0217391304347826,0.0405713878089667,0.0,22,22,23,20
KEN,KE,2534.0,24802.0,24802.0,ainamoi,12614.0,35.25162,0.28440005,3,,,2013.0,,,58.0,0,,,58.0,0,,,58.0,0,,,1,19565,0.0,0.0,0.0,0.0,0.0,23,23,22,20
KEN,KE,2528.0,24762.0,1948.0,aipca bishop kigunda,,37.349998,-0.6144879999999999,3,,,2004.0,5.0,16.0,11.0,1,,,11.0,1,,,11.0,1,,,2,30436,0.0909090909090909,0.0909090909090909,0.0909090909090909,0.2346086783947379,244.95816992620732,24,24,24,21
KEN,KE,2529.0,24766.0,54091.0,airport,53360.0,40.097301,-3.2341001,3,,,2012.0,,,108.0,26,,,108.0,2,,,108.0,11,,,1,6913,0.2407407407407407,0.0185185185185185,0.1018518518518518,0.3119820619076513,6262.502919253088,25,25,25,22
KEN,KE,2533.0,24786.0,54113.0,akado,53225.0,34.439499,-0.14793,3,,,2007.0,,,106.0,6,,,106.0,16,,,106.0,31,,,1,7075,0.0566037735849056,0.1509433962264151,0.2924528301886792,0.4087330037294304,1482.3358646754186,26,26,26,23
KEN,KE,2533.0,24789.0,54246.0,akom,53644.0,34.3386,-0.18061,3,,,2006.0,,,38.0,2,,,38.0,5,,,38.0,7,,,1,7405,0.0526315789473684,0.131578947368421,0.1842105263157894,0.3102245500334225,1562.9339001777557,27,27,27,24
KEN,KE,2532.0,24781.0,1938.0,al fatah,,39.665401,-0.481346,3,,,2009.0,5.0,15.0,93.0,0,,,93.0,0,,,93.0,0,,,1,28974,0.0,0.0,0.0,0.0,0.0011132341314805672,28,28,33,25
KEN,KE,2531.0,24780.0,,al madrasa,12489.0,36.75703,-1.361877,3,,,2013.0,,,46.0,0,,,46.0,0,,,46.0,0,,,1,19389,0.0,0.0,0.0,0.0,6478.478158316148,29,29,29,26
KEN,KE,2533.0,24789.0,54244.0,alara,,34.408501,-0.135736,3,,,2001.0,10.0,12.0,46.0,14,,,46.0,8,,,46.0,7,,,2,31552,0.3043478260869565,0.1739130434782608,0.1521739130434782,0.4837551620451856,0.0,30,30,31,27
KEN,KE,2533.0,24789.0,54246.0,alara,53646.0,34.408501,-0.135736,3,,,2006.0,,,61.0,1,,,61.0,10,,,61.0,23,,,1,7389,0.0163934426229508,0.1639344262295081,0.3770491803278688,0.4601041746242079,0.0,31,31,30,27
KEN,KE,2533.0,24784.0,54046.0,alara korayo,52929.0,34.525948,-0.50993699,3,,,2012.0,,,108.0,19,,,108.0,10,,,108.0,3,,,1,6631,0.1759259259259259,0.0925925925925925,0.0277777777777777,0.2575476371238852,2783.3754654955446,32,32,32,28
KEN,KE,2532.0,24781.0,54036.0,alfatah,52884.0,39.665401,-0.48134601,3,,,2008.0,,,51.0,0,,,51.0,0,,,51.0,0,,,1,6603,0.0,0.0,0.0,0.0,0.0011132341314805672,33,33,28,25
KEN,KE,2530.0,24777.0,24777.0,alhuda,12411.0,39.06024,3.52321,3,,,2013.0,,,63.0,1,,,63.0,0,,,63.0,2,,,1,19355,0.0158730158730158,0.0,0.0317460317460317,0.0444482475030543,4277.971858909541,34,34,34,29
KEN,KE,2533.0,24786.0,54113.0,alungo,53226.0,34.504501,-0.16864,3,,,2007.0,,,106.0,7,,,106.0,11,,,106.0,25,,,1,7069,0.0660377358490566,0.1037735849056603,0.2358490566037736,0.339975313292054,1170.9122574871117,35,35,35,30
KEN,KE,2533.0,24786.0,1949.0,alwala,,34.483898,-0.13884,3,,,2009.0,5.0,15.0,109.0,1,,,109.0,3,,,109.0,3,,,1,28964,0.0091743119266055,0.0275229357798165,0.0275229357798165,0.0594005784411879,627.8344650963763,36,36,36,31
KEN,KE,2533.0,24786.0,54113.0,alwala,53227.0,34.4891278,-0.1367286,1,,,2007.0,,,109.0,9,,,109.0,8,,,109.0,13,,,1,7070,0.0825688073394495,0.073394495412844,0.1192660550458715,0.2370668846535774,627.8344650963763,37,37,37,32
KEN,KE,2529.0,24771.0,1987.0,ama,,40.003899,-1.50317,3,,,2009.0,5.0,15.0,92.0,0,,,92.0,2,,,0.0,0,,,1,28945,0.0,0.0217391304347826,,,835.2236214408084,38,38,38,33
KEN,KE,2534.0,24793.0,24793.0,amboseli,12369.0,37.36604,-2.74414,3,,,2013.0,,,51.0,0,,,51.0,0,,,51.0,0,,,1,19497,0.0,0.0,0.0,0.0,7973.255350038755,39,39,39,34
KEN,KE,2533.0,24785.0,54105.0,ameagara,53388.0,34.969318,-0.83400702,3,,,2012.0,,,108.0,4,,,108.0,43,,,108.0,0,,,1,7025,0.037037037037037,0.3981481481481481,0.0,0.3966405259207495,4059.966281760636,40,40,40,35
KEN,KE,2531.0,24780.0,,ananda marga mission,12490.0,36.86835,-1.25905,3,,,2013.0,,,58.0,0,,,58.0,2,,,58.0,2,,,1,19388,0.0,0.0344827586206896,0.0344827586206896,0.0639400533955533,950.1168672621499,41,41,41,36
KEN,KE,2533.0,24784.0,54046.0,ang'iro,52930.0,34.550472,-0.50506401,3,,,2012.0,,,108.0,14,,,108.0,8,,,108.0,1,,,1,6633,0.1296296296296296,0.074074074074074,0.0092592592592592,0.1901542754546351,2783.3754654955446,42,42,42,37
KEN,KE,2535.0,24806.0,54061.0,angayu,53340.0,34.918701,0.61062002,3,,,2012.0,,,108.0,1,,,108.0,5,,,108.0,0,,,1,6829,0.0092592592592592,0.0462962962962962,0.0,0.0520064963635893,10043.315537214557,43,43,43,38
KEN,KE,2533.0,24786.0,54112.0,angira,53195.0,34.795712,-0.058329999,3,,,2012.0,,,108.0,17,,,108.0,15,,,108.0,14,,,1,7058,0.1574074074074074,0.1388888888888889,0.1296296296296296,0.3476311207161816,2687.4375103085154,44,44,44,39
KEN,KE,2534.0,24803.0,24803.0,annet,12622.0,35.59666,1.31655,3,,,2013.0,,,60.0,0,,,60.0,0,,,60.0,0,,,1,19576,0.0,0.0,0.0,0.0,12192.205066704213,45,45,45,40
KEN,KE,2529.0,24771.0,1987.0,anole,,39.647099,-0.52561,3,,,2009.0,5.0,15.0,103.0,0,,,103.0,0,,,103.0,0,,,1,28889,0.0,0.0,0.0,0.0,5015.176815217917,46,46,46,41
KEN,KE,2530.0,24777.0,24777.0,anona,12412.0,38.62579,3.59245,3,,,2013.0,,,46.0,0,,,46.0,0,,,46.0,0,,,1,19360,0.0,0.0,0.0,0.0,42392.002504175856,47,47,47,42
KEN,KE,2533.0,24784.0,54044.0,anyona,53576.0,34.969269,-0.4271,3,,,2012.0,,,108.0,6,,,108.0,41,,,108.0,6,,,1,6649,0.0555555555555555,0.3796296296296296,0.0555555555555555,0.4213631579401437,2615.0877571666974,48,48,48,43
KEN,KE,2529.0,24771.0,1987.0,arap moi,,40.2001,-2.41189,3,,,2009.0,5.0,15.0,0.0,0,,,110.0,23,,,110.0,20,,,1,28864,,0.209090909090909,0.1818181818181818,,4341.97662320809,49,49,49,44
KEN,KE,2534.0,24796.0,24796.0,arimi,12509.0,35.85207,-0.28035,3,,,2013.0,,,58.0,2,,,58.0,1,,,58.0,0,,,1,19518,0.0344827586206896,0.0172413793103448,0.0,0.0482354788773472,9613.360375203676,50,50,50,45
KEN,KE,2533.0,24787.0,54167.0,aringo,53421.0,34.176399,-0.84003699,3,,,1998.0,,,99.0,9,,,99.0,7,,,99.0,5,,,3,7242,0.0909090909090909,0.0707070707070707,0.0505050505050505,0.1866561381089163,2150.581268486611,51,51,51,46
KEN,KE,2533.0,24786.0,1949.0,asino,,34.442902,-0.1613,3,,,1994.0,5.0,45.0,244.0,148,,,244.0,18,,,244.0,54,,,3,30412,0.6065573770491803,0.0737704918032786,0.221311475409836,0.6756903349819072,1015.0714472793243,52,52,52,47
KEN,KE,2533.0,24789.0,54244.0,atemo,,34.369099,-0.13498,3,,,2001.0,10.0,12.0,32.0,9,,,32.0,2,,,32.0,4,,,2,31578,0.28125,0.0625,0.125,0.3871701798349056,0.0,53,53,54,48
KEN,KE,2533.0,24789.0,54244.0,atemo,,34.369099,-0.13498,3,,,1998.0,12.0,18.0,14.0,2,,,14.0,1,,,14.0,4,,,3,30393,0.1428571428571428,0.0714285714285714,0.2857142857142857,0.4070630947796907,0.0,54,54,53,48
KEN,KE,2533.0,24789.0,54246.0,atemo,53649.0,34.369099,-0.13497999,3,,,2006.0,,,12.0,0,,,12.0,4,,,12.0,4,,,1,7435,0.0,0.3333333333333333,0.3333333333333333,0.5241090146750523,0.001113198688472039,55,55,53,48
KEN,KE,2534.0,24802.0,24802.0,atnas kandie,12615.0,35.24397,0.53029,3,,,2013.0,,,59.0,0,,,59.0,3,,,59.0,2,,,1,19564,0.0,0.0508474576271186,0.0338983050847457,0.0783227547928647,4691.165154693351,56,56,56,49
KEN,KE,2533.0,24784.0,54044.0,ayub okoko,53578.0,34.644901,-0.36908001,3,,,2007.0,,,25.0,0,,,25.0,0,,,25.0,0,,,1,6681,0.0,0.0,0.0,0.0,1145.434261155431,57,57,57,50
KEN,KE,2533.0,24784.0,54046.0,ayuyu,52931.0,34.578506,-0.50015002,3,,,2012.0,,,108.0,14,,,108.0,8,,,108.0,5,,,1,6635,0.1296296296296296,0.074074074074074,0.0462962962962962,0.2183128530606336,3168.3144651845455,58,58,58,51
KEN,KE,2530.0,24777.0,24777.0,badasa,12413.0,38.02639,2.34758,3,,,2013.0,,,60.0,0,,,60.0,0,,,60.0,0,,,1,19358,0.0,0.0,0.0,0.0,2737.6763254355037,59,59,59,52
KEN,KE,2529.0,24766.0,54087.0,bahati,53009.0,39.8722,-3.5360799,3,,,1996.0,,,73.0,10,,,73.0,11,,,0.0,0,,,3,6869,0.136986301369863,0.1506849315068493,,,2612.3280738151416,60,60,60,53
KEN,KE,2531.0,24780.0,,bahati,,36.8615,-1.28853,3,,,1975.0,5.0,16.0,127.0,19,,,127.0,49,,,127.0,14,,,3,28822,0.1496062992125984,0.3858267716535433,0.1102362204724409,0.5049869110286429,1521.2152990329805,61,61,61,54
KEN,KE,2529.0,24766.0,54091.0,bakhita,53361.0,40.114079,-3.28771,3,,,2012.0,,,108.0,8,,,108.0,2,,,108.0,19,,,1,6893,0.074074074074074,0.0185185185185185,0.1759259259259259,0.2368855319071432,6262.502919253088,62,62,62,55
KEN,KE,2535.0,24804.0,54020.0,bakisa deb,52812.0,34.827419,0.64041001,3,,,2012.0,,,107.0,62,,,107.0,41,,,107.0,0,,,1,6520,0.5794392523364486,0.3831775700934579,0.0,0.6986685827385435,1523.62563826224,63,63,63,56
KEN,KE,2533.0,24787.0,24787.0,bande,12428.0,34.19082,-1.033712,3,,,2013.0,,,55.0,0,,,55.0,0,,,55.0,0,,,1,19446,0.0,0.0,0.0,0.0,4831.606146165868,64,64,64,57
KEN,KE,2534.0,24796.0,24796.0,bandiet,12510.0,35.73293,-0.52517,3,,,2015.0,,,57.0,0,,,57.0,3,,,57.0,2,,,1,19507,0.0,0.0526315789473684,0.0350877192982456,0.0810118643181936,13519.73439647835,65,65,65,58
KEN,KE,2529.0,24766.0,54087.0,bangalaweni,53010.0,39.522499,-3.47875,3,,,1996.0,,,58.0,4,,,58.0,5,,,58.0,2,,,3,6859,0.0689655172413793,0.0862068965517241,0.0344827586206896,0.1684567044994766,5353.3708680789,66,66,66,59
KEN,KE,2534.0,24797.0,54216.0,banja,53491.0,34.822701,0.031580999,3,,,1994.0,,,79.0,1,,,79.0,34,,,79.0,2,,,3,7270,0.0126582278481012,0.430379746835443,0.0253164556962025,0.4262531644804248,2926.5628845427964,67,67,67,60
KEN,KE,2533.0,24789.0,54244.0,bar chando,52748.0,34.3476909,-0.0655127,1,,,2005.0,,,43.0,35,,,43.0,20,,,43.0,11,,,2,7289,0.813953488372093,0.4651162790697674,0.2558139534883721,0.8735317241557702,0.0,68,68,70,61
KEN,KE,2533.0,24789.0,54244.0,bar kowino,52749.0,34.272721,-0.1022730999999999,1,,,2005.0,,,137.0,26,,,137.0,32,,,137.0,12,,,2,7291,0.1897810218978102,0.2335766423357664,0.0875912408759124,0.4088875932719629,0.0,69,69,72,62
KEN,KE,2533.0,24789.0,54244.0,bar chando,,34.3476909,-0.0655127,1,,,2005.0,5.0,20.0,96.0,53,,,96.0,35,,,96.0,12,,,2,30366,0.5520833333333334,0.3645833333333333,0.125,0.708455659558438,0.0,70,70,68,61
KEN,KE,2533.0,24789.0,54244.0,bar kanyango,,34.106499,-3.7000000000000005e-05,3,,,1994.0,9.0,18.0,35.0,26,,,35.0,1,,,35.0,10,,,3,31592,0.7428571428571429,0.0285714285714285,0.2857142857142857,0.7750701358710601,1980.6980909958752,71,71,71,63
KEN,KE,2533.0,24789.0,54244.0,bar konwino,,34.272721,-0.1022730999999999,1,,,2002.0,2.0,20.0,165.0,46,,,165.0,17,,,165.0,18,,,2,30355,0.2787878787878788,0.103030303030303,0.109090909090909,0.3996849833119909,0.0,72,72,69,62
KEN,KE,2533.0,24789.0,54243.0,bar sauri,53767.0,34.5237591,0.1144948,1,,,2006.0,,,203.0,31,,,203.0,75,,,203.0,37,,,1,7463,0.1527093596059113,0.3694581280788177,0.1822660098522167,0.5312488633163209,2498.8321840188237,73,73,73,64
KEN,KE,2534.0,24799.0,24799.0,baragoi,12579.0,36.83044,1.23614,3,,,2013.0,,,57.0,0,,,57.0,0,,,57.0,0,,,1,19547,0.0,0.0,0.0,0.0,18040.786562760484,74,74,74,65
KEN,KE,2534.0,24797.0,24797.0,barekeiywet,12532.0,35.11871,0.45049,3,,,2013.0,,,58.0,1,,,58.0,0,,,58.0,0,,,1,19526,0.0172413793103448,0.0,0.0,0.0162654521795705,7657.794153807624,75,75,75,66
KEN,KE,2534.0,24796.0,24796.0,baringo valley,12511.0,35.60899,-0.30757,3,,,2015.0,,,60.0,0,,,60.0,0,,,60.0,0,,,1,19502,0.0,0.0,0.0,0.0,6581.957938565335,76,76,76,67
KEN,KE,2533.0,24789.0,54244.0,barkawaga,52750.0,34.2842303,-0.0876747,1,,,1998.0,,,85.0,69,,,85.0,39,,,85.0,35,,,3,7307,0.8117647058823529,0.4588235294117647,0.4117647058823529,0.8868654205822828,2069.3986616778056,77,77,77,68
KEN,KE,2533.0,24789.0,54244.0,barkowimo,,34.2621,-0.1236,3,,,2005.0,5.0,20.0,76.0,37,,,76.0,11,,,76.0,7,,,2,30365,0.4868421052631579,0.1447368421052631,0.0921052631578947,0.567489227072542,2256.5995235006203,78,78,78,69
KEN,KE,2533.0,24789.0,54244.0,barmuofu,52752.0,34.293999,-0.107,3,,,1998.0,,,60.0,46,,,60.0,22,,,60.0,20,,,3,7290,0.7666666666666667,0.3666666666666666,0.3333333333333333,0.8504542278127185,1761.5843742615066,79,79,79,70
KEN,KE,2534.0,24790.0,24790.0,bartolimo,12310.0,35.82037,0.6817200000000001,3,,,2013.0,,,60.0,0,,,60.0,0,,,60.0,0,,,1,19452,0.0,0.0,0.0,0.0,3499.438827136625,80,80,80,71
KEN,KE,2534.0,24794.0,1946.0,bathi,,36.632,-0.97374,4,,,2009.0,5.0,15.0,109.0,8,,,109.0,1,,,0.0,0,,,1,28923,0.073394495412844,0.0091743119266055,,,5611.801187553232,81,81,81,72
KEN,KE,2533.0,24785.0,54098.0,bendera,52897.0,34.741711,-0.94607002,3,,,2012.0,,,108.0,12,,,108.0,77,,,108.0,1,,,1,6992,0.1111111111111111,0.7129629629629629,0.0092592592592592,0.7049230300259106,1915.261161080774,82,82,82,73
KEN,KE,2528.0,24761.0,54081.0,benson njau,12389.0,36.8312,-1.14066,3,,,2013.0,,,52.0,0,,,52.0,0,,,52.0,0,,,1,6189,0.0,0.0,0.0,0.0,1792.0616764174456,83,83,83,74
KEN,KE,2531.0,24780.0,,bidii,12491.0,36.8821,-1.2851,3,,,2013.0,,,51.0,0,,,51.0,0,,,51.0,0,,,1,19398,0.0,0.0,0.0,0.0,1137.8989361973056,84,84,84,75
KEN,KE,2529.0,24767.0,1953.0,bila shaka,,39.5028,-4.20122,3,,,1992.0,5.0,16.0,63.0,44,,,63.0,2,,,63.0,17,,,3,29106,0.6984126984126984,0.0317460317460317,0.2698412698412698,0.7422491364076383,1907.8977913051099,85,85,85,76
KEN,KE,2528.0,24765.0,24765.0,birithia,12550.0,36.93932,-0.52463,3,,,2013.0,,,60.0,0,,,60.0,0,,,60.0,0,,,1,19329,0.0,0.0,0.0,0.0,4070.6730480704273,86,86,86,77
KEN,KE,2532.0,24783.0,54285.0,biyamadhow,53997.0,40.411201,0.61791998,3,,,2008.0,,,52.0,0,,,52.0,0,,,52.0,0,,,1,7563,0.0,0.0,0.0,0.0,44383.48800567662,87,87,87,78
KEN,KE,2528.0,24762.0,1948.0,blue gate academy,,37.366901,-0.607592,3,,,2004.0,5.0,16.0,14.0,1,,,14.0,0,,,14.0,1,,,2,29283,0.0714285714285714,0.0,0.0714285714285714,0.1299576434347323,650.5408962781719,88,88,88,79
KEN,KE,2529.0,24767.0,54123.0,bodo,53434.0,39.409599,-4.5460901,3,,,1997.0,,,102.0,47,,,102.0,19,,,102.0,60,,,3,7177,0.4607843137254901,0.1862745098039215,0.5882352941176471,0.7729514516955615,4786.760088399585,89,89,89,80
KEN,KE,2529.0,24771.0,1987.0,bohoni,,40.014599,-1.39495,3,,,2009.0,5.0,15.0,0.0,0,,,100.0,3,,,100.0,1,,,1,28949,,0.03,0.01,,3421.5341612147395,90,90,90,81
KEN,KE,2533.0,24787.0,24787.0,bohorera,12429.0,34.534256,-1.132912,3,,,2015.0,,,63.0,1,,,63.0,1,,,63.0,0,,,1,19435,0.0158730158730158,0.0158730158730158,0.0,0.0297113953897421,2635.0114532715643,91,91,91,82
KEN,KE,2533.0,24789.0,54246.0,boi,53650.0,34.425098,-0.14753801,3,,,2006.0,,,87.0,6,,,87.0,9,,,87.0,24,,,1,7393,0.0689655172413793,0.1034482758620689,0.2758620689655172,0.3731577102885077,1603.705760681321,92,92,92,83
KEN,KE,2534.0,24802.0,24802.0,boinet,12616.0,35.11782,0.5643900000000001,3,,,2013.0,,,59.0,0,,,59.0,0,,,59.0,0,,,1,19570,0.0,0.0,0.0,0.0,4227.041941573185,93,93,93,84
KEN,KE,2534.0,24800.0,24800.0,bokoli,12599.0,35.198,1.01378,3,,,2013.0,,,60.0,0,,,60.0,4,,,60.0,0,,,1,19553,0.0,0.0666666666666666,0.0,0.0628930817610062,5194.240094382777,94,94,94,85
KEN,KE,2529.0,24766.0,54091.0,bomani,53362.0,39.75,-3.866667,1,,,2008.0,,,108.0,0,,,108.0,2,,,108.0,18,,,1,6904,0.0,0.0185185185185185,0.1666666666666666,0.1717912881434893,4157.105237316497,95,95,95,86
KEN,KE,2529.0,24766.0,54092.0,bomani,,40.111401,-3.0758,3,,,2008.0,5.0,16.0,108.0,0,,,108.0,2,,,108.0,18,,,1,28935,0.0,0.0185185185185185,0.1666666666666666,0.1717912881434893,5360.034935761404,96,96,96,87
KEN,KE,2529.0,24771.0,1987.0,bondeni,,40.080002,-1.61111,3,,,2009.0,5.0,15.0,110.0,1,,,110.0,4,,,110.0,4,,,1,28868,0.009090909090909,0.0363636363636363,0.0363636363636363,0.0753271054534113,2217.935416071177,97,97,97,88
KEN,KE,2534.0,24790.0,24790.0,borowonin,12311.0,35.77993,0.44205,3,,,2013.0,,,61.0,0,,,61.0,0,,,61.0,0,,,1,19461,0.0,0.0,0.0,0.0,1254.7797954823193,98,98,98,89
KEN,KE,2529.0,24767.0,1953.0,bowa,,39.5965,-4.19924,3,,,1992.0,5.0,16.0,37.0,17,,,37.0,4,,,37.0,15,,,3,29118,0.4594594594594595,0.1081081081081081,0.4054054054054054,0.6729657838441276,0.0,99,99,100,90
KEN,KE,2529.0,24767.0,1953.0,bowa,,39.5965,-4.19924,3,,,2008.0,5.0,16.0,104.0,0,,,104.0,12,,,104.0,7,,,1,28956,0.0,0.1153846153846153,0.0673076923076923,0.1650245617952439,0.0,100,100,99,90
KEN,KE,2529.0,24767.0,54124.0,boyani,53275.0,39.48431,-4.2941399,3,,,2012.0,,,108.0,19,,,108.0,0,,,108.0,3,,,1,7124,0.1759259259259259,0.0,0.0277777777777777,0.1875630871962108,2391.614199177833,101,101,101,91
KEN,KE,2532.0,24781.0,54036.0,boystown,52885.0,39.654999,-0.44163701,3,,,2008.0,,,52.0,0,,,52.0,0,,,52.0,1,,,1,6602,0.0,0.0,0.0192307692307692,0.0181422351233671,2143.902242668091,102,102,102,92
KEN,KE,2535.0,24805.0,1934.0,bubango,,33.990299,0.10633,3,,,1999.0,5.0,17.0,74.0,40,,,74.0,40,,,74.0,51,,,3,29146,0.5405405405405406,0.5405405405405406,0.6891891891891891,0.8814970820704243,58.82493056581116,103,103,103,93
KEN,KE,2530.0,24777.0,24777.0,bubisa,12414.0,38.09557,2.69977,3,,,2013.0,,,58.0,0,,,58.0,0,,,58.0,0,,,1,19364,0.0,0.0,0.0,0.0,39992.217250338865,104,104,104,94
KEN,KE,2529.0,24771.0,1987.0,bububu,,40.0966,-1.7546,3,,,2009.0,5.0,15.0,108.0,1,,,108.0,7,,,108.0,1,,,1,28930,0.0092592592592592,0.0648148148148148,0.0092592592592592,0.0774083791778941,5602.45072835828,105,105,105,95
KEN,KE,2535.0,24805.0,24805.0,budalangi,12328.0,34.026,0.136227,3,,,2015.0,,,59.0,0,,,59.0,0,,,59.0,0,,,1,19590,0.0,0.0,0.0,0.0,3558.234732475764,106,106,106,96
KEN,KE,2535.0,24805.0,1934.0,buduta,,34.089199,0.20683,3,,,1999.0,5.0,17.0,75.0,68,,,75.0,46,,,75.0,62,,,3,29135,0.9066666666666666,0.6133333333333333,0.8266666666666667,0.9374948986722572,1553.7177156212438,107,107,107,97
KEN,KE,2535.0,24805.0,1934.0,bujwanga,,34.021198,0.22233,3,,,1999.0,5.0,17.0,61.0,30,,,61.0,14,,,61.0,22,,,3,29147,0.4918032786885246,0.2295081967213114,0.360655737704918,0.7072240191660957,2481.0769333355342,108,108,108,98
KEN,KE,2535.0,24805.0,1934.0,bukhwamba,,34.088299,0.319,3,,,1998.0,5.0,17.0,85.0,70,,,85.0,26,,,85.0,31,,,3,29018,0.8235294117647058,0.3058823529411765,0.3647058823529411,0.8699829869925378,1748.4039492806085,109,109,109,99
KEN,KE,2535.0,24805.0,1934.0,bukoma,,33.959499,0.0865,3,,,1999.0,5.0,17.0,73.0,45,,,73.0,53,,,73.0,70,,,3,29132,0.6164383561643836,0.726027397260274,0.958904109589041,0.9393220968516632,1742.4584709097749,110,110,110,100
KEN,KE,2535.0,24805.0,1934.0,buloma,,34.074001,0.3125,3,,,1998.0,5.0,17.0,68.0,35,,,68.0,31,,,68.0,14,,,3,29014,0.5147058823529411,0.4558823529411764,0.2058823529411764,0.7455732096977981,1725.1964859344355,111,111,111,101
KEN,KE,2535.0,24805.0,1934.0,bumbe,,34.012199,0.18217,3,,,1998.0,5.0,17.0,75.0,52,,,75.0,14,,,75.0,22,,,3,29057,0.6933333333333334,0.1866666666666666,0.2933333333333333,0.7771147449336128,0.0,112,112,113,102
KEN,KE,2535.0,24805.0,24805.0,bumbe,12329.0,34.012199,0.18217,3,,,2015.0,,,59.0,2,,,59.0,1,,,59.0,1,,,1,19591,0.0338983050847457,0.0169491525423728,0.0169491525423728,0.0626131881169162,0.0,113,113,112,102
KEN,KE,2529.0,24767.0,1953.0,bumburi,,39.302601,-3.95085,3,,,2008.0,5.0,16.0,106.0,0,,,106.0,0,,,106.0,20,,,1,28975,0.0,0.0,0.1886792452830188,0.1779992880028479,10871.178110023677,114,114,114,103
KEN,KE,2535.0,24805.0,1934.0,bumulimba,,34.035,0.23983,3,,,1998.0,5.0,17.0,59.0,44,,,59.0,14,,,59.0,18,,,3,29023,0.7457627118644068,0.2372881355932203,0.3050847457627119,0.8162727592347219,2310.307473852867,115,115,115,104
KEN,KE,2535.0,24804.0,54020.0,bunangeni,52813.0,34.687649,0.72382998,3,,,2012.0,,,108.0,57,,,108.0,47,,,108.0,1,,,1,6519,0.5277777777777778,0.4351851851851852,0.0092592592592592,0.6941051934961593,3044.425673066866,116,116,116,105
KEN,KE,2533.0,24786.0,54112.0,bungu,53196.0,34.85854,-0.13837001,3,,,2012.0,,,108.0,16,,,108.0,3,,,108.0,1,,,1,7034,0.1481481481481481,0.0277777777777777,0.0092592592592592,0.1693199236195586,4.341460140887648,117,117,117,106
KEN,KE,2533.0,24786.0,54112.0,bungu koraga,53197.0,34.858501,-0.13837001,3,,,2007.0,,,86.0,1,,,86.0,2,,,86.0,2,,,1,7036,0.0116279069767441,0.0232558139534883,0.0232558139534883,0.0538341112008412,4.341460140887648,118,118,118,107
KEN,KE,2529.0,24770.0,54251.0,bungule,53906.0,38.66515,-3.8460801,3,,,2012.0,,,108.0,1,,,108.0,0,,,108.0,2,,,1,7471,0.0092592592592592,0.0,0.0185185185185185,0.0260436886921862,5274.506159634322,119,119,119,108
KEN,KE,2535.0,24805.0,1934.0,buradi,,34.089802,0.33533,3,,,1998.0,5.0,17.0,72.0,41,,,72.0,17,,,72.0,10,,,3,29017,0.5694444444444444,0.2361111111111111,0.1388888888888889,0.6762108293216346,1289.197598463615,120,120,120,109
KEN,KE,2529.0,24767.0,1953.0,burani,,39.348499,-4.2446,3,,,2007.0,7.0,16.0,51.0,16,,,51.0,0,,,51.0,2,,,1,29449,0.3137254901960784,0.0,0.0392156862745098,0.3213568076139075,4176.058974102252,121,121,121,110
KEN,KE,2535.0,24805.0,54022.0,busabakhwa,52854.0,34.171848,0.3924,3,,,2012.0,,,108.0,30,,,108.0,9,,,108.0,1,,,1,6557,0.2777777777777778,0.0833333333333333,0.0092592592592592,0.3246159769133214,3860.8502368859827,122,122,122,111
KEN,KE,2535.0,24805.0,1934.0,busagwa,,34.050201,0.10633,3,,,1998.0,5.0,17.0,83.0,51,,,83.0,52,,,83.0,65,,,3,29071,0.6144578313253012,0.6265060240963856,0.7831325301204819,0.9139354603975596,1920.57001095099,123,123,123,112
KEN,KE,2535.0,24805.0,1934.0,busembe,,34.008301,0.1905,3,,,1999.0,5.0,17.0,74.0,63,,,74.0,20,,,74.0,41,,,3,29999,0.8513513513513513,0.2702702702702703,0.5540540540540541,0.8977610892312438,1023.8006908980442,124,124,124,113
KEN,KE,2535.0,24806.0,54067.0,bushili,52963.0,34.728691,0.36774999,3,,,2012.0,,,108.0,42,,,108.0,40,,,108.0,1,,,1,6820,0.3888888888888889,0.3703703703703703,0.0092592592592592,0.5837632608926963,4059.750424387015,125,125,125,114
KEN,KE,2535.0,24805.0,24805.0,busia airstrip,12330.0,34.12617,0.45917,3,,,2015.0,,,56.0,5,,,56.0,4,,,56.0,3,,,1,19600,0.0892857142857142,0.0714285714285714,0.0535714285714285,0.1883397395346278,2571.5688240700606,126,126,126,115
KEN,KE,2535.0,24805.0,1934.0,busijo,,34.012199,0.1995,3,,,1999.0,5.0,17.0,55.0,44,,,55.0,12,,,55.0,15,,,3,29169,0.8,0.2181818181818181,0.2727272727272727,0.8361141431467333,1091.812930703935,127,127,127,116
KEN,KE,2535.0,24805.0,54022.0,busire,52855.0,34.198387,0.3126819999999999,3,,,2012.0,,,108.0,34,,,108.0,39,,,108.0,24,,,1,6551,0.3148148148148148,0.3611111111111111,0.2222222222222222,0.6221907325447973,2275.781750937983,128,128,128,117
KEN,KE,2535.0,24805.0,1934.0,busulere,,34.1292,0.3235,3,,,1999.0,5.0,17.0,74.0,56,,,74.0,19,,,74.0,7,,,3,29133,0.7567567567567568,0.2567567567567567,0.0945945945945946,0.7889742975606503,705.3460996595186,129,129,129,118
KEN,KE,2535.0,24805.0,54022.0,butula boys,52856.0,34.3362854,0.340947,1,,,2012.0,,,108.0,25,,,108.0,16,,,108.0,7,,,1,6563,0.2314814814814814,0.1481481481481481,0.0648148148148148,0.3658188658156305,4715.171308248354,130,130,130,119
KEN,KE,2533.0,24786.0,54112.0,bwanda,,34.842098,-0.19339,3,,,2008.0,5.0,16.0,25.0,4,,,25.0,1,,,25.0,1,,,1,28895,0.16,0.04,0.04,0.2130716981132075,2462.953909901305,131,131,131,120
KEN,KE,2535.0,24805.0,96.0,bwangangi,,34.0853,0.346,4,,,1999.0,5.0,17.0,75.0,66,,,75.0,53,,,75.0,42,,,3,29134,0.88,0.7066666666666667,0.56,0.928784905660377,1289.197598463615,132,132,132,121
KEN,KE,2531.0,24780.0,,canon apolo,12492.0,36.88002,-1.31654,3,,,2013.0,,,55.0,0,,,55.0,0,,,55.0,0,,,1,19392,0.0,0.0,0.0,0.0,2779.607580108785,133,133,133,122
KEN,KE,2528.0,24765.0,24765.0,cc kihora,12551.0,36.94994,-0.48964,3,,,2013.0,,,60.0,0,,,60.0,3,,,60.0,3,,,1,19345,0.0,0.05,0.05,0.0919811320754716,4070.6730480704273,134,134,134,123
KEN,KE,2534.0,24796.0,24796.0,cedar,12512.0,36.25732,-0.6116600000000001,3,,,2015.0,,,55.0,1,,,55.0,1,,,55.0,0,,,1,19519,0.0181818181818181,0.0181818181818181,0.0,0.0339934508030562,25416.912922164873,135,135,135,124
KEN,KE,2533.0,24786.0,54110.0,central gem,53501.0,34.4752715,0.0692648999999999,1,,,1994.0,,,274.0,84,,,274.0,90,,,274.0,31,,,3,7091,0.3065693430656934,0.3284671532846715,0.1131386861313868,0.5537951538309516,4498.0192584165225,136,136,136,125
KEN,KE,2534.0,24798.0,24798.0,ch pr,103793.0,36.6406998,-1.1350715,4,,,2015.0,8.0,0.0,58.0,0,,,58.0,16,,,58.0,10,,,1,807,0.0,0.2758620689655172,0.1724137931034483,0.378031543759675,1896.326281704043,137,137,137,126
KEN,KE,2529.0,24767.0,1953.0,chai,,39.570301,-4.22096,3,,,1992.0,5.0,16.0,52.0,26,,,52.0,13,,,52.0,41,,,3,29107,0.5,0.25,0.7884615384615384,0.8685595065312045,1636.4307395500991,138,138,138,127
KEN,KE,2533.0,24787.0,24787.0,chamachichi,12430.0,34.22376,-1.06197,3,,,2013.0,,,64.0,4,,,64.0,0,,,64.0,0,,,1,19437,0.0625,0.0,0.0,0.0589622641509433,4134.023797005308,139,139,139,128
KEN,KE,2529.0,24771.0,1987.0,chamwanamuma,,40.295601,-2.51107,3,,,2009.0,5.0,15.0,109.0,65,,,109.0,76,,,109.0,45,,,1,28870,0.5963302752293578,0.6972477064220184,0.4128440366972477,0.8757005033630995,1303.6425672525736,140,140,140,129
KEN,KE,2529.0,24771.0,1987.0,chanani,,40.0522,-1.55798,3,,,2009.0,5.0,15.0,0.0,0,,,106.0,16,,,106.0,6,,,1,28881,,0.1509433962264151,0.0566037735849056,,1388.710911342373,141,141,141,130
KEN,KE,2534.0,24799.0,24799.0,charda,12580.0,36.72235,1.03997,3,,,2013.0,,,69.0,0,,,69.0,0,,,69.0,0,,,1,19546,0.0,0.0,0.0,0.0,6973.771943496293,142,142,142,131
KEN,KE,2534.0,24790.0,24790.0,chebarsiat,12312.0,35.9255,0.57601,3,,,2013.0,,,60.0,0,,,60.0,0,,,60.0,0,,,1,19463,0.0,0.0,0.0,0.0,7384.787428475788,143,143,143,132
KEN,KE,2534.0,24797.0,24797.0,chebarus border,12533.0,35.25027,0.28427,3,,,2013.0,,,61.0,1,,,61.0,2,,,61.0,0,,,1,19528,0.0163934426229508,0.0327868852459016,0.0,0.0458894697611212,150.97703298064877,144,144,144,133
KEN,KE,2534.0,24800.0,24800.0,chebarus primary,12600.0,35.100074,1.054135,3,,,2013.0,,,60.0,3,,,60.0,4,,,60.0,0,,,1,19560,0.05,0.0666666666666666,0.0,0.1069182389937106,6639.029033425495,145,145,145,134
KEN,KE,2535.0,24806.0,54067.0,chebuyusi,52964.0,34.664051,0.42017001,3,,,2012.0,,,108.0,19,,,108.0,6,,,108.0,0,,,1,6819,0.1759259259259259,0.0555555555555555,0.0,0.2091583197453218,5079.743889859757,146,146,146,135
KEN,KE,2534.0,24793.0,24793.0,chemasis,12370.0,36.12329,0.00775,3,,,2013.0,,,58.0,0,,,58.0,0,,,58.0,0,,,1,19494,0.0,0.0,0.0,0.0,3852.7700667698664,147,147,147,136
KEN,KE,2534.0,24797.0,54216.0,chemobo,53492.0,34.8470731,0.0440592999999999,1,,,1994.0,,,50.0,1,,,50.0,10,,,50.0,1,,,3,7272,0.02,0.2,0.02,0.218566037735849,2777.376603233074,148,148,148,137
KEN,KE,2534.0,24803.0,24803.0,chemolingot,12623.0,35.9715,0.98035,3,,,2013.0,,,63.0,0,,,63.0,0,,,63.0,0,,,1,19575,0.0,0.0,0.0,0.0,7123.401813154211,149,149,149,138
KEN,KE,2534.0,24803.0,24803.0,chemutlokotyo,12624.0,35.51022,1.38379,3,,,2013.0,,,60.0,1,,,60.0,0,,,60.0,0,,,1,19586,0.0166666666666666,0.0,0.0,0.0157232704402515,4400.848000403517,150,150,150,139
KEN,KE,2534.0,24803.0,24803.0,chepkechir,12625.0,35.12577,1.36706,3,,,2013.0,,,40.0,0,,,40.0,0,,,40.0,0,,,1,19587,0.0,0.0,0.0,0.0,7329.097008958311,151,151,151,140
KEN,KE,2534.0,24802.0,24802.0,chepkongi,12617.0,35.30217,0.6397900000000001,3,,,2013.0,,,46.0,0,,,46.0,0,,,46.0,0,,,1,19572,0.0,0.0,0.0,0.0,11111.60894562443,152,152,152,141
KEN,KE,2534.0,24803.0,24803.0,chepkuikui,12626.0,35.59991,1.43115,3,,,2013.0,,,29.0,0,,,29.0,0,,,29.0,0,,,1,19582,0.0,0.0,0.0,0.0,11291.45146001551,153,153,153,142
KEN,KE,2534.0,24797.0,24797.0,cheptiret,12534.0,35.1327,0.23535,3,,,2013.0,,,53.0,0,,,53.0,0,,,53.0,0,,,1,19529,0.0,0.0,0.0,0.0,3405.884358025653,154,154,154,143
KEN,KE,2534.0,24798.0,24798.0,cheseoen baptist,12539.0,35.07817,-0.95654,3,,,2015.0,,,59.0,0,,,59.0,3,,,59.0,5,,,1,19538,0.0,0.0508474576271186,0.0847457627118644,0.1238529375098242,4005.9621823462585,155,155,155,144
KEN,KE,2534.0,24796.0,24796.0,chesingele,12513.0,35.68573,-0.32826,3,,,2015.0,,,59.0,0,,,59.0,3,,,59.0,0,,,1,19515,0.0,0.0508474576271186,0.0,0.0479692996482251,8847.70568114764,156,156,156,145
KEN,KE,2534.0,24800.0,24800.0,chetoto,12601.0,35.28611,0.53064,3,,,2013.0,,,60.0,0,,,60.0,4,,,60.0,0,,,1,19561,0.0,0.0666666666666666,0.0,0.0628930817610062,4691.165154693351,157,157,157,146
KEN,KE,2529.0,24771.0,1987.0,chewani,,40.019402,-1.43485,3,,,2009.0,5.0,15.0,0.0,0,,,91.0,9,,,91.0,3,,,1,28914,,0.0989010989010989,0.0329670329670329,,4475.057539002853,158,158,158,147
KEN,KE,2529.0,24771.0,1987.0,chewele,,39.951801,-1.15817,3,,,2009.0,5.0,15.0,115.0,0,,,115.0,1,,,0.0,0,,,1,28990,0.0,0.008695652173913,,,7028.909200011419,159,159,159,148
KEN,KE,2533.0,24789.0,54246.0,chianda,53651.0,34.3409,-0.242108,3,,,2006.0,,,78.0,7,,,78.0,4,,,78.0,20,,,1,7364,0.0897435897435897,0.0512820512820512,0.2564102564102564,0.3375974543776263,1386.5548371823647,160,160,160,149
KEN,KE,2529.0,24766.0,1947.0,chiferi,,39.618599,-3.9161,3,,,2008.0,5.0,16.0,107.0,12,,,107.0,32,,,107.0,37,,,1,29031,0.1121495327102803,0.2990654205607476,0.3457943925233644,0.5593126734912147,6952.443884471014,161,161,161,150
KEN,KE,2533.0,24784.0,54046.0,chiga,52932.0,34.491199,-0.54782701,3,,,1997.0,,,193.0,103,,,193.0,50,,,193.0,27,,,3,6624,0.533678756476684,0.2590673575129533,0.1398963730569948,0.6630408799436813,948.491960198275,162,162,162,151
KEN,KE,2529.0,24766.0,54087.0,chipande,53011.0,39.959,-3.3882899,3,,,1996.0,,,36.0,1,,,36.0,5,,,0.0,0,,,3,6870,0.0277777777777777,0.1388888888888889,,,892.2266971264548,163,163,163,152
KEN,KE,2529.0,24767.0,1953.0,chirimani,,39.491299,-4.2417,3,,,1992.0,5.0,16.0,93.0,56,,,93.0,2,,,93.0,8,,,3,29097,0.6021505376344086,0.021505376344086,0.086021505376344,0.6077302435009555,4161.541426187958,164,164,164,153
KEN,KE,2533.0,24785.0,54105.0,chitago deb,53389.0,34.930714,-0.80059397,3,,,2012.0,,,108.0,0,,,108.0,1,,,108.0,29,,,1,7032,0.0,0.0092592592592592,0.2685185185185185,0.2597089577348138,1495.6113062442782,165,165,165,154
KEN,KE,2529.0,24767.0,54124.0,chitsanze,53280.0,39.459393,-4.1394172,3,,,2012.0,,,104.0,3,,,104.0,0,,,104.0,2,,,1,7142,0.0288461538461538,0.0,0.0192307692307692,0.0448322541029362,1872.2314609051032,166,166,166,155
KEN,KE,2529.0,24767.0,1953.0,chizini,,39.4967,-4.03787,3,,,2008.0,5.0,16.0,108.0,0,,,108.0,3,,,108.0,55,,,1,28947,0.0,0.0277777777777777,0.5092592592592593,0.4932933457566582,3421.9685472128417,167,167,167,156
KEN,KE,2529.0,24770.0,54251.0,choke,53907.0,38.394852,-3.35987,3,,,2012.0,,,108.0,0,,,108.0,3,,,108.0,1,,,1,7472,0.0,0.0277777777777777,0.0092592592592592,0.0346979579159872,1188.1865115786095,168,168,168,157
KEN,KE,2529.0,24767.0,1953.0,chongolo,,39.577099,-4.24483,3,,,1992.0,5.0,16.0,18.0,11,,,18.0,6,,,18.0,14,,,3,29095,0.6111111111111112,0.3333333333333333,0.7777777777777778,0.8890441804487927,736.6779978880049,169,169,169,158
KEN,KE,2534.0,24803.0,1997.0,chorwai,,35.316101,1.13983,3,,,2009.0,5.0,15.0,107.0,0,,,107.0,0,,,107.0,0,,,1,28962,0.0,0.0,0.0,0.0,7926.754526051401,170,170,170,159
KEN,KE,2528.0,24763.0,24763.0,chui,12464.0,37.01113,-0.66,3,,,2013.0,,,57.0,0,,,57.0,5,,,57.0,0,,,1,19310,0.0,0.087719298245614,0.0,0.0827540549486924,2944.3281774651896,171,171,171,160
KEN,KE,2529.0,24766.0,1947.0,chumani,,39.9137,-3.47898,3,,,1985.0,1.0,99.0,78.0,54,,,78.0,23,,,78.0,6,,,3,29076,0.6923076923076923,0.2948717948717949,0.0769230769230769,0.7544593399232228,0.0,172,172,173,161
KEN,KE,2529.0,24766.0,1947.0,chumani,,39.9137,-3.47898,3,,,2008.0,5.0,16.0,83.0,14,,,83.0,23,,,83.0,30,,,1,29082,0.1686746987951807,0.2771084337349397,0.3614457831325301,0.5813733052923685,0.0,173,173,172,161
KEN,KE,2528.0,24762.0,1948.0,ciagini junior academy,,37.3876,-0.745691,3,,,2004.0,5.0,16.0,85.0,1,,,85.0,0,,,85.0,0,,,2,30453,0.0117647058823529,0.0,0.0,0.0110987791342952,844.0609819673532,174,174,174,162
KEN,KE,2528.0,24762.0,54094.0,ciagini primary,53095.0,37.3945744,-0.7519007,1,,,2004.0,,,24.0,0,,,24.0,0,,,24.0,0,,,2,6936,0.0,0.0,0.0,0.0,247.2597790503933,175,175,175,163
KEN,KE,2528.0,24762.0,1948.0,ciagini primary,,37.394001,-0.749755,3,,,2004.0,5.0,16.0,24.0,0,,,24.0,0,,,24.0,0,,,2,30442,0.0,0.0,0.0,0.0,247.2597790503933,176,176,176,164
KEN,KE,2528.0,24765.0,24765.0,cieni,12552.0,37.03885,-0.38491,3,,,2013.0,,,58.0,0,,,58.0,0,,,58.0,0,,,1,19332,0.0,0.0,0.0,0.0,5988.716862055273,177,177,177,165
KEN,KE,2529.0,24766.0,54092.0,coast,,39.5,-3.0,3,,,2012.0,3.0,21.0,4944.0,898,,,4944.0,51,,,4944.0,390,,,1,29867,0.1816343042071197,0.0103155339805825,0.078883495145631,0.2395903818958556,0.0,178,178,179,166
KEN,KE,2529.0,24766.0,54092.0,coast county,,39.5,-3.0,3,,,2012.0,5.0,21.0,1305.0,240,,,1305.0,14,,,1305.0,90,,,1,29858,0.1839080459770115,0.010727969348659,0.0689655172413793,0.2342844013346567,0.0,179,179,178,166
KEN,KE,2533.0,24789.0,54246.0,dagamoyo,53652.0,34.339401,-0.229743,3,,,2006.0,,,65.0,5,,,65.0,10,,,65.0,22,,,1,7428,0.0769230769230769,0.1538461538461538,0.3384615384615385,0.455939059266066,1386.5548371823647,180,180,180,167
KEN,KE,2528.0,24761.0,54081.0,dagoretti girls,12390.0,36.68802,-1.26733,3,,,2013.0,,,60.0,1,,,60.0,1,,,60.0,4,,,1,6170,0.0166666666666666,0.0166666666666666,0.0666666666666666,0.0919986023759608,2784.125856927538,181,181,181,168
KEN,KE,2529.0,24771.0,1987.0,daku,,39.992199,-1.29608,3,,,2009.0,5.0,15.0,108.0,0,,,108.0,3,,,0.0,0,,,1,28954,0.0,0.0277777777777777,,,4420.44834797333,182,182,182,169
KEN,KE,2529.0,24771.0,1987.0,dalu,,40.1474,-2.37358,3,,,2009.0,5.0,15.0,0.0,0,,,92.0,8,,,92.0,28,,,1,28863,,0.0869565217391304,0.3043478260869565,,3877.5325457979047,183,183,183,170
KEN,KE,2529.0,24767.0,1953.0,denyenye,,39.617001,-4.1432,3,,,1992.0,5.0,16.0,60.0,35,,,60.0,28,,,60.0,52,,,3,29088,0.5833333333333334,0.4666666666666667,0.8666666666666667,0.9154437456324248,1790.9449682248505,184,184,184,171
KEN,KE,2529.0,24771.0,1987.0,didaade,,40.123901,-2.34789,3,,,2009.0,5.0,15.0,101.0,6,,,101.0,20,,,101.0,3,,,1,28885,0.0594059405940594,0.198019801980198,0.0297029702970297,0.2528945882512114,3877.5325457979047,185,185,185,172
KEN,KE,2528.0,24762.0,1948.0,difathas primary,,37.405602,-0.554788,3,,,2004.0,5.0,16.0,55.0,8,,,55.0,4,,,55.0,1,,,2,29226,0.1454545454545454,0.0727272727272727,0.0181818181818181,0.2094438852898232,1836.3480082447763,186,186,186,173
KEN,KE,2532.0,24783.0,54285.0,dilmanyale,53998.0,39.571768,0.8437456999999999,1,,,2008.0,,,50.0,0,,,50.0,0,,,50.0,0,,,1,7561,0.0,0.0,0.0,0.0,28509.936708823294,187,187,187,174
KEN,KE,2529.0,24766.0,1947.0,dindiri,,39.70309,-3.740789,3,,,1985.0,1.0,99.0,69.0,43,,,69.0,26,,,69.0,0,,,3,29006,0.6231884057971014,0.3768115942028985,0.0,0.7218635691724823,0.0,188,188,189,175
KEN,KE,2529.0,24766.0,1947.0,dindiri,,39.70309,-3.740789,3,,,2008.0,5.0,16.0,172.0,26,,,172.0,34,,,172.0,40,,,1,28827,0.1511627906976744,0.1976744186046511,0.2325581395348837,0.4503193144735563,0.0,189,189,188,175
KEN,KE,2529.0,24766.0,54087.0,dindiri,53015.0,39.8,-3.733333,1,,,2008.0,,,86.0,13,,,86.0,17,,,86.0,20,,,1,6861,0.1511627906976744,0.1976744186046511,0.2325581395348837,0.4503193144735563,4322.098032489411,190,190,190,176
KEN,KE,2529.0,24766.0,1947.0,dungicha,,39.616001,-3.483,3,,,1985.0,1.0,99.0,57.0,34,,,57.0,10,,,57.0,2,,,3,29012,0.5964912280701754,0.175438596491228,0.0350877192982456,0.6405250453147858,0.0,191,191,192,177
KEN,KE,2529.0,24766.0,1947.0,dungicha,,39.616001,-3.483,3,,,2008.0,5.0,16.0,107.0,0,,,107.0,2,,,107.0,5,,,1,29015,0.0,0.0186915887850467,0.0467289719626168,0.0608935113390474,0.0,192,192,191,177
KEN,KE,2529.0,24766.0,54087.0,dungicha,53017.0,39.616667,-3.483333,1,,,1996.0,,,40.0,20,,,40.0,8,,,0.0,0,,,3,6884,0.5,0.2,,,82.92038084015212,193,193,193,178
KEN,KE,2535.0,24807.0,54276.0,ebusakami,52875.0,34.6109691,0.0172738,1,,,2012.0,,,108.0,4,,,108.0,53,,,108.0,22,,,1,7552,0.037037037037037,0.4907407407407407,0.2037037037037037,0.5749981547144887,3616.250187059966,194,194,194,179
KEN,KE,2535.0,24806.0,54067.0,ebushibo,52965.0,34.703579,0.31481001,3,,,2012.0,,,106.0,28,,,106.0,29,,,106.0,0,,,1,6812,0.2641509433962264,0.2735849056603773,0.0,0.4391208850258938,5917.369962048321,195,195,195,180
KEN,KE,2535.0,24807.0,54276.0,ebusiloli,52876.0,34.664364,0.077234998,3,,,2012.0,,,108.0,34,,,108.0,40,,,108.0,3,,,1,7557,0.3148148148148148,0.3703703703703703,0.0277777777777777,0.547708299183569,5371.31512732173,196,196,196,181
KEN,KE,2535.0,24807.0,54276.0,ebwiranyi,52877.0,34.5611454,-0.0057602999999999,1,,,2012.0,,,108.0,3,,,108.0,68,,,108.0,31,,,1,7550,0.0277777777777777,0.6296296296296297,0.287037037037037,0.7012025030698841,2630.6568589384806,197,197,197,182
KEN,KE,2533.0,24785.0,54098.0,egetuki,52898.0,34.717499,-0.77342701,3,,,2007.0,,,30.0,1,,,30.0,19,,,0.0,0,,,1,6986,0.0333333333333333,0.6333333333333333,,,1572.2740004477555,198,198,198,183
KEN,KE,2533.0,24788.0,54226.0,ekerubo,53386.0,34.849998,-0.64999998,3,,,2007.0,,,55.0,4,,,55.0,30,,,0.0,0,,,1,6167,0.0727272727272727,0.5454545454545454,,,8406.431180840103,199,199,199,184
KEN,KE,2532.0,24781.0,1938.0,elan,,39.311001,0.767,3,,,1999.0,5.0,16.0,27.0,0,,,27.0,0,,,0.0,0,,,3,29472,0.0,0.0,,,30259.76149502921,200,200,200,185
KEN,KE,2534.0,24793.0,24793.0,elangata enkim,12371.0,37.67329,-2.80854,3,,,2013.0,,,50.0,0,,,50.0,0,,,50.0,0,,,1,19482,0.0,0.0,0.0,0.0,20270.07831334305,201,201,201,186
KEN,KE,2530.0,24777.0,24777.0,elgade,12415.0,37.28494,3.31639,3,,,2013.0,,,58.0,0,,,58.0,0,,,58.0,0,,,1,19352,0.0,0.0,0.0,0.0,25429.958839555347,202,202,202,187
KEN,KE,2534.0,24793.0,24793.0,emampariswai,12372.0,36.998311,-1.7364000000000002,3,,,2013.0,,,60.0,0,,,60.0,0,,,60.0,0,,,1,19483,0.0,0.0,0.0,0.0,9185.760513463767,203,203,203,188
KEN,KE,2534.0,24793.0,24793.0,emashini,12373.0,36.96989,-2.22891,3,,,2013.0,,,51.0,0,,,51.0,0,,,51.0,1,,,1,19498,0.0,0.0,0.0196078431372549,0.0184979652238253,44617.697484919234,204,204,204,189
KEN,KE,2535.0,24806.0,54067.0,ematiha,52966.0,34.764851,0.36300999,3,,,2012.0,,,107.0,26,,,107.0,42,,,107.0,0,,,1,6816,0.2429906542056074,0.3925233644859813,0.0,0.5095608580793906,4059.750424387015,205,205,205,190
KEN,KE,2534.0,24793.0,24793.0,emurkeya,12374.0,36.50892,-2.14497,3,,,2013.0,,,65.0,0,,,65.0,0,,,65.0,0,,,1,19486,0.0,0.0,0.0,0.0,30660.75319321445,206,206,206,191
KEN,KE,2535.0,24807.0,54276.0,emusire,52878.0,34.6109691,0.0903120999999999,1,,,2012.0,,,108.0,12,,,108.0,45,,,108.0,9,,,1,7553,0.1111111111111111,0.4166666666666667,0.0833333333333333,0.4949918471931051,2643.407271078498,207,207,207,192
KEN,KE,2528.0,24765.0,1981.0,endarasha,,36.794102,-0.307879,3,,,2009.0,5.0,15.0,109.0,0,,,109.0,1,,,0.0,0,,,1,28994,0.0,0.0091743119266055,,,11336.408470290124,208,208,208,193
KEN,KE,2534.0,24793.0,1943.0,enkirgirri,,36.920601,-1.76414,3,,,2009.0,5.0,15.0,105.0,0,,,105.0,0,,,105.0,0,,,1,29059,0.0,0.0,0.0,0.0,9185.760513463767,209,209,209,194
KEN,KE,2534.0,24798.0,24798.0,enolkipelia,12540.0,34.81224,-0.98891,3,,,2015.0,,,54.0,0,,,54.0,5,,,54.0,25,,,1,19532,0.0,0.0925925925925925,0.4629629629629629,0.4836685042834588,5015.204556974945,210,210,210,195
KEN,KE,2534.0,24793.0,24793.0,enooretet,12375.0,37.397,-2.05125,3,,,2013.0,,,50.0,0,,,50.0,0,,,50.0,0,,,1,19487,0.0,0.0,0.0,0.0,17804.140572104956,211,211,211,196
KEN,KE,2534.0,24796.0,54212.0,enoosaen,53252.0,34.732552,-1.01776,3,,,2012.0,,,108.0,1,,,108.0,41,,,108.0,25,,,1,7237,0.0092592592592592,0.3796296296296296,0.2314814814814814,0.4977814935117845,2990.1167024706674,212,212,212,197
KEN,KE,2534.0,24796.0,24796.0,ereri,12514.0,36.49621,-0.93451,3,,,2015.0,,,56.0,0,,,56.0,0,,,56.0,2,,,1,19508,0.0,0.0,0.0357142857142857,0.0336927223719676,10479.126400285546,213,213,213,198
KEN,KE,2534.0,24793.0,24793.0,eroret,12376.0,36.37477,-1.69534,3,,,2013.0,,,46.0,0,,,46.0,0,,,46.0,1,,,1,19492,0.0,0.0,0.0217391304347826,0.0205086136177194,44634.79613482317,214,214,214,199
KEN,KE,2529.0,24767.0,54123.0,eshu,53435.0,39.346264,-4.4111338,3,,,2012.0,,,108.0,35,,,108.0,0,,,108.0,6,,,1,7175,0.324074074074074,0.0,0.0555555555555555,0.3411561456634832,6505.089638569029,215,215,215,200
KEN,KE,2535.0,24807.0,54276.0,esirulo,52879.0,34.6165033,0.1134043,1,,,2012.0,,,106.0,39,,,106.0,34,,,106.0,3,,,1,7551,0.3679245283018867,0.320754716981132,0.0283018867924528,0.5498270637746925,2643.407271078498,216,216,216,201
KEN,KE,2533.0,24785.0,54098.0,etono,52899.0,34.7547,-0.8851829800000001,3,,,2007.0,,,200.0,10,,,200.0,43,,,200.0,2,,,1,7008,0.05,0.215,0.01,0.2468938679245282,0.0,217,217,218,202
KEN,KE,2533.0,24785.0,54098.0,etono,52900.0,34.7547,-0.8851829800000001,3,,,2008.0,,,91.0,7,,,91.0,18,,,91.0,1,,,1,6998,0.0769230769230769,0.1978021978021978,0.0109890109890109,0.2524971479819244,0.0,218,218,217,202
KEN,KE,2529.0,24767.0,54123.0,fahamuni,53436.0,39.42878,-4.4958181,3,,,1997.0,,,88.0,31,,,88.0,8,,,88.0,11,,,3,7186,0.3522727272727273,0.0909090909090909,0.125,0.4573230157492592,0.0,219,219,220,203
KEN,KE,2529.0,24767.0,54123.0,fahamuni,53437.0,39.42878,-4.4958181,3,,,2012.0,,,108.0,36,,,108.0,3,,,108.0,12,,,1,7187,0.3333333333333333,0.0277777777777777,0.1111111111111111,0.399875766752077,0.0,220,220,219,203
KEN,KE,2529.0,24771.0,1987.0,fanjua,,40.123901,-1.65841,3,,,2009.0,5.0,15.0,110.0,1,,,110.0,15,,,110.0,1,,,1,28892,0.009090909090909,0.1363636363636363,0.009090909090909,0.1433912649022581,1451.2613319550228,221,221,221,204
KEN,KE,2531.0,24780.0,,firm foundation,12493.0,36.92863,-1.22891,3,,,2013.0,,,57.0,0,,,57.0,0,,,57.0,2,,,1,19390,0.0,0.0,0.0350877192982456,0.0331016219794769,650.3639521390444,222,222,222,205
KEN,KE,2531.0,24780.0,,foothill cornerstone,12494.0,36.7539,-1.30003,3,,,2013.0,,,63.0,0,,,63.0,0,,,63.0,1,,,1,19394,0.0,0.0,0.0158730158730158,0.01497454327643,2848.6318951165736,223,223,223,206
KEN,KE,2535.0,24806.0,54061.0,forestal,53341.0,34.0,0.6511579,1,,,2012.0,,,108.0,0,,,108.0,14,,,108.0,0,,,1,6828,0.0,0.1296296296296296,0.0,0.1222921034241788,20986.03137433458,224,224,224,207
KEN,KE,2533.0,24786.0,54112.0,fort ternan,,35.3041,-0.18608,3,,,2008.0,5.0,16.0,14.0,8,,,14.0,1,,,14.0,1,,,1,28666,0.5714285714285714,0.0714285714285714,0.0714285714285714,0.5947796908520819,5708.473365913889,225,225,225,208
KEN,KE,2529.0,24766.0,54092.0,fundisa,,40.0919,-2.92722,3,,,2008.0,5.0,16.0,106.0,1,,,106.0,0,,,106.0,12,,,1,28934,0.0094339622641509,0.0,0.1132075471698113,0.1146919940622124,6669.339518583413,226,226,226,209
KEN,KE,2529.0,24771.0,1987.0,furaha,,40.184898,-2.47074,3,,,2009.0,5.0,15.0,110.0,1,,,110.0,34,,,110.0,3,,,1,28831,0.009090909090909,0.3090909090909091,0.0272727272727272,0.3151354493004267,800.4184661018871,227,227,227,210
KEN,KE,2532.0,24781.0,54040.0,gababa,52956.0,40.161201,-1.54467,3,,,2008.0,,,55.0,0,,,55.0,0,,,55.0,0,,,1,6614,0.0,0.0,0.0,0.0,11681.070497085359,228,228,228,211
KEN,KE,2530.0,24779.0,54258.0,gachaine,12587.0,37.50533,-0.1008,3,,,2015.0,,,58.0,0,,,58.0,0,,,58.0,0,,,1,6257,0.0,0.0,0.0,0.0,1.113196630953098,229,229,229,212
KEN,KE,2528.0,24765.0,24765.0,gachiriro,12553.0,37.04589,-0.5546300000000001,3,,,2013.0,,,60.0,0,,,60.0,0,,,60.0,0,,,1,19341,0.0,0.0,0.0,0.0,2960.698054020064,230,230,230,213
KEN,KE,2529.0,24771.0,1987.0,gadeni,,40.179298,-2.232,3,,,2009.0,5.0,15.0,0.0,0,,,110.0,51,,,110.0,8,,,1,28765,,0.4636363636363636,0.0727272727272727,,1837.4376813851732,231,231,231,214
KEN,KE,2529.0,24771.0,1987.0,gafuru,,40.064499,-1.62362,3,,,2009.0,5.0,15.0,108.0,0,,,108.0,0,,,108.0,0,,,1,29065,0.0,0.0,0.0,0.0,2217.935416071177,232,232,232,215
KEN,KE,2528.0,24763.0,24763.0,gaitheri,12465.0,37.03981,-0.6290800000000001,3,,,2013.0,,,58.0,0,,,58.0,1,,,58.0,0,,,1,19304,0.0,0.0172413793103448,0.0,0.0162654521795705,1796.3560053396666,233,233,233,216
KEN,KE,2530.0,24779.0,54258.0,gakurungu,12588.0,37.59037,-0.10019,3,,,2015.0,,,58.0,0,,,58.0,0,,,58.0,1,,,1,6259,0.0,0.0,0.0172413793103448,0.0162654521795705,1.5742965388143264,234,234,234,217
KEN,KE,2529.0,24767.0,1953.0,gandini central,,39.466599,-4.04409,3,,,2008.0,5.0,16.0,107.0,3,,,107.0,3,,,107.0,18,,,1,28970,0.02803738317757,0.02803738317757,0.1682242990654205,0.2020868609017174,3421.9685472128417,235,235,235,218
KEN,KE,2533.0,24789.0,1984.0,gangu,,34.187801,0.0798079999999999,3,,,1998.0,12.0,18.0,17.0,5,,,17.0,3,,,17.0,2,,,3,30387,0.2941176470588235,0.1764705882352941,0.1176470588235294,0.4595048177918421,0.00033395901846233755,236,236,237,219
KEN,KE,2533.0,24789.0,54243.0,gangu,53771.0,34.187801,0.079807997,3,,,2006.0,,,176.0,17,,,176.0,66,,,176.0,12,,,1,7462,0.096590909090909,0.375,0.0681818181818181,0.4470442119522844,0.0,237,237,238,219
KEN,KE,2533.0,24789.0,54243.0,gangu,53771.0,34.187801,0.079807997,3,,,2006.0,,,353.0,47,,,353.0,98,,,353.0,20,,,1,7449,0.1331444759206798,0.2776203966005666,0.0566572237960339,0.386113144351793,0.0,238,238,237,219
KEN,KE,2531.0,24780.0,,garden estate,12495.0,36.86752,-1.22926,3,,,2013.0,,,55.0,0,,,55.0,2,,,55.0,1,,,1,19391,0.0,0.0363636363636363,0.0181818181818181,0.0508342429440199,3318.276247654304,239,239,239,220
KEN,KE,2529.0,24771.0,1987.0,garsen,,40.108601,-2.26538,3,,,2009.0,5.0,15.0,109.0,1,,,109.0,27,,,109.0,3,,,1,28842,0.0091743119266055,0.2477064220183486,0.0275229357798165,0.2595505364730158,6901.011783218236,240,240,240,221
KEN,KE,2529.0,24767.0,54123.0,gasi,53438.0,39.5064905,-4.4244002,1,,,1997.0,,,100.0,46,,,100.0,12,,,100.0,14,,,3,7191,0.46,0.12,0.14,0.5578566037735847,6482.713409457265,241,241,241,222
KEN,KE,2534.0,24795.0,1954.0,gatami,,36.411598,0.3139969999999999,3,,,2009.0,5.0,15.0,23.0,0,,,23.0,0,,,23.0,0,,,1,28888,0.0,0.0,0.0,0.0,16379.26161651843,242,242,242,223
KEN,KE,2530.0,24772.0,54032.0,gategi,53403.0,37.433811,-0.74220997,3,,,2004.0,,,318.0,1,,,0.0,0,,,0.0,0,,,2,6600,0.0031446540880503,,,,2117.5339329078233,243,243,243,224
KEN,KE,2528.0,24762.0,1948.0,gathigini primary,,37.440899,-0.593124,3,,,2004.0,5.0,16.0,77.0,8,,,77.0,2,,,77.0,0,,,2,30474,0.1038961038961039,0.0259740259740259,0.0,0.1199731412914456,1467.1375270755843,244,244,244,225
KEN,KE,2528.0,24765.0,24765.0,gathogorero,12554.0,37.08555,-0.50851,3,,,2013.0,,,61.0,0,,,61.0,4,,,61.0,0,,,1,19327,0.0,0.0655737704918032,0.0,0.0618620476337766,1562.7816431821993,245,245,245,226
KEN,KE,2528.0,24761.0,54081.0,gatina,12391.0,36.69532,-1.07567,3,,,2013.0,,,58.0,0,,,58.0,4,,,58.0,0,,,1,6187,0.0,0.0689655172413793,0.0,0.0650618087182823,2775.631176644228,246,246,246,227
KEN,KE,2528.0,24763.0,24763.0,gatitu,12467.0,37.03111,-0.6426700000000001,3,,,2013.0,,,57.0,0,,,57.0,0,,,57.0,0,,,1,19303,0.0,0.0,0.0,0.0,1796.3560053396666,247,247,247,228
KEN,KE,2533.0,24785.0,54098.0,gesure sda,52901.0,34.750938,-0.72990203,3,,,2012.0,,,108.0,4,,,108.0,31,,,108.0,0,,,1,6990,0.037037037037037,0.287037037037037,0.0,0.295701011983332,4370.709970733163,248,248,248,229
KEN,KE,2533.0,24787.0,24787.0,getonganya primary school,12431.0,34.514107,-1.14867,3,,,2015.0,,,63.0,0,,,63.0,5,,,63.0,0,,,1,19417,0.0,0.0793650793650793,0.0,0.0748727163821503,2664.4563843965625,249,249,249,230
KEN,KE,2533.0,24785.0,54098.0,getunu dok,52902.0,34.841084,-0.89648598,3,,,2012.0,,,108.0,6,,,108.0,41,,,108.0,3,,,1,6988,0.0555555555555555,0.3796296296296296,0.0277777777777777,0.4060092441614688,2478.26852113206,250,250,250,231
KEN,KE,2532.0,24781.0,1938.0,ghamano,,39.931099,-1.09853,4,,,2009.0,5.0,15.0,101.0,0,,,101.0,0,,,101.0,0,,,1,28981,0.0,0.0,0.0,0.0,7028.909200011419,251,251,251,232
KEN,KE,2534.0,24796.0,54212.0,gibarori,53253.0,34.640602,-1.2054141,4,,,2012.0,,,108.0,32,,,108.0,5,,,108.0,0,,,1,7226,0.2962962962962963,0.0462962962962962,0.0,0.3102595957243056,4072.360391461629,252,252,252,233
KEN,KE,2528.0,24765.0,24765.0,gikondi,12555.0,37.02979,-0.57733,3,,,2013.0,,,62.0,0,,,62.0,0,,,62.0,0,,,1,19323,0.0,0.0,0.0,0.0,918.7917145188741,253,253,253,234
KEN,KE,2528.0,24763.0,24763.0,githambo,12468.0,36.89751,-0.7133100000000001,3,,,2013.0,,,60.0,0,,,60.0,0,,,60.0,0,,,1,19315,0.0,0.0,0.0,0.0,2557.1711841518922,254,254,254,235
KEN,KE,2528.0,24761.0,54081.0,githima,12392.0,36.78691,-0.9974,3,,,2013.0,,,54.0,0,,,54.0,5,,,54.0,0,,,1,6174,0.0,0.0925925925925925,0.0,0.087351502445842,5165.2106206149565,255,255,255,236
KEN,KE,2528.0,24762.0,1948.0,gitooini primary,,37.288799,-0.642026,3,,,2004.0,5.0,16.0,40.0,6,,,40.0,1,,,40.0,0,,,2,30424,0.15,0.025,0.0,0.1615566037735848,1149.8204850708514,256,256,256,237
KEN,KE,2528.0,24765.0,24765.0,gitugi,12556.0,36.87106,-0.5127700000000001,3,,,2013.0,,,61.0,1,,,61.0,2,,,61.0,1,,,1,19348,0.0163934426229508,0.0327868852459016,0.0163934426229508,0.0606026952800388,4185.967726082374,257,257,257,238
KEN,KE,2534.0,24796.0,24796.0,gitura,12515.0,36.14781,-0.04745,3,,,2013.0,,,60.0,0,,,60.0,2,,,60.0,0,,,1,19512,0.0,0.0333333333333333,0.0,0.0314465408805031,2876.497832128721,258,258,258,239
KEN,KE,2528.0,24763.0,24763.0,gituri,12470.0,37.15495,-0.6544700000000001,3,,,2013.0,,,57.0,0,,,57.0,0,,,57.0,0,,,1,19316,0.0,0.0,0.0,0.0,3260.1717198184397,259,259,259,240
KEN,KE,2534.0,24802.0,24802.0,gk prison,103873.0,36.0579097,-0.2762760999999999,2,,,2013.0,5.0,0.0,51.0,0,,,51.0,0,,,51.0,0,,,1,809,0.0,0.0,0.0,0.0,2067.6017529019227,260,260,260,241
KEN,KE,2534.0,24800.0,24800.0,gk remand prisons,12602.0,34.997038,1.025025,3,,,2013.0,,,58.0,0,,,58.0,0,,,58.0,0,,,1,19563,0.0,0.0,0.0,0.0,278.71319727107976,261,261,261,242
KEN,KE,2533.0,24789.0,54244.0,gobei,52753.0,34.327999,-0.093089998,3,,,1998.0,,,137.0,26,,,137.0,39,,,137.0,12,,,3,7342,0.1897810218978102,0.2846715328467153,0.0875912408759124,0.4445215021481715,2896.4108597273594,262,262,262,243
KEN,KE,2533.0,24784.0,54046.0,god poko,52933.0,34.26265,-0.72676998,3,,,2012.0,,,107.0,18,,,107.0,26,,,107.0,0,,,1,6619,0.1682242990654205,0.2429906542056074,0.0,0.3493754913092846,6795.819713840017,263,263,263,244
KEN,KE,2529.0,24771.0,1987.0,golbanti,,40.186901,-2.4561,3,,,2009.0,5.0,15.0,111.0,5,,,111.0,26,,,111.0,3,,,1,28869,0.045045045045045,0.2342342342342342,0.027027027027027,0.2721625383808219,1646.393435123939,264,264,264,245
KEN,KE,2529.0,24771.0,54255.0,golbanti,53925.0,40.1887707,-2.4767926,1,,,2008.0,,,51.0,0,,,51.0,2,,,51.0,10,,,1,7493,0.0,0.0392156862745098,0.196078431372549,0.2147214786765612,800.4184661018871,265,265,265,246
KEN,KE,2529.0,24767.0,1953.0,golini,,39.467701,-4.1562,3,,,2008.0,5.0,16.0,102.0,0,,,102.0,7,,,102.0,29,,,1,29034,0.0,0.0686274509803921,0.284313725490196,0.3145560851051481,1516.8738146650112,266,266,266,247
KEN,KE,2533.0,24786.0,54112.0,gongo,53199.0,34.606998,-0.13886,3,,,2006.0,,,117.0,85,,,117.0,64,,,117.0,78,,,1,7056,0.7264957264957265,0.5470085470085471,0.6666666666666666,0.904435503693688,1618.538129859738,267,267,267,248
KEN,KE,2529.0,24766.0,1947.0,gongoni,,39.765999,-3.833,3,,,1985.0,1.0,99.0,64.0,40,,,64.0,35,,,64.0,20,,,3,29030,0.625,0.546875,0.3125,0.8331874631485848,0.0,268,268,269,249
KEN,KE,2529.0,24766.0,1947.0,gongoni,,39.765999,-3.833,3,,,2008.0,5.0,16.0,100.0,6,,,100.0,25,,,100.0,20,,,1,29067,0.06,0.25,0.2,0.4113207547169811,0.0,269,269,268,249
KEN,KE,2529.0,24766.0,54087.0,gongoni,53020.0,40.14069,-3.03399,1,,,2008.0,,,100.0,6,,,100.0,25,,,100.0,20,,,1,6881,0.06,0.25,0.2,0.4113207547169811,5688.088933736834,270,270,270,250
KEN,KE,2530.0,24777.0,24777.0,goro rukesa,12416.0,38.05174,2.25744,3,,,2013.0,,,54.0,0,,,54.0,0,,,54.0,0,,,1,19366,0.0,0.0,0.0,0.0,10431.402372834373,271,271,271,251
KEN,KE,2532.0,24783.0,1996.0,got ade,,40.048599,1.76766,3,,,2009.0,5.0,15.0,98.0,0,,,98.0,0,,,98.0,0,,,1,28969,0.0,0.0,0.0,0.0,115764.10449395548,272,272,272,252
KEN,KE,2533.0,24784.0,54044.0,got agulu,53582.0,34.036295,-0.0347945,1,,,1994.0,,,228.0,15,,,228.0,26,,,228.0,9,,,3,6663,0.0657894736842105,0.1140350877192982,0.0394736842105263,0.1933903235981554,2370.659928858994,273,273,273,253
KEN,KE,2533.0,24789.0,54244.0,got bondo,,34.375099,-0.10359,3,,,2001.0,10.0,12.0,29.0,13,,,29.0,7,,,29.0,8,,,2,31555,0.4482758620689655,0.2413793103448276,0.2758620689655172,0.6574646627732732,1801.6579412541905,274,274,274,254
KEN,KE,2533.0,24787.0,24787.0,got kachola,12432.0,34.135841,-0.954016,3,,,2013.0,,,58.0,2,,,58.0,0,,,58.0,0,,,1,19426,0.0344827586206896,0.0,0.0,0.0325309043591411,0.11131949070841074,275,275,280,255
KEN,KE,2533.0,24784.0,54046.0,got kokech,52935.0,34.492313,-0.50641501,3,,,2012.0,,,107.0,17,,,107.0,18,,,107.0,9,,,1,6622,0.1588785046728972,0.1682242990654205,0.0841121495327102,0.3388891439605838,3693.0578610760394,276,276,276,256
KEN,KE,2533.0,24789.0,54244.0,got matar,,34.175301,-0.047417,3,,,2005.0,5.0,20.0,43.0,8,,,43.0,6,,,43.0,2,,,2,30357,0.1860465116279069,0.1395348837209302,0.0465116279069767,0.3133935519146172,0.0,277,277,278,257
KEN,KE,2533.0,24789.0,54244.0,got matar,52755.0,34.175301,-0.047417,3,,,2005.0,,,27.0,17,,,27.0,10,,,27.0,4,,,2,7284,0.6296296296296297,0.3703703703703703,0.1481481481481481,0.7559919056670874,0.0,278,278,277,257
KEN,KE,2533.0,24789.0,54244.0,got ramogi,,34.0752783,-0.0077253,1,,,1994.0,9.0,18.0,62.0,45,,,62.0,8,,,62.0,29,,,3,31598,0.7258064516129032,0.1290322580645161,0.4677419354838709,0.8234806257176568,2880.068443180355,279,279,279,258
KEN,KE,2533.0,24787.0,24787.0,got kachola,12433.0,34.13584,-0.954016,3,,,2015.0,,,58.0,2,,,58.0,0,,,58.0,0,,,1,19431,0.0344827586206896,0.0,0.0,0.0325309043591411,0.11131949070841074,280,280,275,255
KEN,KE,2529.0,24767.0,1953.0,gugu,,39.204899,-4.41362,3,,,2008.0,5.0,16.0,109.0,0,,,109.0,1,,,109.0,60,,,1,29048,0.0,0.0091743119266055,0.5504587155963303,0.5231914599654116,5538.030316932692,281,281,281,259
KEN,KE,2533.0,24789.0,54244.0,gunda arut,,34.399101,-0.093704,3,,,2001.0,10.0,12.0,33.0,12,,,33.0,10,,,33.0,6,,,2,31565,0.3636363636363636,0.303030303030303,0.1818181818181818,0.6010518407212622,0.0,282,282,283,260
KEN,KE,2533.0,24789.0,54244.0,gunda rut,,34.399101,-0.093704,3,,,1998.0,12.0,18.0,6.0,2,,,6.0,2,,,6.0,1,,,3,30392,0.3333333333333333,0.3333333333333333,0.1666666666666666,0.5939902166317259,0.0,283,283,282,260
KEN,KE,2533.0,24789.0,54244.0,gunda sigomre,,34.2537,-0.0843,3,,,2005.0,5.0,20.0,45.0,21,,,45.0,5,,,45.0,1,,,2,30370,0.4666666666666667,0.1111111111111111,0.0222222222222222,0.5060951937262209,774.2810380988304,284,284,284,261
KEN,KE,2529.0,24771.0,1987.0,handampia,,40.058201,-1.5954700000000002,3,,,2009.0,5.0,15.0,111.0,1,,,111.0,1,,,0.0,0,,,1,28995,0.009009009009009,0.009009009009009,,,2840.854213932175,285,285,285,262
KEN,KE,2532.0,24781.0,54040.0,hara,52957.0,40.224899,-1.84873,3,,,2008.0,,,54.0,0,,,54.0,0,,,54.0,0,,,1,6613,0.0,0.0,0.0,0.0,12614.44365229539,286,286,286,263
KEN,KE,2533.0,24784.0,54044.0,harambee,53583.0,34.87561,-0.4786,3,,,2012.0,,,108.0,24,,,108.0,65,,,108.0,11,,,1,6651,0.2222222222222222,0.6018518518518519,0.1018518518518518,0.6810092082143483,2814.702481321387,287,287,287,264
KEN,KE,2529.0,24771.0,1987.0,hatata,,39.630402,-0.4612119999999999,3,,,2009.0,5.0,15.0,0.0,0,,,92.0,1,,,92.0,1,,,1,28976,,0.0108695652173913,0.0108695652173913,,429.391094193324,288,288,288,265
KEN,KE,2533.0,24789.0,54243.0,hawinga,53772.0,34.1521,0.081419997,3,,,1995.0,,,115.0,15,,,115.0,41,,,115.0,1,,,3,7455,0.1304347826086956,0.3565217391304348,0.008695652173913,0.420112553132429,0.0,289,289,290,266
KEN,KE,2533.0,24789.0,54243.0,hawinga,53773.0,34.1521,0.081419997,3,,,2006.0,,,280.0,23,,,280.0,40,,,280.0,24,,,1,7454,0.0821428571428571,0.1428571428571428,0.0857142857142857,0.2648110457120853,0.0,290,290,289,266
KEN,KE,2529.0,24768.0,1955.0,hindi,,40.817299,-2.17995,3,,,2009.0,5.0,16.0,107.0,16,,,107.0,19,,,107.0,21,,,1,28952,0.1495327102803738,0.1775700934579439,0.1962616822429906,0.4130428752450876,18856.58309336804,291,291,291,267
KEN,KE,2529.0,24771.0,1987.0,hola,,40.030102,-1.4839,3,,,2009.0,5.0,15.0,98.0,2,,,98.0,2,,,98.0,2,,,1,28909,0.0204081632653061,0.0204081632653061,0.0204081632653061,0.0565882172378117,3546.9319090762906,292,292,292,268
KEN,KE,2533.0,24784.0,54044.0,homelime,53584.0,34.479511,-0.41575,3,,,2012.0,,,108.0,8,,,108.0,15,,,108.0,5,,,1,6701,0.074074074074074,0.1388888888888889,0.0462962962962962,0.2260265059686598,727.4931394586913,293,293,293,269
KEN,KE,2535.0,24806.0,1944.0,ibwali,,34.645901,0.238891,3,,,2009.0,5.0,15.0,106.0,18,,,106.0,3,,,106.0,6,,,1,28907,0.1698113207547169,0.0283018867924528,0.0566037735849056,0.2254425300561524,3376.6946211788045,294,294,294,270
KEN,KE,2528.0,24762.0,1948.0,ichangi primary,,37.422001,-0.553,3,,,2004.0,5.0,16.0,12.0,1,,,12.0,0,,,12.0,0,,,2,30435,0.0833333333333333,0.0,0.0,0.0786163522012578,1836.3480082447763,295,295,295,271
KEN,KE,2528.0,24763.0,24763.0,ichichi,12471.0,36.84491,-0.7024600000000001,3,,,2013.0,,,60.0,0,,,60.0,4,,,60.0,1,,,1,19298,0.0,0.0666666666666666,0.0166666666666666,0.0775681341719077,4595.911672953955,296,296,296,272
KEN,KE,2528.0,24765.0,24765.0,ihiga,12557.0,37.11289,-0.5320900000000001,3,,,2013.0,,,62.0,0,,,62.0,0,,,62.0,0,,,1,19322,0.0,0.0,0.0,0.0,1005.6914619309138,297,297,297,273
KEN,KE,2532.0,24781.0,54040.0,ijara,52958.0,40.513561,-1.598823,1,,,2008.0,,,56.0,0,,,56.0,0,,,56.0,0,,,1,6612,0.0,0.0,0.0,0.0,39644.03118625861,298,298,298,274
KEN,KE,2534.0,24793.0,24793.0,ilaimirror,12377.0,37.39992,-2.21105,3,,,2013.0,,,52.0,0,,,52.0,0,,,52.0,0,,,1,19484,0.0,0.0,0.0,0.0,17804.140572104956,299,299,299,275
KEN,KE,2534.0,24798.0,24798.0,ilkerin,12541.0,35.11153,-1.06924,3,,,2015.0,,,61.0,0,,,61.0,6,,,61.0,2,,,1,19530,0.0,0.0983606557377049,0.0327868852459016,0.1206816994822856,7302.567341571587,300,300,300,276
KEN,KE,2534.0,24793.0,24793.0,illasit,12378.0,37.57355,-2.96069,3,,,2013.0,,,54.0,0,,,54.0,0,,,54.0,0,,,1,19485,0.0,0.0,0.0,0.0,20270.07831334305,301,301,301,277
KEN,KE,2534.0,24790.0,24790.0,illiagat,12313.0,35.83487,0.30459,3,,,2013.0,,,55.0,0,,,55.0,0,,,55.0,0,,,1,19454,0.0,0.0,0.0,0.0,3785.408973313432,302,302,302,278
KEN,KE,2534.0,24796.0,54212.0,ilpashire,53254.0,34.6303372,-1.0053452,1,,,2012.0,,,108.0,12,,,108.0,26,,,108.0,29,,,1,7235,0.1111111111111111,0.2407407407407407,0.2685185185185185,0.4776653351853291,1504.048063791496,303,303,303,279
KEN,KE,2534.0,24798.0,1977.0,ilpolton,,35.818802,-0.6810849999999999,3,,,2009.0,5.0,15.0,105.0,2,,,0.0,0,,,105.0,3,,,1,28951,0.019047619047619,,0.0285714285714285,,19815.55618789657,304,304,304,280
KEN,KE,2535.0,24807.0,54276.0,ilungu,52880.0,34.646481,0.12205,3,,,2012.0,,,108.0,20,,,108.0,49,,,108.0,8,,,1,7555,0.1851851851851851,0.4537037037037037,0.074074074074074,0.5545682079833283,3473.116272985725,305,305,305,281
KEN,KE,2529.0,24771.0,1987.0,imani,,40.165798,-2.24149,3,,,2009.0,5.0,15.0,106.0,0,,,106.0,67,,,0.0,0,,,1,28664,0.0,0.6320754716981132,,,1837.4376813851732,306,306,306,282
KEN,KE,2531.0,24780.0,,immaculate,12496.0,36.9458,-1.26972,3,,,2013.0,,,61.0,0,,,61.0,0,,,61.0,0,,,1,19385,0.0,0.0,0.0,0.0,2783.4531876237015,307,307,307,283
KEN,KE,2534.0,24793.0,24793.0,imurtot,12379.0,37.38743,-2.67586,3,,,2013.0,,,57.0,0,,,57.0,2,,,57.0,0,,,1,19488,0.0,0.0350877192982456,0.0,0.0331016219794769,7973.255350038755,308,308,308,284
KEN,KE,2535.0,24805.0,1934.0,indoli,,34.241501,0.390609,3,,,2009.0,5.0,15.0,107.0,30,,,107.0,2,,,107.0,2,,,1,28846,0.2803738317757009,0.0186915887850467,0.0186915887850467,0.2896455894909749,2806.282394833677,309,309,309,285
KEN,KE,2534.0,24796.0,24796.0,ingobor,12516.0,36.01929,-0.31274,3,,,2013.0,,,60.0,0,,,60.0,1,,,60.0,0,,,1,19505,0.0,0.0166666666666666,0.0,0.0157232704402515,4177.575010645446,310,310,310,286
KEN,KE,2528.0,24765.0,24765.0,irigithathi,12558.0,37.0563,-0.18723,3,,,2013.0,,,60.0,0,,,60.0,0,,,60.0,2,,,1,19325,0.0,0.0,0.0333333333333333,0.0314465408805031,6036.322805007916,311,311,311,287
KEN,KE,2534.0,24793.0,24793.0,iseuri,12380.0,36.81376,-1.85311,3,,,2013.0,,,60.0,0,,,60.0,0,,,60.0,0,,,1,19490,0.0,0.0,0.0,0.0,15480.436974329368,312,312,312,288
KEN,KE,2528.0,24762.0,1948.0,ithiga ria njuki,,37.404701,-0.592615,3,,,2004.0,5.0,16.0,61.0,12,,,61.0,1,,,61.0,0,,,2,30434,0.1967213114754098,0.0163934426229508,0.0,0.1980092590245064,2588.2314368407224,313,313,313,289
KEN,KE,2534.0,24794.0,54074.0,itoibei,52982.0,35.3223,-0.31830001,3,,,2012.0,,,108.0,0,,,108.0,28,,,108.0,1,,,1,6837,0.0,0.2592592592592592,0.0092592592592592,0.2510546885110127,4227.64028517482,314,314,314,290
KEN,KE,2533.0,24785.0,54106.0,itumbe,52923.0,34.630001,-0.75,3,,,2007.0,,,55.0,5,,,55.0,22,,,0.0,0,,,1,7014,0.0909090909090909,0.4,,,3900.868486601521,315,315,315,291
KEN,KE,2530.0,24776.0,54140.0,iviani,53002.0,38.1828,-2.6714499,3,,,2007.0,,,168.0,8,,,0.0,0,,,168.0,1,,,1,7214,0.0476190476190476,,0.0059523809523809,,3695.3182113274443,316,316,316,292
KEN,KE,2532.0,24781.0,1938.0,jara jara,,39.008801,-0.04098,4,,,2009.0,5.0,15.0,80.0,0,,,80.0,0,,,80.0,0,,,1,28910,0.0,0.0,0.0,0.0,64090.14958192746,317,317,317,293
KEN,KE,2529.0,24766.0,1947.0,jaribuni,,39.741699,-3.62025,3,,,1985.0,1.0,99.0,65.0,43,,,65.0,17,,,65.0,10,,,3,29049,0.6615384615384615,0.2615384615384615,0.1538461538461538,0.743878874279678,0.0,318,318,319,294
KEN,KE,2529.0,24766.0,1947.0,jaribuni,,39.741699,-3.62025,3,,,2008.0,5.0,16.0,110.0,0,,,110.0,1,,,110.0,5,,,1,28862,0.0,0.009090909090909,0.0454545454545454,0.0510681428348666,0.0,319,319,318,294
KEN,KE,2529.0,24767.0,54123.0,jego,53441.0,39.1833,-4.6500001,3,,,2008.0,,,111.0,0,,,111.0,15,,,111.0,37,,,1,7183,0.0,0.1351351351351351,0.3333333333333333,0.3994560598334183,0.0,320,320,321,295
KEN,KE,2529.0,24767.0,54123.0,jego,53442.0,39.1833,-4.6500001,3,,,2010.0,,,653.0,157,,,653.0,2,,,653.0,65,,,1,7184,0.2404287901990811,0.003062787136294,0.0995405819295559,0.3001243242165051,0.0,321,321,320,295
KEN,KE,2529.0,24767.0,1953.0,jego,,39.186901,-4.64376,3,,,2008.0,5.0,16.0,111.0,0,,,111.0,15,,,111.0,37,,,1,28878,0.0,0.1351351351351351,0.3333333333333333,0.3994560598334183,0.0,322,322,323,296
KEN,KE,2529.0,24767.0,1953.0,jego,,39.186901,-4.64376,3,,,2010.0,5.0,18.0,653.0,157,,,653.0,2,,,653.0,65,,,1,30496,0.2404287901990811,0.003062787136294,0.0995405819295559,0.3001243242165051,0.0,323,323,322,296
KEN,KE,2529.0,24767.0,54123.0,jego village,53443.0,39.1833,-4.6500001,3,,,2012.0,,,307.0,45,,,0.0,0,,,0.0,0,,,1,7190,0.1465798045602606,,,,0.0,324,324,320,295
KEN,KE,2529.0,24767.0,1953.0,jego village,,39.1833,-4.65,3,,,2012.0,3.0,11.0,307.0,45,,,0.0,0,,,0.0,0,,,1,29661,0.1465798045602606,,,,0.01116871030535549,325,325,320,295
KEN,KE,2529.0,24766.0,54091.0,jilore,53367.0,39.902641,-3.18787,3,,,2012.0,,,108.0,37,,,108.0,2,,,108.0,16,,,1,6901,0.3425925925925926,0.0185185185185185,0.1481481481481481,0.4248650065807195,9016.880030150747,326,326,326,297
KEN,KE,2533.0,24786.0,54113.0,jonyo,53230.0,34.505699,-0.17908999,3,,,2007.0,,,129.0,8,,,129.0,10,,,129.0,18,,,1,7073,0.0620155038759689,0.0775193798449612,0.1395348837209302,0.2410030006983022,1170.9122574871117,327,327,327,298
KEN,KE,2529.0,24767.0,1953.0,jorori,,39.473701,-4.27551,3,,,1992.0,5.0,16.0,24.0,21,,,24.0,2,,,24.0,8,,,3,29091,0.875,0.0833333333333333,0.3333333333333333,0.8713312368972744,2391.614199177833,328,328,328,299
KEN,KE,2534.0,24790.0,24790.0,kabasis,12314.0,35.78797,0.43415,3,,,2013.0,,,58.0,0,,,58.0,0,,,58.0,0,,,1,19458,0.0,0.0,0.0,0.0,1254.7797954823193,329,329,329,300
KEN,KE,2534.0,24797.0,1976.0,kabaskei,,34.953602,0.149085,3,,,2002.0,2.0,20.0,134.0,40,,,134.0,38,,,134.0,17,,,2,29054,0.2985074626865671,0.2835820895522388,0.126865671641791,0.5294302120537583,1074.2295977086517,330,330,330,301
KEN,KE,2528.0,24765.0,24765.0,kabendera,12559.0,36.79137,-0.20608,3,,,2013.0,,,62.0,0,,,62.0,0,,,62.0,0,,,1,19336,0.0,0.0,0.0,0.0,4725.004822956346,331,331,331,302
KEN,KE,2534.0,24794.0,1946.0,kabokyek,,35.16176,-0.31438,3,,,2008.0,5.0,16.0,164.0,2,,,164.0,24,,,164.0,32,,,1,28854,0.0121951219512195,0.1463414634146341,0.1951219512195122,0.3031020202786181,4566.808005729187,332,332,332,303
KEN,KE,2534.0,24796.0,24796.0,kabongoi,12517.0,35.45276,-0.4771,3,,,2015.0,,,59.0,0,,,59.0,3,,,59.0,1,,,1,19510,0.0,0.0508474576271186,0.0169491525423728,0.0631460272205449,12491.922951048062,333,333,333,304
KEN,KE,2534.0,24797.0,24797.0,kabongwa,12535.0,35.15752,0.21746,3,,,2013.0,,,54.0,0,,,54.0,0,,,54.0,0,,,1,19527,0.0,0.0,0.0,0.0,3405.884358025653,334,334,334,305
KEN,KE,2534.0,24791.0,54009.0,kabusare,52728.0,35.3521115,-0.6881389,1,,,2012.0,,,108.0,0,,,108.0,45,,,108.0,4,,,1,6506,0.0,0.4166666666666667,0.037037037037037,0.4134637782436524,2866.1873502754033,335,335,335,306
KEN,KE,2535.0,24805.0,1934.0,kabwodo,,34.1758,0.3095,3,,,1999.0,5.0,17.0,75.0,67,,,75.0,46,,,75.0,41,,,3,29144,0.8933333333333333,0.6133333333333333,0.5466666666666666,0.9257570929419984,1232.0273338975499,336,336,336,307
KEN,KE,2533.0,24789.0,54246.0,kadiala,53656.0,34.321899,-0.33089,3,,,1992.0,,,61.0,15,,,61.0,30,,,61.0,12,,,3,7378,0.2459016393442623,0.4918032786885246,0.1967213114754098,0.6529804298306738,5889.358116803581,337,337,337,308
KEN,KE,2534.0,24803.0,24803.0,kadokoi,12627.0,36.21982,0.8156,3,,,2013.0,,,44.0,0,,,44.0,0,,,44.0,0,,,1,19584,0.0,0.0,0.0,0.0,26108.873321968054,338,338,338,309
KEN,KE,2528.0,24761.0,54081.0,kagema,12393.0,36.86361,-1.04967,3,,,2013.0,,,55.0,0,,,55.0,0,,,55.0,0,,,1,6179,0.0,0.0,0.0,0.0,1658.7740239871334,339,339,339,310
KEN,KE,2529.0,24766.0,54092.0,kagombani,,40.148499,-3.10645,3,,,2008.0,5.0,16.0,106.0,0,,,106.0,0,,,106.0,2,,,1,29026,0.0,0.0,0.0188679245283018,0.0177999288002847,5093.88044466707,340,340,340,311
KEN,KE,2528.0,24765.0,24765.0,kahara,12560.0,35.34235,0.221656667,4,,,2013.0,,,62.0,0,,,62.0,0,,,62.0,0,,,1,19330,0.0,0.0,0.0,0.0,12279.878109145997,341,341,341,312
KEN,KE,2528.0,24763.0,24763.0,kahithe,12472.0,36.98589,-0.7365,3,,,2013.0,,,59.0,0,,,59.0,11,,,59.0,0,,,1,19301,0.0,0.1864406779661017,0.0,0.1758874320434921,5057.476524194582,342,342,342,313
KEN,KE,2528.0,24763.0,24763.0,kahiti,12473.0,37.05848,-0.68474,3,,,2013.0,,,60.0,0,,,60.0,4,,,60.0,0,,,1,19313,0.0,0.0666666666666666,0.0,0.0628930817610062,4361.322430955915,343,343,343,314
KEN,KE,2529.0,24767.0,1953.0,kajiwe,,39.5382,-3.94011,3,,,1993.0,5.0,16.0,356.0,331,,,356.0,127,,,356.0,298,,,3,29121,0.9297752808988764,0.3567415730337078,0.8370786516853933,0.9364532190589832,0.0,344,344,345,315
KEN,KE,2529.0,24767.0,1953.0,kajiwe,,39.5382,-3.94011,3,,,2008.0,5.0,16.0,105.0,6,,,105.0,28,,,105.0,12,,,1,28871,0.0571428571428571,0.2666666666666666,0.1142857142857142,0.3656526761648055,0.0,345,345,344,315
KEN,KE,2529.0,24767.0,1953.0,kajiweni,,39.332001,-4.211,3,,,2010.0,15.0,83.0,122.0,64,,,122.0,2,,,122.0,1,,,1,29441,0.5245901639344263,0.0163934426229508,0.0081967213114754,0.5058647997550789,2874.6227002097694,346,346,346,316
KEN,KE,2535.0,24806.0,54067.0,kakamega muslim,52967.0,34.7518631,0.2827307,1,,,2012.0,,,105.0,16,,,105.0,14,,,105.0,3,,,1,6813,0.1523809523809524,0.1333333333333333,0.0285714285714285,0.2701749882342874,3054.243445216066,347,347,347,317
KEN,KE,2533.0,24784.0,54049.0,kakrigu mfangano,53825.0,34.0084395,-0.4593692,1,,,2012.0,,,50.0,4,,,50.0,1,,,50.0,0,,,1,6799,0.08,0.02,0.0,0.0928301886792452,28388.952556334603,348,348,348,318
KEN,KE,2530.0,24777.0,24777.0,kalacha,12417.0,37.53093,3.80282,3,,,2013.0,,,55.0,0,,,55.0,0,,,55.0,0,,,1,19359,0.0,0.0,0.0,0.0,60772.927198506426,349,349,349,319
KEN,KE,2530.0,24777.0,24777.0,kalacha nomadic,103673.0,37.4201057,3.1325197,1,,,2013.0,5.0,0.0,50.0,0,,,50.0,0,,,50.0,0,,,1,801,0.0,0.0,0.0,0.0,25429.958839555347,350,350,350,320
KEN,KE,2533.0,24784.0,54042.0,kalanding,12353.0,34.64833,-0.48267,3,,,2013.0,,,60.0,5,,,60.0,0,,,60.0,4,,,1,6297,0.0833333333333333,0.0,0.0666666666666666,0.1362683438155136,2633.389493867562,351,351,351,321
KEN,KE,2529.0,24770.0,54251.0,kalela,53908.0,38.581001,-3.3952501,3,,,2012.0,,,108.0,0,,,108.0,0,,,108.0,2,,,1,7476,0.0,0.0,0.0185185185185185,0.0174703004891684,8326.171956806842,352,352,352,322
KEN,KE,2529.0,24771.0,1987.0,kalkalcha,,39.996399,-1.50338,3,,,2009.0,5.0,15.0,90.0,0,,,90.0,4,,,0.0,0,,,1,28936,0.0,0.0444444444444444,,,835.2236214408084,353,353,353,323
KEN,KE,2533.0,24786.0,54112.0,kaloleni,53200.0,34.7717912,-0.0889894,1,,,2005.0,,,42.0,12,,,42.0,8,,,42.0,14,,,2,7062,0.2857142857142857,0.1904761904761904,0.3333333333333333,0.5797287468446497,940.4065718586381,354,354,354,324
KEN,KE,2534.0,24794.0,54074.0,kamaget b,52984.0,35.070129,-0.43015999,3,,,2012.0,,,107.0,8,,,107.0,16,,,107.0,9,,,1,6835,0.0747663551401869,0.1495327102803738,0.0841121495327102,0.2634955640140102,6940.534097722547,355,355,355,325
KEN,KE,2533.0,24789.0,54244.0,kamalumbe,,34.388302,-0.13778,3,,,2001.0,10.0,12.0,27.0,9,,,27.0,5,,,27.0,3,,,2,31569,0.3333333333333333,0.1851851851851851,0.1111111111111111,0.4878743173641844,0.0,356,356,357,326
KEN,KE,2533.0,24789.0,54246.0,kamalumbe,53658.0,34.388302,-0.13778,3,,,2006.0,,,44.0,3,,,44.0,7,,,44.0,12,,,1,7422,0.0681818181818181,0.1590909090909091,0.2727272727272727,0.4057808712416539,0.0,357,357,356,326
KEN,KE,2535.0,24805.0,24805.0,kamarinyang,12331.0,34.25798,0.52293,3,,,2015.0,,,60.0,15,,,60.0,2,,,60.0,0,,,1,19599,0.25,0.0333333333333333,0.0,0.2594339622641509,9238.286502294919,358,358,358,327
KEN,KE,2530.0,24779.0,54258.0,kamatungu,12589.0,37.59036,-0.10018,3,,,2015.0,,,60.0,0,,,60.0,0,,,60.0,2,,,1,6264,0.0,0.0,0.0333333333333333,0.0314465408805031,1.5742965388143264,359,359,359,328
KEN,KE,2528.0,24763.0,24763.0,kambirwa,12474.0,37.19984,-0.7505000000000001,3,,,2013.0,,,60.0,1,,,60.0,2,,,60.0,0,,,1,19309,0.0166666666666666,0.0333333333333333,0.0,0.0466457023060796,5621.381104574228,360,360,360,329
KEN,KE,2534.0,24803.0,1997.0,kameris,,35.02739,2.27526,3,,,2008.0,5.0,16.0,192.0,0,,,192.0,0,,,192.0,38,,,1,28847,0.0,0.0,0.1979166666666666,0.1867138364779874,1.2245143982581794,361,361,361,330
KEN,KE,2533.0,24789.0,54244.0,kaminogedo,,34.382702,-0.149608,3,,,2001.0,10.0,12.0,37.0,26,,,37.0,1,,,37.0,5,,,2,31576,0.7027027027027027,0.027027027027027,0.1351351351351351,0.7073842038077053,0.0,362,362,363,331
KEN,KE,2533.0,24789.0,54244.0,kaminogedo,,34.382702,-0.149608,3,,,1998.0,12.0,18.0,15.0,4,,,15.0,6,,,15.0,2,,,3,30405,0.2666666666666666,0.4,0.1333333333333333,0.5836477987421383,0.0,363,363,362,331
KEN,KE,2533.0,24789.0,54246.0,kaminogendo,53661.0,34.382702,-0.149608,3,,,2007.0,,,93.0,2,,,93.0,12,,,93.0,28,,,1,7413,0.021505376344086,0.1290322580645161,0.3010752688172043,0.3814625539054152,0.0,364,364,362,331
KEN,KE,2533.0,24789.0,54244.0,kamnara,,34.322498,-0.049883,3,,,2005.0,5.0,20.0,32.0,19,,,32.0,9,,,32.0,3,,,2,30377,0.59375,0.28125,0.09375,0.6937566793189858,1075.0560772714623,365,365,365,332
KEN,KE,2534.0,24797.0,24797.0,kamoiywo,12536.0,35.09245,0.38691,3,,,2013.0,,,51.0,0,,,51.0,0,,,51.0,0,,,1,19524,0.0,0.0,0.0,0.0,7657.794153807624,366,366,366,333
KEN,KE,2528.0,24762.0,1948.0,kamuchege primary,,37.377701,-0.664199,3,,,2004.0,5.0,16.0,43.0,3,,,43.0,2,,,43.0,1,,,2,30490,0.0697674418604651,0.0465116279069767,0.0232558139534883,0.1260954594955564,1046.6667571605465,367,367,367,334
KEN,KE,2535.0,24806.0,54067.0,kamuli,52968.0,34.59544,0.42111,3,,,2012.0,,,108.0,50,,,108.0,45,,,108.0,0,,,1,6818,0.4629629629629629,0.4166666666666667,0.0,0.6478569764733286,6856.147717100583,368,368,368,335
KEN,KE,2528.0,24765.0,24765.0,kamuyu,12561.0,36.91965,-0.42262,3,,,2013.0,,,60.0,0,,,60.0,3,,,60.0,0,,,1,19337,0.0,0.05,0.0,0.0471698113207547,3979.0844712455437,369,369,369,336
KEN,KE,2533.0,24789.0,54244.0,kandhere,,34.419998,-0.133078,3,,,2001.0,10.0,12.0,40.0,24,,,40.0,3,,,40.0,4,,,2,31580,0.6,0.075,0.1,0.6292452830188678,0.0,370,370,371,337
KEN,KE,2533.0,24789.0,54244.0,kandhere,,34.419998,-0.133078,3,,,1998.0,12.0,18.0,22.0,3,,,22.0,4,,,22.0,4,,,3,30399,0.1363636363636363,0.1818181818181818,0.1818181818181818,0.39798420821343,0.0,371,371,370,337
KEN,KE,2533.0,24789.0,54246.0,kandhere,53664.0,34.419998,-0.13307799,3,,,2007.0,,,64.0,2,,,64.0,10,,,64.0,38,,,1,7420,0.03125,0.15625,0.59375,0.6301304079451651,0.0011131972205475904,372,372,370,337
KEN,KE,2533.0,24786.0,54112.0,kandiang'a,,34.8694,-0.3307,3,,,1999.0,5.0,16.0,158.0,84,,,158.0,0,,,0.0,0,,,3,29473,0.5316455696202531,0.0,,,2322.1480677499467,373,373,373,338
KEN,KE,2533.0,24784.0,54042.0,kandiege,12354.0,34.55062,-0.42812,3,,,2013.0,,,58.0,3,,,58.0,0,,,58.0,0,,,1,6302,0.0517241379310344,0.0,0.0,0.0487963565387117,2397.275927908007,374,374,374,339
KEN,KE,2528.0,24762.0,1948.0,kandongu,,37.278999,-0.645289,3,,,2004.0,5.0,16.0,52.0,13,,,52.0,3,,,52.0,1,,,2,30467,0.25,0.0576923076923076,0.0192307692307692,0.2894907614156525,1149.8204850708514,375,375,375,340
KEN,KE,2528.0,24762.0,1948.0,kang'aru,,37.2449,-0.6386419999999999,3,,,2004.0,5.0,16.0,48.0,9,,,48.0,0,,,48.0,1,,,2,30457,0.1875,0.0,0.0208333333333333,0.1928557389937106,0.0,376,376,383,341
KEN,KE,2528.0,24762.0,1948.0,kangai,,37.300201,-0.6303059999999999,3,,,2004.0,5.0,16.0,80.0,22,,,80.0,0,,,80.0,1,,,2,30478,0.275,0.0,0.0125,0.2679834905660377,1820.2726072974945,377,377,377,342
KEN,KE,2534.0,24801.0,54264.0,kangirisae,53979.0,36.2196853,2.5972176,1,,,2008.0,,,99.0,2,,,99.0,0,,,99.0,23,,,1,7538,0.0202020202020202,0.0,0.2323232323232323,0.2338036357476037,0.0,378,378,379,343
KEN,KE,2534.0,24801.0,54264.0,kangirisae,53980.0,36.2196853,2.5972176,1,,,2009.0,,,55.0,0,,,55.0,0,,,55.0,0,,,1,7539,0.0,0.0,0.0,0.0,0.0,379,379,378,343
KEN,KE,2534.0,24801.0,1993.0,kangirisae,,36.25392,2.61852,3,,,2008.0,5.0,16.0,99.0,2,,,99.0,0,,,99.0,23,,,1,28861,0.0202020202020202,0.0,0.2323232323232323,0.2338036357476037,0.0,380,380,381,344
KEN,KE,2534.0,24801.0,1993.0,kangirisae,,36.25392,2.61852,3,,,2009.0,5.0,18.0,55.0,0,,,55.0,0,,,55.0,0,,,1,29484,0.0,0.0,0.0,0.0,0.0,381,381,380,344
KEN,KE,2528.0,24762.0,54094.0,kangure,53107.0,37.15,-0.6833332999999999,2,,,2004.0,,,56.0,10,,,56.0,3,,,56.0,1,,,2,6918,0.1785714285714285,0.0535714285714285,0.0178571428571428,0.2230746156279223,3260.1717198184397,382,382,382,345
KEN,KE,2528.0,24762.0,1948.0,kangure,,37.2449,-0.6386419999999999,3,,,2004.0,5.0,16.0,56.0,10,,,56.0,3,,,56.0,1,,,2,30472,0.1785714285714285,0.0535714285714285,0.0178571428571428,0.2230746156279223,0.0,383,383,376,341
KEN,KE,2533.0,24784.0,54042.0,kanyadhiang,12355.0,34.63419,-0.38012,3,,,2013.0,,,54.0,1,,,54.0,0,,,54.0,4,,,1,6290,0.0185185185185185,0.0,0.074074074074074,0.086057406113311,1513.9598215488345,384,384,384,346
KEN,KE,2533.0,24784.0,54044.0,kanyadhiang,53588.0,34.6607641,-0.4149886,1,,,2007.0,,,25.0,3,,,25.0,2,,,25.0,0,,,1,6687,0.12,0.08,0.0,0.1796226415094339,3258.5276074883336,385,385,385,347
KEN,KE,2533.0,24786.0,54112.0,kanyagwal,,34.870499,-0.25942,3,,,2008.0,5.0,16.0,25.0,12,,,25.0,3,,,25.0,1,,,1,28766,0.48,0.12,0.04,0.5289660377358489,6505.825369487645,386,386,386,348
KEN,KE,2533.0,24784.0,54044.0,kanyagwena,53589.0,34.7341,-0.35615,3,,,2007.0,,,25.0,15,,,25.0,1,,,25.0,0,,,1,6673,0.6,0.04,0.0,0.5811320754716981,4.452779631596059,387,387,387,349
KEN,KE,2533.0,24786.0,54112.0,kanyamedha,53202.0,34.7435196,-0.0725215,1,,,2012.0,,,108.0,2,,,108.0,13,,,108.0,8,,,1,7038,0.0185185185185185,0.1203703703703703,0.074074074074074,0.1892555974459331,1957.8266579445244,388,388,388,350
KEN,KE,2533.0,24784.0,54042.0,kanyangwena,12356.0,34.73406,-0.35615,3,,,2013.0,,,60.0,2,,,60.0,1,,,60.0,0,,,1,6300,0.0333333333333333,0.0166666666666666,0.0,0.0466457023060796,4.452779631596059,389,389,389,351
KEN,KE,2528.0,24763.0,24763.0,kanyenyaini,12475.0,36.90100972,-0.6854525,3,,,2013.0,,,60.0,0,,,60.0,0,,,60.0,0,,,1,19300,0.0,0.0,0.0,0.0,1984.5049466502262,390,390,390,352
KEN,KE,2533.0,24789.0,54244.0,kanyibok,,34.0769,-0.082619,3,,,1994.0,9.0,18.0,79.0,30,,,79.0,9,,,79.0,41,,,3,31583,0.379746835443038,0.1139240506329113,0.5189873417721519,0.6939995982559763,2328.080222775248,391,391,391,353
KEN,KE,2533.0,24789.0,54244.0,kanyichudo,,34.4338,-0.161849,3,,,1998.0,12.0,18.0,17.0,1,,,17.0,3,,,17.0,4,,,3,30401,0.0588235294117647,0.1764705882352941,0.2352941176470588,0.3842328208948918,1015.0714472793243,392,392,392,354
KEN,KE,2534.0,24790.0,24790.0,kapindasum,12315.0,36.18298,0.481,3,,,2013.0,,,63.0,0,,,63.0,0,,,63.0,1,,,1,19450,0.0,0.0,0.0158730158730158,0.01497454327643,5634.503387734853,393,393,393,355
KEN,KE,2534.0,24794.0,54074.0,kapkares,52985.0,35.111801,-0.26301,3,,,2012.0,,,108.0,1,,,108.0,48,,,108.0,3,,,1,6841,0.0092592592592592,0.4444444444444444,0.0277777777777777,0.4385638550267015,169.32802154159535,394,394,394,356
KEN,KE,2534.0,24797.0,54216.0,kapkerer,53493.0,34.7989334,0.0095736,1,,,1994.0,,,57.0,3,,,57.0,24,,,57.0,1,,,3,7269,0.0526315789473684,0.4210526315789473,0.0175438596491228,0.4350433392842897,3605.831433427334,395,395,395,357
KEN,KE,2534.0,24794.0,54074.0,kaplemeiwet,52986.0,35.210079,-0.37094,3,,,2012.0,,,108.0,12,,,108.0,30,,,108.0,14,,,1,6839,0.1111111111111111,0.2777777777777778,0.1296296296296296,0.416267653630803,4722.171349090462,396,396,396,358
KEN,KE,2534.0,24790.0,24790.0,kapngelel,12316.0,35.80846,0.46873,3,,,2013.0,,,38.0,0,,,38.0,0,,,38.0,0,,,1,19451,0.0,0.0,0.0,0.0,4348.345474127712,397,397,397,359
KEN,KE,2534.0,24803.0,24803.0,kaprom,12628.0,35.14378,1.30375,3,,,2013.0,,,60.0,1,,,60.0,0,,,60.0,0,,,1,19573,0.0166666666666666,0.0,0.0,0.0157232704402515,5950.830382347333,398,398,398,360
KEN,KE,2534.0,24802.0,24802.0,kapsaos,103874.0,35.3356518,-0.2827474,1,,,2013.0,8.0,0.0,53.0,0,,,53.0,1,,,53.0,0,,,1,810,0.0,0.0188679245283018,0.0,0.0177999288002847,4227.64028517482,399,399,399,361
KEN,KE,2534.0,24798.0,24798.0,kapsasian,12542.0,35.1301,-0.96691,3,,,2015.0,,,57.0,0,,,57.0,5,,,57.0,0,,,1,19531,0.0,0.087719298245614,0.0,0.0827540549486924,3236.007830995232,400,400,400,362
KEN,KE,2534.0,24794.0,54074.0,kapsewa,52987.0,35.114151,-0.38600999,3,,,2012.0,,,108.0,1,,,108.0,39,,,108.0,3,,,1,6844,0.0092592592592592,0.3611111111111111,0.0277777777777777,0.3628389993184425,1430.6157357195268,401,401,401,363
KEN,KE,2534.0,24797.0,24797.0,kapsile,12537.0,35.19438,0.3636,3,,,2013.0,,,54.0,0,,,54.0,0,,,54.0,0,,,1,19523,0.0,0.0,0.0,0.0,10802.66224433765,402,402,402,364
KEN,KE,2534.0,24800.0,24800.0,kapsitwet,12603.0,34.968603,1.100212,3,,,2013.0,,,57.0,0,,,57.0,1,,,57.0,0,,,1,19552,0.0,0.0175438596491228,0.0,0.0165508109897384,8766.511207574991,403,403,403,365
KEN,KE,2534.0,24794.0,54074.0,kapsomboch,52988.0,35.070919,-0.33521,3,,,2012.0,,,108.0,1,,,108.0,3,,,108.0,1,,,1,6838,0.0092592592592592,0.0277777777777777,0.0092592592592592,0.0431118307724604,6586.678003921702,404,404,404,366
KEN,KE,2534.0,24796.0,24796.0,kapsorok,12518.0,35.77504,-0.21291,3,,,2013.0,,,63.0,0,,,63.0,0,,,63.0,0,,,1,19516,0.0,0.0,0.0,0.0,6475.947906877835,405,405,405,367
KEN,KE,2534.0,24803.0,24803.0,kaptabuk,12629.0,35.36188,1.19436,3,,,2013.0,,,60.0,0,,,60.0,0,,,60.0,2,,,1,19574,0.0,0.0,0.0333333333333333,0.0314465408805031,7926.754526051401,406,406,406,368
KEN,KE,2534.0,24790.0,24790.0,kaptara,12317.0,35.64695,0.54942,3,,,2013.0,,,55.0,0,,,55.0,0,,,55.0,0,,,1,19453,0.0,0.0,0.0,0.0,3800.8256892928775,407,407,407,369
KEN,KE,2534.0,24794.0,54074.0,kaptoboit,52989.0,35.19978,-0.32979,3,,,2012.0,,,108.0,3,,,108.0,24,,,108.0,4,,,1,6833,0.0277777777777777,0.2222222222222222,0.037037037037037,0.2564467565632252,4351.849709435101,408,408,408,370
KEN,KE,2534.0,24796.0,24796.0,kapyemit,12519.0,36.0447,-0.5284500000000001,3,,,2013.0,,,64.0,0,,,64.0,0,,,64.0,0,,,1,19511,0.0,0.0,0.0,0.0,8535.277950452652,409,409,409,371
KEN,KE,2533.0,24784.0,54044.0,karabondi,53590.0,34.7243495,-0.3816863,1,,,1996.0,,,42.0,2,,,42.0,5,,,42.0,1,,,3,6643,0.0476190476190476,0.119047619047619,0.0238095238095238,0.17073016687957,1436.8474589813427,410,410,410,372
KEN,KE,2528.0,24765.0,24765.0,karangia,12562.0,36.90498,-0.49654,3,,,2013.0,,,59.0,0,,,59.0,0,,,59.0,1,,,1,19344,0.0,0.0,0.0169491525423728,0.0159897665494083,4185.967726082374,411,411,411,373
KEN,KE,2534.0,24796.0,54212.0,karda,53256.0,34.62183,-1.0158401,3,,,2012.0,,,108.0,18,,,108.0,32,,,108.0,43,,,1,7227,0.1666666666666666,0.2962962962962963,0.3981481481481481,0.6104360241909741,1504.048063791496,412,412,412,374
KEN,KE,2528.0,24762.0,1948.0,karira,,37.348598,-0.663675,3,,,2004.0,5.0,16.0,45.0,3,,,45.0,2,,,45.0,0,,,2,30479,0.0666666666666666,0.0444444444444444,0.0,0.1020265548567435,171.13078077479474,413,413,413,375
KEN,KE,2528.0,24762.0,1948.0,karuangi,,37.438801,-0.554905,3,,,2004.0,5.0,16.0,14.0,2,,,14.0,0,,,14.0,1,,,2,30455,0.1428571428571428,0.0,0.0714285714285714,0.1925298421255294,1300.2285466861517,414,414,414,376
KEN,KE,2533.0,24786.0,54112.0,karunga,,34.1573669,-0.8433537,1,,,2008.0,5.0,16.0,158.0,0,,,158.0,0,,,158.0,42,,,1,28849,0.0,0.0,0.2658227848101265,0.250776212085025,2150.581268486611,415,415,415,377
KEN,KE,2533.0,24789.0,54244.0,kasau,,34.117001,-0.0144,3,,,2005.0,5.0,20.0,64.0,20,,,64.0,6,,,64.0,5,,,2,30378,0.3125,0.09375,0.078125,0.4015364736880896,1949.200441763024,416,416,416,378
KEN,KE,2533.0,24784.0,54044.0,kasimba,53593.0,34.727113,-0.5313329999999999,1,,,2007.0,,,92.0,18,,,92.0,42,,,92.0,11,,,1,6653,0.1956521739130435,0.4565217391304347,0.1195652173913043,0.5803036282800212,0.0,417,417,418,379
KEN,KE,2533.0,24784.0,54044.0,kasimba,53593.0,34.727113,-0.5313329999999999,1,,,2007.0,,,92.0,9,,,92.0,41,,,92.0,4,,,1,6644,0.0978260869565217,0.4456521739130434,0.0434782608695652,0.4921001130493709,0.0,418,418,417,379
KEN,KE,2534.0,24790.0,24790.0,kasok,12318.0,35.8151,0.7232000000000001,3,,,2013.0,,,60.0,0,,,60.0,0,,,60.0,0,,,1,19456,0.0,0.0,0.0,0.0,1289.005059697495,419,419,419,380
KEN,KE,2533.0,24784.0,54044.0,katanga,53594.0,34.655441,-0.58455002,3,,,2012.0,,,108.0,29,,,108.0,9,,,108.0,3,,,1,6648,0.2685185185185185,0.0833333333333333,0.0277777777777777,0.3283971646349354,8314.447990217159,420,420,420,381
KEN,KE,2533.0,24786.0,54112.0,katho,,34.8789697,-0.1879914999999999,1,,,2008.0,5.0,16.0,25.0,8,,,25.0,5,,,25.0,2,,,1,28841,0.32,0.2,0.08,0.4712452830188678,1422.8949539432053,421,421,421,382
KEN,KE,2529.0,24766.0,1947.0,katofeni,,39.651402,-3.57379,3,,,1985.0,1.0,99.0,50.0,23,,,50.0,6,,,50.0,2,,,3,28984,0.46,0.12,0.04,0.5130264150943397,0.0,422,422,423,383
KEN,KE,2529.0,24766.0,1947.0,katofeni,,39.651402,-3.57379,3,,,2008.0,5.0,16.0,107.0,0,,,107.0,3,,,107.0,7,,,1,29011,0.0,0.02803738317757,0.0654205607476635,0.0864374741470376,0.0,423,423,422,383
KEN,KE,2535.0,24805.0,24805.0,kawalun,12332.0,34.390758,0.753869,3,,,2015.0,,,59.0,5,,,59.0,0,,,59.0,0,,,1,19593,0.0847457627118644,0.0,0.0,0.0799488327470418,15128.491481187237,424,424,424,384
KEN,KE,2533.0,24789.0,54244.0,kawino,,34.283821,-0.18566,3,,,1998.0,12.0,18.0,20.0,0,,,20.0,1,,,20.0,2,,,3,30398,0.0,0.05,0.1,0.1367924528301886,2674.020594895234,425,425,425,385
KEN,KE,2535.0,24807.0,54276.0,kayila,52881.0,34.56908,-0.02802,3,,,2012.0,,,108.0,19,,,108.0,62,,,108.0,8,,,1,7556,0.1759259259259259,0.5740740740740741,0.074074074074074,0.6367972457795684,2630.6568589384806,426,426,426,386
KEN,KE,2533.0,24789.0,54244.0,kayogo,,34.334499,-0.058317,3,,,2005.0,5.0,20.0,40.0,24,,,40.0,17,,,40.0,13,,,2,30368,0.6,0.425,0.325,0.7969339622641509,0.0,427,427,428,387
KEN,KE,2533.0,24789.0,54244.0,kayogo,52763.0,34.334499,-0.058317,3,,,2005.0,,,39.0,22,,,39.0,13,,,39.0,12,,,2,7316,0.5641025641025641,0.3333333333333333,0.3076923076923077,0.7536005358937143,0.0,428,428,427,387
KEN,KE,2532.0,24781.0,1938.0,kazuko,,39.6362,-0.4458209999999999,3,,,2009.0,5.0,15.0,98.0,1,,,98.0,1,,,98.0,1,,,1,28991,0.010204081632653,0.010204081632653,0.010204081632653,0.0285857901269157,0.001113228478061501,429,429,430,388
KEN,KE,2532.0,24781.0,54036.0,kazuko,52887.0,39.6362,-0.44582099,3,,,2009.0,,,98.0,0,,,98.0,1,,,98.0,1,,,1,6608,0.0,0.010204081632653,0.010204081632653,0.0191547547012644,0.001113228478061501,430,430,429,388
KEN,KE,2533.0,24785.0,54098.0,kebabe,52904.0,34.729652,-0.86981201,3,,,2012.0,,,108.0,7,,,108.0,34,,,108.0,1,,,1,6995,0.0648148148148148,0.3148148148148148,0.0092592592592592,0.3444887432790867,3271.5895931686973,431,431,431,389
KEN,KE,2533.0,24785.0,54098.0,keera,52905.0,34.891102,-0.8745099900000001,3,,,2009.0,,,92.0,2,,,92.0,21,,,0.0,0,,,1,7003,0.0217391304347826,0.2282608695652173,,,2113.1767542097878,432,432,432,390
KEN,KE,2533.0,24785.0,54098.0,keera pag,52906.0,34.810875,-0.87045401,3,,,2012.0,,,108.0,13,,,108.0,33,,,108.0,0,,,1,7005,0.1203703703703703,0.3055555555555556,0.0,0.3671189533348862,2436.166827545567,433,433,433,391
KEN,KE,2533.0,24784.0,54044.0,kendu muslim secondary school,53595.0,34.63995,-0.36006001,3,,,0.0,,,89.0,8,,,89.0,2,,,89.0,1,,,3,6682,0.0898876404494382,0.0224719101123595,0.0112359550561797,0.113524328127154,1145.434261155431,434,434,434,392
KEN,KE,2534.0,24790.0,24790.0,keneroi,12319.0,36.22472,0.25552,3,,,2013.0,,,61.0,0,,,61.0,0,,,61.0,0,,,1,19464,0.0,0.0,0.0,0.0,5421.755922749934,435,435,435,393
KEN,KE,2534.0,24793.0,24793.0,kenya marble,12381.0,36.69251,-1.93978,3,,,2013.0,,,39.0,0,,,39.0,0,,,39.0,0,,,1,19495,0.0,0.0,0.0,0.0,16594.255891896475,436,436,436,394
KEN,KE,2534.0,24793.0,24793.0,kerma,12382.0,35.96717,-0.3165,3,,,2013.0,,,62.0,0,,,62.0,7,,,62.0,0,,,1,19489,0.0,0.1129032258064516,0.0,0.1065124771758977,5817.050480980435,437,437,437,395
KEN,KE,2534.0,24794.0,54074.0,kesainet,52990.0,35.11618,-0.37332001,3,,,2012.0,,,108.0,1,,,108.0,35,,,108.0,1,,,1,6840,0.0092592592592592,0.324074074074074,0.0092592592592592,0.3174842180159298,1430.6157357195268,438,438,438,396
KEN,KE,2534.0,24797.0,54216.0,kesengei,53494.0,34.8458603,0.0191392,1,,,1994.0,,,52.0,3,,,52.0,8,,,52.0,1,,,3,7271,0.0576923076923076,0.1538461538461538,0.0192307692307692,0.2056567274413651,2777.376603233074,439,439,439,397
KEN,KE,2533.0,24789.0,54244.0,keyo kodindo,,34.311501,-0.05341,3,,,2005.0,5.0,20.0,46.0,28,,,46.0,17,,,46.0,8,,,2,30367,0.6086956521739131,0.3695652173913043,0.1739130434782608,0.7511425119911421,967.2742915302874,440,440,440,398
KEN,KE,2535.0,24804.0,54020.0,khalala,52814.0,34.654621,0.46992999,3,,,2012.0,,,107.0,47,,,107.0,46,,,107.0,2,,,1,6510,0.4392523364485981,0.4299065420560747,0.0186915887850467,0.647449741425326,1684.6617077440512,441,441,441,399
KEN,KE,2529.0,24766.0,54092.0,khombeni,,39.747299,-3.14289,3,,,2008.0,5.0,16.0,109.0,0,,,109.0,12,,,109.0,0,,,1,29079,0.0,0.110091743119266,0.0,0.1038601350181755,0.0,442,442,443,400
KEN,KE,2529.0,24766.0,54091.0,khombeni,53370.0,39.747299,-3.14289,3,,,2012.0,,,108.0,36,,,108.0,2,,,108.0,2,,,1,6906,0.3333333333333333,0.0185185185185185,0.0185185185185185,0.3375434600685008,0.0,443,443,442,400
KEN,KE,2535.0,24805.0,54022.0,khunyangu,52859.0,34.272659,0.33792001,3,,,2012.0,,,106.0,18,,,106.0,2,,,106.0,2,,,1,6556,0.1698113207547169,0.0188679245283018,0.0188679245283018,0.1894751409958404,4815.820392961255,444,444,444,401
KEN,KE,2528.0,24765.0,24765.0,kiahuria,12563.0,36.8323375,-0.194976944,3,,,2013.0,,,59.0,0,,,59.0,0,,,59.0,0,,,1,19346,0.0,0.0,0.0,0.0,2824.4123337978062,445,445,445,402
KEN,KE,2528.0,24762.0,1948.0,kiamanyeki,,37.372501,-0.710932,3,,,2004.0,5.0,16.0,77.0,11,,,77.0,0,,,77.0,1,,,2,30438,0.1428571428571428,0.0,0.0129870129870129,0.1452725172401722,2733.9229334005345,446,446,446,403
KEN,KE,2533.0,24785.0,54105.0,kiamirega,53390.0,34.91515,-0.80655003,3,,,2012.0,,,108.0,5,,,108.0,30,,,108.0,1,,,1,7021,0.0462962962962962,0.2777777777777778,0.0092592592592592,0.2996147547112295,1654.42077075228,447,447,447,404
KEN,KE,2533.0,24785.0,54105.0,kiamokama deb,53391.0,34.88163,-0.83047003,3,,,2012.0,,,108.0,0,,,108.0,19,,,108.0,0,,,1,7024,0.0,0.1759259259259259,0.0,0.1659678546470999,3045.733033920106,448,448,448,405
KEN,KE,2528.0,24765.0,24765.0,kiamurathe,12564.0,37.03763,-0.57991,3,,,2013.0,,,58.0,0,,,58.0,2,,,58.0,0,,,1,19334,0.0,0.0344827586206896,0.0,0.0325309043591411,918.7917145188741,449,449,449,406
KEN,KE,2528.0,24763.0,24763.0,kiamuturi,12476.0,36.84308,-0.61133,3,,,2013.0,,,56.0,0,,,56.0,4,,,56.0,0,,,1,19308,0.0,0.0714285714285714,0.0,0.0673854447439353,5163.54334329424,450,450,450,407
KEN,KE,2528.0,24762.0,1948.0,kiandegwa,,37.337299,-0.752686,3,,,2004.0,5.0,16.0,108.0,6,,,108.0,0,,,108.0,2,,,2,30459,0.0555555555555555,0.0,0.0185185185185185,0.0689106297072754,2396.4941918264317,451,451,451,408
KEN,KE,2528.0,24762.0,54094.0,kiandegwa,53116.0,37.3132471,-0.7468996999999999,1,,,2004.0,,,108.0,6,,,108.0,0,,,108.0,2,,,2,6964,0.0555555555555555,0.0,0.0185185185185185,0.0689106297072754,582.0639512360289,452,452,452,409
KEN,KE,2528.0,24765.0,24765.0,kiangurwe,12565.0,37.09892,-0.42919,3,,,2013.0,,,58.0,0,,,58.0,0,,,58.0,0,,,1,19339,0.0,0.0,0.0,0.0,4725.755101901263,453,453,453,410
KEN,KE,2528.0,24762.0,1948.0,kianjege west,,37.167801,-0.575372,3,,,2009.0,5.0,15.0,107.0,2,,,0.0,0,,,107.0,4,,,1,28944,0.0186915887850467,,0.0373831775700934,,7379.969796817931,454,454,454,411
KEN,KE,2528.0,24762.0,1948.0,kiarukungu,,37.3601,-0.652577,3,,,2004.0,5.0,16.0,47.0,6,,,47.0,0,,,47.0,0,,,2,30430,0.1276595744680851,0.0,0.0,0.1204335608189482,1378.4839931170925,455,455,455,412
KEN,KE,2528.0,24761.0,54081.0,kiawarogia,12394.0,36.71098,-1.10308,3,,,2013.0,,,60.0,0,,,60.0,4,,,60.0,0,,,1,6183,0.0,0.0666666666666666,0.0,0.0628930817610062,3514.621616618369,456,456,456,413
KEN,KE,2531.0,24780.0,,kibera (psac),,36.788283,-1.312797,3,,,2012.0,0.0,14.0,,0,,,,50,,,,47,,,2,29662,,,,,0.0,457,457,459,414
KEN,KE,2531.0,24780.0,54195.0,kibera (psac),53485.0,36.7879475,-1.3114845,1,,,2012.0,,,0.0,0,,,207.5,50,,,195.8,47,,,1,7262,,0.2409638554216867,0.2400408580183861,,0.0,458,458,460,415
KEN,KE,2531.0,24780.0,,kibera (sac),,36.788283,-1.312797,3,,,2012.0,0.0,14.0,,1,,,,109,,,,135,,,2,29509,,,,,0.0,459,459,457,414
KEN,KE,2531.0,24780.0,54195.0,kibera (sac),53486.0,36.7879475,-1.3114845,1,,,2012.0,,,5.0,1,,,480.2,109,,,468.8,135,,,1,7263,0.2,0.2269887546855477,0.2879692832764505,0.5279941501610467,0.0,460,460,458,415
KEN,KE,2528.0,24761.0,54081.0,kibichoi,12395.0,36.87652,-1.05711,3,,,2013.0,,,59.0,0,,,59.0,1,,,59.0,0,,,1,6190,0.0,0.0169491525423728,0.0,0.0159897665494083,1658.7740239871334,461,461,461,416
KEN,KE,2534.0,24797.0,1976.0,kiborgok,,34.974602,0.203809,3,,,2002.0,2.0,20.0,201.0,15,,,201.0,18,,,201.0,11,,,2,29164,0.0746268656716417,0.0895522388059701,0.0547263681592039,0.1920785661340109,5766.595663810052,462,462,462,417
KEN,KE,2531.0,24780.0,,kiboro,12497.0,36.85407,-1.26546,3,,,2013.0,,,60.0,0,,,60.0,4,,,60.0,4,,,1,19384,0.0,0.0666666666666666,0.0666666666666666,0.1215932914046121,757.7237842391326,463,463,463,418
KEN,KE,2533.0,24786.0,54112.0,kibos,53205.0,34.8168791,-0.0699391999999999,1,,,2012.0,,,108.0,10,,,108.0,14,,,108.0,2,,,1,7044,0.0925925925925925,0.1296296296296296,0.0185185185185185,0.212117965987314,2687.4375103085154,464,464,464,419
KEN,KE,2533.0,24789.0,54244.0,kibuye,,34.278198,-0.13592,3,,,2005.0,5.0,20.0,40.0,19,,,40.0,7,,,40.0,5,,,2,30374,0.475,0.175,0.125,0.5858637971698112,2256.5995235006203,465,465,465,420
KEN,KE,2529.0,24767.0,1953.0,kidimu,,39.3666,-4.54641,3,,,2008.0,5.0,16.0,100.0,5,,,100.0,46,,,100.0,56,,,1,28899,0.05,0.46,0.56,0.7304528301886791,4786.760088399585,466,466,466,421
KEN,KE,2529.0,24767.0,1953.0,kidomaya,,39.176998,-4.56222,3,,,2008.0,5.0,16.0,103.0,1,,,103.0,2,,,103.0,21,,,1,29037,0.0097087378640776,0.0194174757281553,0.203883495145631,0.2140766710171579,4.687406275414464,467,467,467,422
KEN,KE,2529.0,24767.0,54123.0,kidomaya,53448.0,39.176956,-4.562223,3,,,2012.0,,,108.0,18,,,108.0,0,,,108.0,3,,,1,7182,0.1666666666666666,0.0,0.0277777777777777,0.1790705800139762,4.687406275414464,468,468,468,423
KEN,KE,2528.0,24765.0,24765.0,kieni,12566.0,37.1211,-0.52832,3,,,2013.0,,,58.0,0,,,58.0,3,,,58.0,0,,,1,19338,0.0,0.0517241379310344,0.0,0.0487963565387117,1005.6914619309138,469,469,469,424
KEN,KE,2529.0,24767.0,1953.0,kifyonzo,,39.231998,-4.1729,3,,,1999.0,5.0,16.0,244.0,103,,,244.0,11,,,0.0,0,,,3,29460,0.4221311475409836,0.0450819672131147,,,1496.883993690454,470,470,470,425
KEN,KE,2534.0,24796.0,54212.0,kigutimo,53257.0,34.686733,-1.231289,3,,,2012.0,,,108.0,22,,,108.0,1,,,108.0,0,,,1,7234,0.2037037037037037,0.0092592592592592,0.0,0.1991290731682066,1555.9078337950425,471,471,471,426
KEN,KE,2529.0,24767.0,54123.0,kigwede,53449.0,39.4572043,-4.4919164,1,,,1997.0,,,98.0,35,,,98.0,10,,,98.0,14,,,3,7168,0.3571428571428571,0.1020408163265306,0.1428571428571428,0.4766095887719738,2335.392777334341,472,472,472,427
KEN,KE,2528.0,24761.0,54081.0,kihara,12396.0,36.73842,-1.2079,3,,,2013.0,,,59.0,0,,,59.0,0,,,59.0,0,,,1,6182,0.0,0.0,0.0,0.0,4000.462501313163,473,473,473,428
KEN,KE,2528.0,24765.0,24765.0,kiirungi,12567.0,37.02133,-0.56867,3,,,2013.0,,,68.0,0,,,68.0,3,,,68.0,0,,,1,19333,0.0,0.0441176470588235,0.0,0.0416204217536071,1347.7232482009197,474,474,474,429
KEN,KE,2529.0,24766.0,1947.0,kikambala,,39.7812,-3.88999,3,,,2008.0,5.0,16.0,97.0,6,,,97.0,33,,,97.0,19,,,1,29064,0.0618556701030927,0.3402061855670103,0.1958762886597938,0.4738321102792628,4339.893308823734,475,475,475,430
KEN,KE,2529.0,24766.0,54087.0,kikambala,53026.0,39.8141748,-3.8166261,1,,,2008.0,,,97.0,6,,,97.0,33,,,97.0,19,,,1,6868,0.0618556701030927,0.3402061855670103,0.1958762886597938,0.4738321102792628,3095.8977914905195,476,476,476,431
KEN,KE,2529.0,24767.0,1953.0,kikoneni,,39.299999,-4.45,3,,,1999.0,5.0,16.0,190.0,100,,,190.0,23,,,0.0,0,,,3,29475,0.5263157894736842,0.1210526315789473,,,2964.4917266571315,477,477,477,432
KEN,KE,2529.0,24766.0,54087.0,kilifi town,53028.0,39.8473263,-3.6262849,1,,,2008.0,,,98.0,0,,,98.0,8,,,98.0,12,,,1,6853,0.0,0.0816326530612244,0.1224489795918367,0.18309980904183,398.3048693233144,478,478,478,433
KEN,KE,2529.0,24766.0,1947.0,kilifi town,,39.850899,-3.62609,3,,,1985.0,1.0,99.0,54.0,13,,,54.0,14,,,54.0,18,,,3,29004,0.2407407407407407,0.2592592592592592,0.3333333333333333,0.5896765621899559,0.0,479,479,480,434
KEN,KE,2529.0,24766.0,1947.0,kilifi town,,39.850899,-3.62609,3,,,2008.0,5.0,16.0,98.0,0,,,98.0,8,,,98.0,12,,,1,28890,0.0,0.0816326530612244,0.1224489795918367,0.18309980904183,0.0,480,480,479,434
KEN,KE,2535.0,24806.0,54067.0,kilimo,52969.0,34.61948,0.22398999,3,,,2012.0,,,107.0,29,,,107.0,14,,,107.0,3,,,1,6814,0.2710280373831775,0.1308411214953271,0.02803738317757,0.3624262461391612,2201.083908601251,481,481,481,435
KEN,KE,2534.0,24791.0,54009.0,kimaya,52729.0,35.262611,-0.87902999,3,,,2012.0,,,108.0,0,,,108.0,21,,,108.0,0,,,1,6497,0.0,0.1944444444444444,0.0,0.1834381551362683,6061.657450247677,482,482,482,436
KEN,KE,2528.0,24762.0,1948.0,kimbimbi primary,,37.370998,-0.6117589999999999,3,,,2004.0,5.0,16.0,57.0,5,,,57.0,0,,,57.0,0,,,2,30481,0.087719298245614,0.0,0.0,0.0827540549486924,650.5408962781719,483,483,483,437
KEN,KE,2534.0,24797.0,1976.0,kimondi,,35.0378,0.19257,3,,,2009.0,5.0,15.0,109.0,19,,,109.0,1,,,109.0,1,,,1,28875,0.1743119266055046,0.0091743119266055,0.0091743119266055,0.1786723301614124,6553.264383113461,484,484,484,438
KEN,KE,2534.0,24797.0,54218.0,kimondi,53489.0,35.0764221,0.2797237999999999,1,,,2009.0,,,109.0,19,,,109.0,1,,,109.0,1,,,1,7266,0.1743119266055046,0.0091743119266055,0.0091743119266055,0.1786723301614124,7978.024927551624,485,485,485,439
KEN,KE,2534.0,24790.0,24790.0,kimugul,12320.0,35.82085,0.7131500000000001,3,,,2013.0,,,62.0,0,,,62.0,0,,,62.0,0,,,1,19462,0.0,0.0,0.0,0.0,1289.005059697495,486,486,486,440
KEN,KE,2528.0,24761.0,54081.0,kingeero,12397.0,36.70672,-1.22783,3,,,2013.0,,,56.0,0,,,56.0,0,,,56.0,0,,,1,6173,0.0,0.0,0.0,0.0,1261.1869373557322,487,487,487,441
KEN,KE,2528.0,24762.0,1948.0,kinyaga,,37.266499,-0.663667,3,,,2004.0,5.0,16.0,56.0,5,,,56.0,0,,,56.0,0,,,2,30483,0.0892857142857142,0.0,0.0,0.0842318059299191,2474.311923258522,488,488,488,442
KEN,KE,2530.0,24779.0,54258.0,kiorimba,12590.0,37.59037,-0.04145,3,,,2015.0,,,60.0,0,,,60.0,0,,,60.0,0,,,1,6266,0.0,0.0,0.0,0.0,1345.7570616344003,489,489,489,443
KEN,KE,2528.0,24762.0,1948.0,kiorugari,,37.348,-0.613566,3,,,2004.0,5.0,16.0,67.0,18,,,67.0,1,,,67.0,1,,,2,30422,0.2686567164179104,0.0149253731343283,0.0149253731343283,0.2738914530522026,244.95816992620732,490,490,490,444
KEN,KE,2529.0,24767.0,54124.0,kipambani,53285.0,39.3984056,-4.3317909,1,,,2002.0,,,97.0,23,,,97.0,1,,,0.0,0,,,2,7146,0.2371134020618556,0.0103092783505154,,,4113.7934285436495,491,491,491,445
KEN,KE,2529.0,24769.0,54175.0,kipevu,53065.0,39.628761,-4.0285001,3,,,2012.0,,,103.0,1,,,103.0,0,,,103.0,20,,,1,7257,0.0097087378640776,0.0,0.1941747572815534,0.1905644371012863,925.8703257737219,492,492,492,446
KEN,KE,2529.0,24771.0,1987.0,kipini,,40.5284,-2.5213,3,,,2009.0,5.0,15.0,0.0,0,,,106.0,25,,,106.0,9,,,1,28844,,0.2358490566037736,0.0849056603773584,,2074.6918668909234,493,493,493,447
KEN,KE,2534.0,24791.0,54009.0,kiplokyi,52730.0,35.325333,-0.67673498,3,,,2012.0,,,108.0,1,,,108.0,59,,,108.0,11,,,1,6498,0.0092592592592592,0.5462962962962963,0.1018518518518518,0.5625282484454068,1961.3680619030827,494,494,494,448
KEN,KE,2534.0,24790.0,24790.0,kipsoit,12321.0,35.65047,0.51546,3,,,2013.0,,,63.0,1,,,63.0,0,,,63.0,0,,,1,19460,0.0158730158730158,0.0,0.0,0.01497454327643,3800.8256892928775,495,495,495,449
KEN,KE,2534.0,24796.0,24796.0,kiptororo,12520.0,35.50379,-0.37716,3,,,2015.0,,,61.0,0,,,61.0,1,,,61.0,2,,,1,19509,0.0,0.0163934426229508,0.0327868852459016,0.0458894697611212,9766.187509027604,496,496,496,450
KEN,KE,2533.0,24786.0,54113.0,kirindo,53231.0,34.482899,-0.16674,3,,,2007.0,,,135.0,18,,,135.0,48,,,135.0,57,,,1,7068,0.1333333333333333,0.3555555555555555,0.4222222222222222,0.6389626523798431,1214.8253826273326,497,497,497,451
KEN,KE,2528.0,24765.0,24765.0,kirinyaga,12568.0,37.10245,-0.2157,3,,,2013.0,,,59.0,0,,,59.0,0,,,59.0,0,,,1,19343,0.0,0.0,0.0,0.0,4822.545579746096,498,498,498,452
