iso3,iso2,admin1_id,admin2_id,iu_id,location,site_id,longitude,latitude,georeliability,location_type,survey_type,year,age_start,age_end,hk_examined,hk_positive,hk_perc_highinfection,hk_perc_moderateinfection,asc_examined,asc_positive,asc_perc_highinfection,asc_perc_moderateinfection,tt_examined,tt_positive,tt_perc_highinfection,tt_perc_moderateinfection,quality,sn,hk_prevalence,asc_prevalence,tt_prevalence,sth_prevalence,shortest,id,src,dst,identifier
MRT,MR,3226.0,31058.0,31058.0,adel bagrou,13380.0,-7.033361111,15.53516667,3,,,2015,,,9,4,,,161,5,,,161,0,,,1,9513,0.4444444444444444,0.031055900621118,0.0,0.4355638892144223,0.0,0,0,1,1
MRT,MR,3226.0,31058.0,31058.0,adelbegrou,13381.0,-7.033361111,15.53516667,3,,,2015,,,0,0,,,0,0,,,0,0,,,1,9514,,,,,0.0,1,1,0,1
MRT,MR,3227.0,31067.0,31067.0,agargar,13505.0,-10.36677778,16.15180556,3,,,2015,,,109,2,,,109,2,,,109,0,,,1,9547,0.018348623853211,0.018348623853211,0.0,0.0343024299142598,6.439073002431542,2,2,2,2
MRT,MR,3227.0,31067.0,31067.0,agarghar,13506.0,-10.36677778,16.15175,3,,,2015,,,0,0,,,0,0,,,0,0,,,1,9545,,,,,6.439073002431542,3,3,3,3
MRT,MR,3221.0,31043.0,31043.0,aghmamine   ecole aghmamine,13438.0,-11.5499999,15.8666667,3,,,2015,,,50,1,,,50,1,,,50,0,,,1,9501,0.02,0.02,0.0,0.0373584905660377,7440.7786111369805,4,4,4,4
MRT,MR,3221.0,31043.0,31043.0,aguamine,13439.0,-11.52701,15.92703,1,,,2015,,,0,0,,,0,0,,,0,0,,,1,9497,,,,,330.6188876563683,5,5,5,5
MRT,MR,3228.0,31068.0,31068.0,akjoujt ville,13377.0,-14.3879205,19.7461122,1,,,2015,,,0,0,,,0,0,,,0,0,,,1,9553,,,,,0.0,6,6,9,6
MRT,MR,3228.0,31068.0,31068.0,akjoujt ville   ecole 1,13373.0,-14.3883752,19.7461659,1,,,2015,,,50,3,,,50,1,,,50,0,,,1,9551,0.06,0.02,0.0,0.0743396226415094,51.01389216733759,7,7,7,7
MRT,MR,3228.0,31068.0,31068.0,akjoujt ville   ecole 4,13374.0,-14.3856927,19.7503366,1,,,2015,,,26,0,,,26,0,,,26,0,,,1,9550,0.0,0.0,0.0,0.0,557.8053295133187,8,8,8,8
MRT,MR,3228.0,31068.0,31068.0,akjoujt ville   ecole 5,13375.0,-14.3879205,19.7461122,1,,,2015,,,49,2,,,49,0,,,49,0,,,1,9548,0.0408163265306122,0.0,0.0,0.0385059684251058,0.0,9,9,6,6
MRT,MR,3228.0,31068.0,31068.0,akjoujt ville   ecole 8,13376.0,-14.3879205,19.7461122,1,,,2015,,,47,1,,,47,0,,,47,0,,,1,9549,0.0212765957446808,0.0,0.0,0.0200722601364913,0.0,10,10,6,6
MRT,MR,3228.0,31068.0,31068.0,al asma,13378.0,-14.38319444,19.74536111,3,,,2015,,,0,0,,,0,0,,,0,0,,,1,9554,,,,,533.5498784782646,11,11,11,9
MRT,MR,3220.0,31036.0,31036.0,amdeir,13391.0,-13.02989166,20.50180833,3,,,2015,,,49,3,,,49,0,,,49,0,,,1,9479,0.0612244897959183,0.0,0.0,0.0577589526376588,1355.5422728830947,12,12,12,10
MRT,MR,3220.0,31035.0,31035.0,aoujeft,13387.0,-13.0594443,19.9622222,3,,,2015,,,0,0,,,0,0,,,0,0,,,1,9474,,,,,0.0,13,13,14,11
MRT,MR,3220.0,31035.0,31035.0,aoujeft   ecole 1,13384.0,-13.0594443,19.9622222,3,,,2015,,,51,4,,,51,0,,,51,0,,,1,9471,0.0784313725490196,0.0,0.0,0.0739918608953015,0.0,14,14,13,11
MRT,MR,3220.0,31035.0,31035.0,aoujeft   ecole 2,13385.0,-13.0594443,19.9622222,3,,,2015,,,48,0,,,48,0,,,48,0,,,1,9475,0.0,0.0,0.0,0.0,0.0,15,15,13,11
MRT,MR,3220.0,31035.0,31035.0,aoujeft   ecole 3,13386.0,-13.0594443,19.9622222,3,,,2015,,,50,0,,,50,0,,,50,0,,,1,9476,0.0,0.0,0.0,0.0,0.0,16,16,13,11
MRT,MR,3228.0,31068.0,31068.0,asma   ecole asma,13379.0,-14.37513889,19.74536111,3,,,2015,,,50,3,,,50,2,,,50,0,,,1,9552,0.06,0.04,0.0,0.0920754716981132,896.739724059822,17,17,17,12
MRT,MR,3220.0,31036.0,31036.0,atar   atar ville,13393.0,-12.99016667,20.57394444,3,,,2015,,,47,2,,,49,0,,,49,2,,,1,9477,0.0425531914893617,0.0,0.0408163265306122,0.0770119368502117,0.0,18,18,19,13
MRT,MR,3220.0,31036.0,31036.0,atar ville,13394.0,-12.99016667,20.57394444,3,,,2015,,,0,0,,,0,0,,,0,0,,,1,9478,,,,,0.0,19,19,18,13
MRT,MR,3223.0,31051.0,31051.0,bagdad   ecole bagdad,13468.0,-17.03855556,20.94055556,3,,,2015,,,52,3,,,52,1,,,52,0,,,1,9510,0.0576923076923076,0.0192307692307692,0.0,0.0715222730825052,1577.930579486735,20,20,20,14
MRT,MR,3229.0,31074.0,31074.0,basra   ecole ahmed zeina,13486.0,-15.99002778,18.07744444,3,,,2015,,,50,8,,,50,1,,,50,1,,,1,9570,0.16,0.02,0.02,0.1823245283018867,0.0,21,21,22,15
MRT,MR,3229.0,31074.0,31074.0,basra   ecole sakho,13487.0,-15.99002778,18.07744444,3,,,2015,,,50,9,,,50,0,,,50,0,,,1,9567,0.18,0.0,0.0,0.1698113207547169,0.0,22,22,21,15
MRT,MR,3226.0,31059.0,31059.0,bassiknou,13405.0,-5.9541824,15.861876,1,,,2015,,,0,0,,,0,0,,,0,0,,,1,9518,,,,,0.0,23,23,24,16
MRT,MR,3226.0,31059.0,31059.0,bassiknou   ecole 2,13404.0,-5.9541824,15.861876,1,,,2015,,,2,0,,,152,2,,,152,0,,,1,9520,0.0,0.0131578947368421,0.0,0.0124131082423038,0.0,24,24,23,16
MRT,MR,3226.0,31060.0,31060.0,bneibarie,13424.0,-8.6672,15.8936801,1,,,2015,,,0,0,,,0,0,,,0,0,,,1,9521,,,,,0.0,25,25,26,17
MRT,MR,3226.0,31060.0,31060.0,bneibarive,13425.0,-8.6672,15.8936801,1,,,2015,,,4,2,,,155,2,,,155,0,,,1,9522,0.5,0.0129032258064516,0.0,0.4777845404747413,0.0,26,26,25,17
MRT,MR,3221.0,31044.0,31044.0,boughara,13448.0,-12.03712963,16.61425,3,,,2015,,,0,0,,,0,0,,,0,0,,,1,9507,,,,,8477.169989776872,27,27,27,18
MRT,MR,3221.0,31044.0,31044.0,boughara   ecole boughara,13447.0,-11.9725,16.55941667,3,,,2015,,,116,0,,,116,2,,,116,0,,,1,9506,0.0,0.0172413793103448,0.0,0.0162654521795705,9608.648099300572,28,28,28,19
MRT,MR,3223.0,31051.0,31051.0,boulenoir   ecole boulenoir,13469.0,-16.4999999,21.2666667,3,,,2015,,,48,2,,,48,1,,,48,0,,,1,9511,0.0416666666666666,0.0208333333333333,0.0,0.0581433438155136,66869.2079131951,29,29,29,20
MRT,MR,3232.0,31084.0,31084.0,breun,,-14.39,17.51,3,,,1994,5.0,14.0,100,0,,,100,4,,,100,9,,,3,30607,0.0,0.04,0.09,0.1192452830188679,0.0,30,30,39,21
MRT,MR,3223.0,31051.0,31051.0,cansado   ecole cansado,13470.0,-17.0347509,20.8518138,1,,,2015,,,35,2,,,35,0,,,35,0,,,1,9512,0.0571428571428571,0.0,0.0,0.0539083557951482,9331.07741382541,31,31,31,22
MRT,MR,3220.0,31037.0,31037.0,chinghitty   chinghitty 2,13414.0,-12.35666667,20.46,3,,,2015,,,82,7,,,82,0,,,82,0,,,1,9482,0.0853658536585365,0.0,0.0,0.0805338242061665,0.0,32,32,33,23
MRT,MR,3220.0,31037.0,31037.0,chinghitty   chinghitty 3,13415.0,-12.35666667,20.46,3,,,2015,,,69,6,,,69,3,,,69,2,,,1,9484,0.0869565217391304,0.0434782608695652,0.0289855072463768,0.1433664520951351,0.0,33,33,32,23
MRT,MR,3220.0,31037.0,31037.0,chinghitty   chinghitty1,13416.0,-12.35666667,20.46,3,,,2015,,,104,10,,,104,3,,,104,3,,,1,9483,0.0961538461538461,0.0288461538461538,0.0288461538461538,0.1391950241968035,0.0,34,34,32,23
MRT,MR,3220.0,31037.0,31037.0,chinguitty,13417.0,-12.3664341,20.4615121,1,,,2015,,,0,0,,,0,0,,,0,0,,,1,9481,,,,,1102.0484758029077,35,35,35,24
MRT,MR,3229.0,31074.0,31074.0,couve   ecole hafez,13488.0,-15.99002778,18.07744444,3,,,2015,,,50,3,,,50,2,,,50,0,,,1,9571,0.06,0.04,0.0,0.0920754716981132,0.0,36,36,21,15
MRT,MR,3230.0,31078.0,31078.0,dar el barka,13458.0,-12.33185,16.69212,1,,,2015,,,50,1,,,50,3,,,50,0,,,1,9575,0.02,0.06,0.0,0.0743396226415094,0.0,37,37,38,25
MRT,MR,3230.0,31078.0,31078.0,dar el barka,13459.0,-12.33185,16.69212,1,,,2015,,,0,0,,,0,0,,,0,0,,,1,9576,,,,,0.0,38,38,37,25
MRT,MR,3232.0,31084.0,31084.0,dar el mourad,,-14.39,17.51,3,,,1994,5.0,14.0,44,0,,,44,0,,,44,0,,,3,30605,0.0,0.0,0.0,0.0,0.0,39,39,30,21
MRT,MR,3229.0,31070.0,31070.0,dar naim,13423.0,-15.9288641,18.1047891,1,,,2015,,,0,0,,,0,0,,,0,0,,,1,9555,,,,,0.0,40,40,41,26
MRT,MR,3229.0,31070.0,31070.0,dar naim   ecole abdel aziz sy,13418.0,-15.9288641,18.1047891,1,,,2015,,,50,3,,,50,0,,,50,0,,,1,9558,0.06,0.0,0.0,0.0566037735849056,0.0,41,41,40,26
MRT,MR,3229.0,31070.0,31070.0,dar naim   ecole ahmed deyd,13419.0,-15.9288641,18.1047891,1,,,2015,,,51,5,,,51,1,,,51,0,,,1,9559,0.0980392156862745,0.0196078431372549,0.0,0.1091742653406164,0.0,42,42,40,26
MRT,MR,3229.0,31070.0,31070.0,dar naim   ecole hamoudy,13420.0,-15.9288641,18.1047891,1,,,2015,,,35,3,,,35,1,,,35,0,,,1,9560,0.0857142857142857,0.0285714285714285,0.0,0.1055063534847901,0.0,43,43,40,26
MRT,MR,3229.0,31070.0,31070.0,dar naim   ecole slm ibn veriz,13421.0,-15.9288641,18.1047891,1,,,2015,,,50,6,,,50,3,,,50,0,,,1,9557,0.12,0.06,0.0,0.1630188679245282,0.0,44,44,40,26
MRT,MR,3229.0,31070.0,31070.0,dar naim   ecole zd ibn hariz,13422.0,-15.9288641,18.1047891,1,,,2015,,,49,6,,,49,0,,,49,0,,,1,9556,0.1224489795918367,0.0,0.0,0.1155179052753176,0.0,45,45,40,26
MRT,MR,3220.0,31038.0,31038.0,ecole 1,13474.0,-11.61858333,21.01563889,3,,,2015,,,0,0,,,0,0,,,0,0,,,1,9487,,,,,0.0,46,46,94,27
MRT,MR,3227.0,31065.0,31065.0,eghligue ehawje,13453.0,-9.019166667,15.73833333,3,,,2015,,,0,0,,,0,0,,,0,0,,,1,9538,,,,,14067.202542125946,47,47,47,28
MRT,MR,3231.0,31082.0,31082.0,"el kousla,",13426.0,-12.7,22.68,3,,,2015,,,0,0,,,0,0,,,0,0,,,1,9584,,,,,1195.0204862118358,48,48,48,29
MRT,MR,3231.0,31082.0,31082.0,fderik   ecole aiba,104709.0,-12.7106394,22.6786807,1,,,2015,7.0,0.0,114,2,,,114,1,,,114,1,,,1,919,0.0175438596491228,0.0087719298245614,0.0087719298245614,0.0327399391292857,0.0,49,49,50,30
MRT,MR,3231.0,31082.0,31082.0,fderik   ecole cheikh el welly,104710.0,-12.7106394,22.6786807,1,,,2015,6.0,0.0,113,3,,,113,2,,,113,0,,,1,920,0.0265486725663716,0.0176991150442477,0.0,0.0412999052835803,0.0,50,50,49,30
MRT,MR,3232.0,31088.0,31088.0,gani,,-15.447,16.59,3,,,1994,5.0,14.0,37,2,,,37,1,,,37,2,,,3,30610,0.054054054054054,0.027027027027027,0.054054054054054,0.1220475681933569,35151.34821015625,51,51,51,31
MRT,MR,3232.0,31089.0,31089.0,garak,,-15.76,16.55,1,,,1994,5.0,14.0,94,0,,,94,5,,,94,12,,,3,29108,0.0,0.0531914893617021,0.1276595744680851,0.1642081706910836,3910.4088683313234,52,52,52,32
MRT,MR,3221.0,31043.0,31043.0,garalla,13442.0,-11.52701,15.766667,1,,,2015,,,0,0,,,0,0,,,0,0,,,1,9498,,,,,3006.7394463263918,53,53,53,33
MRT,MR,3221.0,31043.0,31043.0,garalla   ecole garalla,13440.0,-11.5,15.766667,1,,,2015,,,100,2,,,100,4,,,100,0,,,1,9500,0.02,0.04,0.0,0.0558490566037735,3006.7394463263918,54,54,54,34
MRT,MR,3230.0,31080.0,31080.0,ghoudiya   ghoudiya,13496.0,-11.68833333,17.825833330000002,3,,,2015,,,151,10,,,151,5,,,151,0,,,1,9577,0.0662251655629139,0.0331125827814569,0.0,0.0916460962900501,2331.3623465050114,55,55,55,35
MRT,MR,3230.0,31080.0,31080.0,ghoudya,13497.0,-11.75277778,17.825,3,,,2015,,,0,0,,,0,0,,,0,0,,,1,9581,,,,,6923.153812723228,56,56,56,36
MRT,MR,3227.0,31065.0,31065.0,gligh ehel ewadje,13454.0,-9.019166667,15.61666667,3,,,2015,,,8,4,,,73,3,,,73,1,,,1,9537,0.5,0.0410958904109589,0.0136986301369863,0.4972790392193656,14067.202542125946,57,57,57,37
MRT,MR,3227.0,31064.0,31064.0,gligue smalil,13369.0,-9.5675,16.48583333,3,,,2015,,,0,0,,,0,0,,,0,0,,,1,9534,,,,,0.0,58,58,59,38
MRT,MR,3227.0,31064.0,31064.0,gligue smalile,13370.0,-9.5675,16.48583333,3,,,2015,,,2,1,,,127,1,,,127,0,,,1,9532,0.5,0.0078740157480314,0.0,0.4754122715792601,0.0,59,59,58,38
MRT,MR,3226.0,31059.0,31059.0,gneiba,13406.0,-5.9468,15.861876,1,,,2015,,,0,0,,,0,0,,,0,0,,,1,9519,,,,,0.0,60,60,79,39
MRT,MR,3227.0,31065.0,31065.0,gogui zemal,13455.0,-9.36528,15.8208315,1,,,2015,,,4,3,,,128,1,,,128,0,,,1,9536,0.75,0.0078125,0.0,0.7093897405660377,0.0,61,61,62,40
MRT,MR,3227.0,31065.0,31065.0,gogui zemal,13456.0,-9.36528,15.8208315,1,,,2015,,,0,0,,,0,0,,,0,0,,,1,9539,,,,,0.0,62,62,61,40
MRT,MR,3227.0,31064.0,31064.0,goungelle,13371.0,-9.5499999,16.4,3,,,2015,,,0,0,,,0,0,,,0,0,,,1,9533,,,,,10151.047299264234,63,63,63,41
MRT,MR,3227.0,31064.0,31064.0,gounguel,13372.0,-9.566111111,16.50138889,3,,,2015,,,6,4,,,128,1,,,128,1,,,1,9535,0.6666666666666666,0.0078125,0.0078125,0.6338251461772798,1812.555461533249,64,64,64,42
MRT,MR,3226.0,31063.0,31063.0,hay edebay,13502.0,-8.168583333,16.735,3,,,2015,,,128,3,,,128,2,,,128,0,,,1,9531,0.0234375,0.015625,0.0,0.0365059330778301,57450.51382484603,65,65,65,43
MRT,MR,3226.0,31063.0,31063.0,haye edebay,13503.0,-8.166777778,16.24013889,3,,,2015,,,0,0,,,0,0,,,0,0,,,1,9530,,,,,54260.290051532764,66,66,66,44
MRT,MR,3221.0,31040.0,31040.0,hseytine,13411.0,-11.56972222,17.35922222,4,,,2015,,,0,0,,,0,0,,,0,0,,,1,9491,,,,,44281.64556337047,67,67,67,45
MRT,MR,3221.0,31040.0,31040.0,hseytine   ecole hseytine,13410.0,-11.3434,17.8163547,1,,,2015,,,59,1,,,59,0,,,59,0,,,1,9492,0.0169491525423728,0.0,0.0,0.0159897665494083,38413.79519729179,68,68,68,46
MRT,MR,3231.0,31082.0,31082.0,kamour,13436.0,-12.0432676,17.0768602,1,,,2015,,,0,0,,,0,0,,,0,0,,,1,9583,,,,,0.0,69,69,71,47
MRT,MR,3221.0,31042.0,31042.0,kamour,13435.0,-11.8359,17.0768602,1,,,2015,,,0,0,,,0,0,,,0,0,,,1,9495,,,,,23084.05563902296,70,70,70,48
MRT,MR,3221.0,31042.0,31042.0,kamour   ecole kamour 1,13433.0,-12.0432676,17.0768602,1,,,2015,,,60,0,,,60,3,,,60,0,,,1,9494,0.0,0.05,0.0,0.0471698113207547,0.0,71,71,69,47
MRT,MR,3221.0,31042.0,31042.0,kamour   ecole kamour 2,104716.0,-12.0432676,17.0768602,1,,,2015,8.0,0.0,50,3,,,50,1,,,50,0,,,1,921,0.06,0.02,0.0,0.0743396226415094,0.0,72,72,69,47
MRT,MR,3221.0,31043.0,31043.0,kankossa,13446.0,-11.52404,15.92703,1,,,2015,,,0,0,,,0,0,,,0,0,,,1,9499,,,,,0.0,73,73,74,49
MRT,MR,3221.0,31043.0,31043.0,kankossa   ecole kankossa 3,13443.0,-11.52404,15.92703,1,,,2015,,,52,0,,,52,0,,,52,0,,,1,9503,0.0,0.0,0.0,0.0,0.0,74,74,73,49
MRT,MR,3221.0,31043.0,31043.0,kankossa   ecole kankossa 4,13444.0,-11.52404,15.92703,1,,,2015,,,50,0,,,50,0,,,50,5,,,1,9502,0.0,0.0,0.1,0.0943396226415094,0.0,75,75,73,49
MRT,MR,3232.0,31085.0,31085.0,keur massene,,-16.2522143,16.7297191,1,,,1994,5.0,14.0,99,1,,,99,6,,,99,7,,,3,30606,0.0101010101010101,0.0606060606060606,0.0707070707070707,0.1281563724171621,55852.06175054505,76,76,76,50
MRT,MR,3221.0,31039.0,31039.0,lebheir,13403.0,-12.10324074,16.65046297,3,,,2015,,,100,2,,,100,5,,,100,0,,,1,9489,0.02,0.05,0.0,0.0650943396226415,0.0,77,77,78,51
MRT,MR,3221.0,31039.0,31039.0,lebheir,13399.0,-12.10324074,16.65046297,3,,,2015,,,0,0,,,0,0,,,0,0,,,1,9490,,,,,0.0,78,78,77,51
MRT,MR,3226.0,31059.0,31059.0,legneiba,13407.0,-5.9468,15.861876,1,,,2015,,,8,6,,,287,2,,,287,0,,,1,9517,0.75,0.0069686411149825,0.0,0.7091907172440997,0.0,79,79,60,39
MRT,MR,3220.0,31036.0,31036.0,lekseir,13395.0,-13.03729167,20.49275,3,,,2015,,,50,3,,,50,3,,,50,3,,,1,9480,0.06,0.06,0.06,0.1598264150943396,1355.5422728830947,80,80,80,52
MRT,MR,3232.0,31084.0,31084.0,lieourine,,-14.39,17.51,3,,,1994,5.0,14.0,21,0,,,21,0,,,21,0,,,3,30604,0.0,0.0,0.0,0.0,0.0,81,81,30,21
MRT,MR,3227.0,31067.0,31067.0,lieweynate,13507.0,-9.945111111,17.53361111,3,,,2015,,,142,3,,,142,2,,,142,0,,,1,9546,0.0211267605633802,0.0140845070422535,0.0,0.0329374599978291,0.0,82,82,85,53
MRT,MR,3227.0,31066.0,31066.0,ligrayere,13492.0,-10.69022222,16.60055556,3,,,2015,,,125,8,,,126,2,,,126,0,,,1,9542,0.064,0.0158730158730158,0.0,0.0743935309973045,47566.11709986761,83,83,83,54
MRT,MR,3227.0,31066.0,31066.0,ligreire,13493.0,-10.63025,17.00555556,3,,,2015,,,0,0,,,0,0,,,0,0,,,1,9543,,,,,28300.845864793715,84,84,84,55
MRT,MR,3227.0,31067.0,31067.0,liweinatt,13508.0,-9.945111111,17.53361111,3,,,2015,,,0,0,,,0,0,,,0,0,,,1,9544,,,,,0.0,85,85,82,53
MRT,MR,3226.0,31062.0,31062.0,m'reihim,13478.0,-7.645138889,17.43583333,3,,,2015,,,1,0,,,122,1,,,122,0,,,1,9527,0.0,0.0081967213114754,0.0,0.007732755954222,0.0,86,86,90,56
MRT,MR,3226.0,31061.0,31061.0,mahmouda,13465.0,-7.687370599999999,16.3591648,1,,,2015,,,14,4,,,125,7,,,125,3,,,1,9524,0.2857142857142857,0.056,0.024,0.3225444743935309,0.0,87,87,88,57
MRT,MR,3226.0,31061.0,31061.0,mahmouda,13464.0,-7.687370599999999,16.3591648,1,,,2015,,,0,0,,,0,0,,,0,0,,,1,9523,,,,,0.0,88,88,87,57
MRT,MR,3232.0,31084.0,31084.0,mbagnik,,-14.39,17.51,3,,,1994,5.0,14.0,21,0,,,21,0,,,21,0,,,3,30603,0.0,0.0,0.0,0.0,0.0,89,89,30,21
MRT,MR,3226.0,31062.0,31062.0,mreihima,13479.0,-7.645138889,17.43583333,3,,,2015,,,0,0,,,0,0,,,0,0,,,1,9528,,,,,0.0,90,90,86,56
MRT,MR,3230.0,31078.0,31078.0,nbeika,13461.0,-12.28879625,18.09212964,3,,,2015,,,0,0,,,0,0,,,0,0,,,1,9572,,,,,67361.693736004,91,91,91,58
MRT,MR,3230.0,31080.0,31080.0,nimlane,13498.0,-11.6698299,18.3490213,1,,,2015,,,50,1,,,50,2,,,50,0,,,1,9579,0.02,0.04,0.0,0.0558490566037735,0.0,92,92,93,59
MRT,MR,3230.0,31080.0,31080.0,nimlane,13499.0,-11.6698299,18.3490213,1,,,2015,,,0,0,,,0,0,,,0,0,,,1,9582,,,,,0.0,93,93,92,59
MRT,MR,3220.0,31038.0,31038.0,ouadane   ecole 1,13475.0,-11.61858333,21.01563889,3,,,2015,,,120,1,,,120,1,,,120,4,,,1,9488,0.0083333333333333,0.0083333333333333,0.0333333333333333,0.0465823724668064,0.0,94,94,46,27
MRT,MR,3221.0,31044.0,31044.0,oumchgague,13450.0,-11.34268518,16.70227778,3,,,2015,,,0,0,,,0,0,,,0,0,,,1,9505,,,,,8568.21373357088,95,95,95,60
MRT,MR,3221.0,31044.0,31044.0,oumchghagh   ecole oumchghagh,13452.0,-11.33361111,16.62905556,3,,,2015,,,149,1,,,149,1,,,149,0,,,1,9504,0.0067114093959731,0.0067114093959731,0.0,0.0126205431847791,8568.21373357088,96,96,96,61
MRT,MR,3226.0,31058.0,31058.0,oumecheich,13382.0,-7.2185,15.8482333,1,,,2015,,,0,0,,,0,0,,,0,0,,,1,9515,,,,,41655.309110670976,97,97,97,62
MRT,MR,3226.0,31058.0,31058.0,oumedre iche,13383.0,-7.676916667,15.79280556,3,,,2015,,,4,1,,,127,3,,,127,0,,,1,9516,0.25,0.0236220472440944,0.0,0.2525627692764819,51432.1046640194,98,98,98,63
MRT,MR,3226.0,31063.0,31063.0,oumgouffa,13504.0,-8.151666667,15.77183333,3,,,2015,,,130,6,,,130,3,,,130,0,,,1,9529,0.0461538461538461,0.023076923076923,0.0,0.0643072457295969,52904.58452455207,99,99,99,64
MRT,MR,3229.0,31073.0,31073.0,pk 11,13480.0,-15.63355556,17.99158333,4,,,2015,,,50,6,,,50,1,,,50,0,,,1,9565,0.12,0.02,0.0,0.1298113207547169,35444.97466314552,100,100,100,65
MRT,MR,3229.0,31073.0,31073.0,pk 12,13481.0,-15.96844444,17.98577778,3,,,2015,,,50,5,,,50,0,,,50,1,,,1,9562,0.1,0.0,0.02,0.1113207547169811,3467.3294795378297,101,101,101,66
MRT,MR,3229.0,31073.0,31073.0,pk 7,13482.0,-15.97013889,18.02563889,3,,,2015,,,50,1,,,50,3,,,50,0,,,1,9564,0.02,0.06,0.0,0.0743396226415094,1196.6482117768892,102,102,102,67
MRT,MR,3229.0,31073.0,31073.0,pk 8,13483.0,-15.97005556,18.01536111,3,,,2015,,,49,0,,,49,1,,,49,0,,,1,9566,0.0,0.0204081632653061,0.0,0.0192529842125529,16.772363321716664,103,103,103,68
MRT,MR,3229.0,31073.0,31073.0,pk 9,13484.0,-15.97019444,18.01541667,3,,,2015,,,49,6,,,49,0,,,49,0,,,1,9563,0.1224489795918367,0.0,0.0,0.1155179052753176,0.0,104,104,107,69
MRT,MR,3230.0,31080.0,31080.0,rachid,13500.0,-11.683333,18.8,1,,,2015,,,100,0,,,100,1,,,100,0,,,1,9580,0.0,0.01,0.0,0.0094339622641509,14349.964618860358,105,105,105,70
MRT,MR,3230.0,31080.0,31080.0,racid,13501.0,-11.75277778,18.90277778,3,,,2015,,,0,0,,,0,0,,,0,0,,,1,9578,,,,,14349.964618860358,106,106,106,71
MRT,MR,3229.0,31073.0,31073.0,riad,13485.0,-15.97019444,18.01541667,3,,,2015,,,0,0,,,0,0,,,0,0,,,1,9561,,,,,0.0,107,107,104,69
MRT,MR,3232.0,31089.0,31089.0,rosso,,-15.802612,16.5163413,1,,,1994,5.0,14.0,232,1,,,232,1,,,232,0,,,3,29269,0.0043103448275862,0.0043103448275862,0.0,0.0081151986628676,3965.0474077595172,108,108,108,72
MRT,MR,3229.0,31074.0,31074.0,sebkha,13490.0,-15.99002778,18.07744444,3,,,2015,,,50,4,,,50,5,,,50,0,,,1,9568,0.08,0.1,0.0,0.1622641509433962,0.0,109,109,21,15
MRT,MR,3230.0,31078.0,31078.0,siyassa,13462.0,-11.69368056,17.80655556,3,,,2015,,,50,5,,,50,4,,,50,0,,,1,9573,0.1,0.08,0.0,0.1622641509433962,0.0,110,110,111,73
MRT,MR,3230.0,31078.0,31078.0,siyassa,13463.0,-11.69368056,17.80655556,3,,,2015,,,0,0,,,0,0,,,0,0,,,1,9574,,,,,0.0,111,111,110,73
MRT,MR,3221.0,31042.0,31042.0,takhtit,13437.0,-11.8359,16.833521,1,,,2015,,,45,1,,,45,1,,,45,0,,,1,9496,0.0222222222222222,0.0222222222222222,0.0,0.041462846494293,28319.37487275875,112,112,112,74
MRT,MR,3227.0,31066.0,31066.0,tamcheket,13494.0,-10.6696393,17.2455802,1,,,2015,,,0,0,,,0,0,,,0,0,,,1,9540,,,,,0.0,113,113,114,75
MRT,MR,3227.0,31066.0,31066.0,tamchekett,13495.0,-10.6696393,17.2455802,1,,,2015,,,3,3,,,125,0,,,125,0,,,1,9541,1.0,0.0,0.0,0.9433962264150942,0.0,114,114,113,75
MRT,MR,3223.0,31051.0,31051.0,tarhil   ecole ensar,13472.0,-17.02011111,20.98633333,3,,,2015,,,50,0,,,50,1,,,50,1,,,1,9509,0.0,0.02,0.02,0.0373584905660377,5830.6514391266965,115,115,115,76
MRT,MR,3223.0,31051.0,31051.0,"tarhil, baghdad,",13473.0,-17.03,20.93,3,,,2015,,,0,0,,,0,0,,,0,0,,,1,9508,,,,,1577.930579486735,116,116,116,77
MRT,MR,3220.0,31038.0,31038.0,tenlabe,13477.0,-11.62138,20.9317455,1,,,2015,,,0,0,,,0,0,,,0,0,,,1,9485,,,,,0.0,117,117,118,78
MRT,MR,3220.0,31038.0,31038.0,tenlabe   ecole tenlabe,13476.0,-11.62138,20.9317455,1,,,2015,,,113,3,,,113,1,,,113,0,,,1,9486,0.0265486725663716,0.0088495575221238,0.0,0.0331729113995126,0.0,118,118,117,78
MRT,MR,3220.0,31035.0,31035.0,tirebane,13388.0,-13.0270528,19.9570361,1,,,2015,,,0,0,,,0,0,,,0,0,,,1,9473,,,,,3657.742809419597,119,119,119,79
MRT,MR,3220.0,31035.0,31035.0,toungad,13390.0,-13.1351107,20.0584783,1,,,2015,,,50,2,,,50,0,,,50,0,,,1,9472,0.04,0.0,0.0,0.0377358490566037,14177.1524355572,120,120,120,80
MRT,MR,3232.0,31089.0,31089.0,tounguene,,-15.767,16.517,3,,,1994,5.0,14.0,68,3,,,68,2,,,68,3,,,3,30609,0.0441176470588235,0.0294117647058823,0.0441176470588235,0.1067573419000034,3910.4088683313234,121,121,121,81
MRT,MR,3226.0,31061.0,31061.0,warkene,13466.0,-7.523472222,16.57447222,3,,,2015,,,6,4,,,125,2,,,125,0,,,1,9525,0.6666666666666666,0.016,0.0,0.6339622641509433,0.0,122,122,123,82
MRT,MR,3226.0,31061.0,31061.0,werken,13467.0,-7.523472222,16.57447222,3,,,2015,,,0,0,,,0,0,,,0,0,,,1,9526,,,,,0.0,123,123,122,82
MRT,MR,3231.0,31083.0,31083.0,"zemla,, dragage,",13513.0,-12.45205,22.71873,3,,,2015,,,0,0,,,0,0,,,0,0,,,1,9585,,,,,3079.826822470827,124,124,124,83
MRT,MR,3231.0,31083.0,31083.0,zouerate   ecole14 zimle,104798.0,-12.4753205,22.7325323,1,,,2015,7.0,0.0,50,1,,,50,2,,,50,0,,,1,927,0.02,0.04,0.0,0.0558490566037735,3079.826822470827,125,125,125,84
