iso3,iso2,admin1_id,admin2_id,iu_id,location,site_id,longitude,latitude,georeliability,location_type,survey_type,year,age_start,age_end,hk_examined,hk_positive,hk_perc_highinfection,hk_perc_moderateinfection,asc_examined,asc_positive,asc_perc_highinfection,asc_perc_moderateinfection,tt_examined,tt_positive,tt_perc_highinfection,tt_perc_moderateinfection,quality,sn,hk_prevalence,asc_prevalence,tt_prevalence,sth_prevalence,shortest,id,src,dst,identifier
SLE,SL,4360.0,42258.0,42258.0,alikalia,,-11.3913379,9.1505664,1,,mapping,2008.0,5.0,14.0,90,82,,,90,6,,,90,1,,,1,22809,0.9111111111111112,0.0666666666666666,0.0111111111111111,0.8659989129590807,1075.0458847351902,0,0,0,1
SLE,SL,4360.0,42258.0,42258.0,alusainya kamayimbo,,-11.70214,9.4542,3,,mapping,2008.0,5.0,14.0,111,64,,,111,0,,,111,0,,,1,22808,0.5765765765765766,0.0,0.0,0.543940166581676,54.89538099502442,1,1,1,2
SLE,SL,4361.0,42264.0,42264.0,bandajuma,,-12.394611,7.716422,1,,mapping,2008.0,5.0,14.0,104,6,,,104,6,,,104,4,,,1,22823,0.0576923076923076,0.0576923076923076,0.0384615384615384,0.1379319784268427,10346.816464108937,2,2,2,3
SLE,SL,4361.0,42262.0,42262.0,baoma kpenge,,-12.2299066,7.4476715,3,,mapping,2008.0,5.0,14.0,136,69,,,136,7,,,136,16,,,1,22791,0.5073529411764706,0.0514705882352941,0.1176470588235294,0.5544199015703428,186.99538163308858,3,3,3,4
SLE,SL,4360.0,42258.0,42258.0,dogolia,,-11.5,8.5,4,,mapping,2008.0,5.0,14.0,80,36,,,80,2,,,80,2,,,1,22806,0.45,0.025,0.025,0.4501474056603772,0.0,4,4,5,5
SLE,SL,4359.0,42253.0,42253.0,fdlu,,-11.5,8.5,3,,mapping,2008.0,5.0,14.0,115,36,,,115,0,,,115,0,,,1,22796,0.3130434782608696,0.0,0.0,0.2953240360951599,0.0,5,5,4,5
SLE,SL,4362.0,42265.0,42265.0,fullah town,,-13.1313101,8.3725004,3,,mapping,2008.0,5.0,14.0,102,20,,,102,9,,,102,2,,,1,22833,0.196078431372549,0.088235294117647,0.0196078431372549,0.2654575355419093,8915.945684372362,6,6,6,6
SLE,SL,4360.0,42257.0,42257.0,gbinleh,,-11.5,8.5,4,,mapping,2008.0,5.0,14.0,104,18,,,104,9,,,104,0,,,1,22798,0.173076923076923,0.0865384615384615,0.0,0.23079016411745,0.0,7,7,4,5
SLE,SL,4361.0,42261.0,42261.0,golu,,-11.544567,7.905127999999999,1,,mapping,2008.0,5.0,14.0,101,23,,,101,4,,,101,2,,,1,22785,0.2277227722772277,0.0396039603960396,0.0198019801980198,0.2575424331482686,14605.185958604841,8,8,8,7
SLE,SL,4359.0,42254.0,42254.0,jenneh,,-12.2517,7.431283,4,,mapping,2008.0,5.0,14.0,117,47,,,117,0,,,117,2,,,1,22804,0.4017094017094017,0.0,0.017094017094017,0.3886194258714819,0.0,9,9,10,8
SLE,SL,4359.0,42254.0,42254.0,jenneh,16274.0,-12.2517,7.431283,4,,,2008.0,,,118,47,,,118,0,,,118,2,,,1,19820,0.3983050847457627,0.0,0.0169491525423728,0.3853804751399781,0.0,10,10,9,8
SLE,SL,4360.0,42257.0,42257.0,kanku bramaia,,-12.770467,9.322433,1,,mapping,2008.0,5.0,14.0,103,15,,,103,10,,,103,0,,,1,22801,0.145631067961165,0.0970873786407767,0.0,0.215641045249939,0.0,11,11,53,9
SLE,SL,4360.0,42256.0,42256.0,karina,,-12.016667,9.166667,1,,mapping,2008.0,5.0,14.0,104,14,,,104,6,,,104,1,,,1,22787,0.1346153846153846,0.0576923076923076,0.0096153846153846,0.1814928000017176,382.53729700671187,12,12,12,10
SLE,SL,4360.0,42257.0,42257.0,kawula,,-11.5,8.5,4,,mapping,2008.0,5.0,14.0,110,19,,,110,23,,,110,2,,,1,22800,0.1727272727272727,0.209090909090909,0.0181818181818181,0.3373573565059609,0.0,13,13,4,5
SLE,SL,4359.0,42254.0,42254.0,kdi,,-11.5,8.5,3,,mapping,2008.0,5.0,14.0,110,36,,,110,0,,,110,0,,,1,22803,0.3272727272727272,0.0,0.0,0.3087478559176672,0.0,14,14,4,5
SLE,SL,4361.0,42264.0,42264.0,kowama,,-11.5835329,8.065495,2,,mapping,2008.0,5.0,14.0,120,53,,,120,24,,,120,5,,,1,22825,0.4416666666666666,0.2,0.0416666666666666,0.5395702306079664,0.0,15,15,16,11
SLE,SL,4361.0,42264.0,42264.0,kowama,16295.0,-11.5835329,8.065495,2,,,2008.0,,,120,55,,,120,24,,,120,5,,,1,13616,0.4583333333333333,0.2,0.0416666666666666,0.5516247379454926,0.0,16,16,15,11
SLE,SL,4361.0,42262.0,42262.0,luawa,,-12.1446911,7.6143003,1,,mapping,2008.0,5.0,14.0,136,61,,,136,0,,,136,11,,,1,22790,0.4485294117647059,0.0,0.0808823529411764,0.4652204250179538,585.5108200128963,17,17,17,12
SLE,SL,4360.0,42260.0,42260.0,mabonto,,-11.8136325,8.861578,1,,mapping,2008.0,5.0,14.0,110,29,,,110,20,,,110,2,,,1,22826,0.2636363636363636,0.1818181818181818,0.0181818181818181,0.3853536141077073,13327.869713275364,18,18,18,13
SLE,SL,4360.0,42259.0,42259.0,maboronor,,-11.5,8.5,4,,mapping,2008.0,5.0,14.0,108,62,,,108,10,,,108,2,,,1,22818,0.5740740740740741,0.0925925925925925,0.0185185185185185,0.5855366521632017,0.0,19,19,4,5
SLE,SL,4362.0,42265.0,42265.0,macdonald,,-13.083261,8.279166,1,,mapping,2008.0,5.0,14.0,108,30,,,108,8,,,108,11,,,1,22830,0.2777777777777778,0.074074074074074,0.1018518518518518,0.3767797419284335,660.31566639089,20,20,20,14
SLE,SL,4359.0,42253.0,42253.0,magbema,,-12.898934,9.052028,1,,mapping,2008.0,5.0,14.0,120,34,,,120,0,,,120,0,,,1,22797,0.2833333333333333,0.0,0.0,0.2672955974842766,2009.1676879159936,21,21,21,15
SLE,SL,4361.0,42263.0,42263.0,magbenka,,-12.49884,8.272024,1,,mapping,2008.0,5.0,14.0,120,49,,,120,10,,,120,22,,,1,22815,0.4083333333333333,0.0833333333333333,0.1833333333333333,0.525539395527603,267.5375280066967,22,22,22,16
SLE,SL,4360.0,42260.0,42260.0,makali,,-11.6641388,8.6322791,1,,mapping,2008.0,5.0,14.0,110,28,,,110,7,,,110,2,,,1,22828,0.2545454545454545,0.0636363636363636,0.0181818181818181,0.2968629063124618,433.1519579833785,23,23,23,17
SLE,SL,4360.0,42256.0,42256.0,makama,,-12.0530904,8.8706961,1,,mapping,2008.0,5.0,14.0,98,16,,,98,6,,,98,0,,,1,22788,0.1632653061224489,0.0612244897959183,0.0,0.2023527932543829,1138.6310327038307,24,24,24,18
SLE,SL,4360.0,42259.0,42259.0,mamamah,,-12.874306,8.4455109,3,,mapping,2008.0,5.0,14.0,105,26,,,105,10,,,105,3,,,1,22821,0.2476190476190476,0.0952380952380952,0.0285714285714285,0.3195506414605374,71.23215889051026,25,25,25,19
SLE,SL,4361.0,42261.0,42261.0,mamboma,,-11.666667,7.833333,1,,mapping,2008.0,5.0,14.0,136,13,,,136,8,,,136,0,,,1,22784,0.0955882352941176,0.0588235294117647,0.0,0.1403669125807925,1204.4440658097176,26,26,26,20
SLE,SL,4360.0,42256.0,42256.0,mapaki,,-11.909345,8.7879,1,,mapping,2008.0,5.0,14.0,105,22,,,105,14,,,105,0,,,1,22789,0.2095238095238095,0.1333333333333333,0.0,0.2970949386043725,189.82523344468746,27,27,27,21
SLE,SL,4360.0,42260.0,42260.0,masingbi,,-11.4722494,8.636758,1,,mapping,2008.0,5.0,14.0,102,25,,,102,8,,,102,2,,,1,22829,0.2450980392156862,0.0784313725490196,0.0196078431372549,0.299950088919669,584.4075602518133,28,28,28,22
SLE,SL,4360.0,42256.0,42256.0,masongbo,,-11.5,8.5,4,,mapping,2008.0,5.0,14.0,103,22,,,103,12,,,103,1,,,1,22786,0.2135922330097087,0.116504854368932,0.0097087378640776,0.2943000608949073,0.0,29,29,4,5
SLE,SL,4361.0,42264.0,42264.0,massa,,-11.5539362,7.5540303,3,,mapping,2008.0,5.0,14.0,136,19,,,136,20,,,136,4,,,1,22824,0.1397058823529411,0.1470588235294117,0.0294117647058823,0.2715108453122059,59.392801437163214,30,30,30,23
SLE,SL,4360.0,42257.0,42257.0,mathuraneh,,-11.5,8.5,4,,mapping,2008.0,5.0,14.0,106,21,,,106,18,,,106,5,,,1,22799,0.1981132075471698,0.1698113207547169,0.0471698113207547,0.3449853057120345,0.0,31,31,4,5
SLE,SL,4360.0,42260.0,42260.0,mayossoh,,-11.5,8.5,4,,mapping,2008.0,5.0,14.0,105,15,,,105,10,,,105,7,,,1,22827,0.1428571428571428,0.0952380952380952,0.0666666666666666,0.2605570530098831,0.0,32,32,4,5
SLE,SL,4361.0,42263.0,42263.0,mokonde,,-12.168,7.7678,3,,,1993.0,1.0,16.0,420,60,,,420,190,,,420,95,,,3,29310,0.1428571428571428,0.4523809523809524,0.2261904761904762,0.6007389478702532,10610.033257203255,33,33,33,24
SLE,SL,4360.0,42258.0,42258.0,mongo,,-11.75292,9.82324,3,,mapping,2008.0,5.0,14.0,60,35,,,60,2,,,60,0,,,1,22807,0.5833333333333334,0.0333333333333333,0.0,0.5634171907756813,26110.25030541515,34,34,34,25
SLE,SL,4361.0,42263.0,42263.0,ngeihun,,-12.4613061,7.9282828,3,,mapping,2008.0,5.0,14.0,102,56,,,102,11,,,102,3,,,1,22816,0.5490196078431373,0.1078431372549019,0.0294117647058823,0.5749890868405859,24936.664374737982,35,35,35,26
SLE,SL,4359.0,42255.0,42255.0,nyamundu,,-11.0799402,8.5977205,3,,mapping,2008.0,5.0,14.0,100,13,,,100,5,,,100,2,,,1,22811,0.13,0.05,0.02,0.1792735849056603,0.0,36,36,37,27
SLE,SL,4359.0,42255.0,42255.0,nyamundu,16282.0,-11.0799402,8.5977205,3,,,2008.0,,,100,14,,,100,5,,,100,1,,,1,13550,0.14,0.05,0.01,0.1803490566037735,0.0,37,37,36,27
SLE,SL,4361.0,42261.0,42261.0,pelewahun,,-11.719,8.268,3,,,1993.0,1.0,16.0,185,23,,,185,90,,,185,45,,,3,29313,0.1243243243243243,0.4864864864864865,0.2432432432432432,0.6223662365729982,18202.330657668703,38,38,38,28
SLE,SL,4360.0,42259.0,42259.0,rogbere junction,,-11.5,8.5,4,,mapping,2008.0,5.0,14.0,111,39,,,111,28,,,111,2,,,1,22820,0.3513513513513513,0.2522522522522522,0.018018018018018,0.4940694653610016,0.0,39,39,4,5
SLE,SL,4360.0,42259.0,42259.0,romeni,,-12.7128599,8.894876,1,,mapping,2008.0,5.0,14.0,102,55,,,102,5,,,102,0,,,1,22819,0.5392156862745098,0.0490196078431372,0.0,0.5300029741826437,3438.9003674767496,40,40,40,29
SLE,SL,4361.0,42261.0,42261.0,sahn,,-11.841511,7.432244,1,,mapping,2008.0,5.0,14.0,104,54,,,104,1,,,104,1,,,1,22783,0.5192307692307693,0.0096153846153846,0.0096153846153846,0.4985206429651068,15910.759876543056,41,41,41,30
SLE,SL,4359.0,42253.0,42253.0,sakiema,,-10.67395,8.005811,1,,mapping,2008.0,5.0,14.0,115,24,,,115,0,,,115,0,,,1,22794,0.208695652173913,0.0,0.0,0.1968826907301066,168.32212988989266,42,42,42,31
SLE,SL,4362.0,42265.0,42265.0,samuel town,,-13.0760283,8.307778,3,,mapping,2008.0,5.0,14.0,104,20,,,104,6,,,104,2,,,1,22832,0.1923076923076923,0.0576923076923076,0.0192307692307692,0.2391903410310801,171.5579098978883,43,43,43,32
SLE,SL,4359.0,42254.0,42254.0,school in baoma,,-11.055,8.040833,3,,,2008.0,8.0,16.0,53,22,,,53,0,,,53,1,,,1,29331,0.4150943396226415,0.0,0.0188679245283018,0.402009712715866,13991.124304089388,44,44,44,33
SLE,SL,4362.0,42265.0,42265.0,school in baoma,,-13.079556,8.28375,3,,,2008.0,8.0,16.0,69,20,,,69,6,,,69,6,,,1,29355,0.2898550724637681,0.0869565217391304,0.0869565217391304,0.3848951153057062,660.31566639089,45,45,45,34
SLE,SL,4360.0,42259.0,42259.0,school in baoma,,-12.874889,8.44525,3,,,2008.0,8.0,16.0,26,10,,,26,3,,,26,0,,,1,29365,0.3846153846153846,0.1153846153846153,0.0,0.4298314167690074,71.23215889051026,46,46,46,35
SLE,SL,4360.0,42257.0,42257.0,school in baoma,,-12.906028,9.068417,3,,,2008.0,8.0,16.0,60,16,,,60,11,,,60,4,,,1,29357,0.2666666666666666,0.1833333333333333,0.0666666666666666,0.4160726764500348,2009.1676879159936,47,47,47,36
SLE,SL,4361.0,42263.0,42263.0,school in biriwa,,-12.237778,7.891944,3,,,2008.0,8.0,16.0,55,39,,,55,7,,,55,12,,,1,29351,0.7090909090909091,0.1272727272727272,0.2181818181818181,0.7561402265285004,0.0,48,48,49,37
SLE,SL,4361.0,42263.0,42263.0,school in biriwa,,-12.237778,7.891944,3,,,2008.0,8.0,16.0,58,34,,,58,6,,,58,2,,,1,29349,0.5862068965517241,0.1034482758620689,0.0344827586206896,0.6054771057474873,0.0,49,49,48,37
SLE,SL,4361.0,42261.0,42261.0,school in biriwa,,-11.597222,8.16,3,,,2008.0,8.0,16.0,28,20,,,28,0,,,28,1,,,1,29318,0.7142857142857143,0.0,0.0357142857142857,0.6834809395456295,10735.303382313372,50,50,50,38
SLE,SL,4360.0,42260.0,42260.0,school in biriwa,,-11.473583,8.641778,3,,,2008.0,8.0,16.0,75,19,,,75,5,,,75,1,,,1,29323,0.2533333333333333,0.0666666666666666,0.0133333333333333,0.2947197763801537,584.4075602518133,51,51,51,39
SLE,SL,4360.0,42260.0,42260.0,school in bramaia,,-11.981972,8.587667,3,,,2008.0,8.0,16.0,70,12,,,70,5,,,70,7,,,1,29316,0.1714285714285714,0.0714285714285714,0.1,0.2901424720831728,23954.16207621938,52,52,52,40
SLE,SL,4361.0,42264.0,42264.0,school in bramaia,,-12.770467,9.322433,1,,,2008.0,8.0,16.0,29,22,,,29,2,,,29,0,,,1,29352,0.7586206896551724,0.0689655172413793,0.0,0.7313844704193121,0.0,53,53,11,9
SLE,SL,4360.0,42258.0,42258.0,school in bramaia,,-11.5475,9.711667,3,,,2008.0,8.0,16.0,67,36,,,67,2,,,67,2,,,1,29324,0.5373134328358209,0.0298507462686567,0.0298507462686567,0.5325700252044501,0.0,54,54,55,41
SLE,SL,4360.0,42258.0,42258.0,school in bramaia,,-11.5475,9.711667,3,,,2008.0,8.0,16.0,37,21,,,37,0,,,37,0,,,1,29329,0.5675675675675675,0.0,0.0,0.5354411014788373,0.0,55,55,54,41
SLE,SL,4362.0,42265.0,42265.0,school in bureh kasseh,,-13.076306,8.306278,3,,,2008.0,8.0,16.0,44,11,,,44,2,,,44,2,,,1,29330,0.25,0.0454545454545454,0.0454545454545454,0.2987096522688289,171.5579098978883,56,56,56,42
SLE,SL,4361.0,42263.0,42263.0,school in bureh kasseh,,-12.499444,8.269722,3,,,2008.0,8.0,16.0,43,27,,,43,4,,,43,13,,,1,29326,0.627906976744186,0.0930232558139534,0.3023255813953488,0.7212726730362652,267.5375280066967,57,57,57,43
SLE,SL,4360.0,42260.0,42260.0,school in bureh kasseh,,-11.660833,8.63025,3,,,2008.0,8.0,16.0,87,21,,,87,6,,,87,2,,,1,29341,0.2413793103448276,0.0689655172413793,0.0229885057471264,0.2923913270520193,433.1519579833785,58,58,58,44
SLE,SL,4360.0,42257.0,42257.0,school in bureh kasseh,,-12.832083,9.251778,3,,,2008.0,8.0,16.0,49,8,,,49,4,,,49,0,,,1,29315,0.1632653061224489,0.0816326530612244,0.0,0.2184624331057028,10514.9218185956,59,59,59,45
SLE,SL,4361.0,42264.0,42264.0,school in dasse,,-11.553611,7.553611,3,,,2008.0,8.0,16.0,55,14,,,55,12,,,55,2,,,1,29336,0.2545454545454545,0.2181818181818181,0.0363636363636363,0.4135690288193016,59.392801437163214,60,60,60,46
SLE,SL,4359.0,42253.0,42253.0,school in dasse,,-10.813333,7.918056,3,,,2008.0,8.0,16.0,57,30,,,57,0,,,57,0,,,1,29356,0.5263157894736842,0.0,0.0,0.4965243296921548,90.41699926959973,61,61,61,47
SLE,SL,4359.0,42255.0,42255.0,school in dasse,,-10.962167,8.622861,3,,,2008.0,8.0,16.0,60,8,,,60,3,,,60,0,,,1,29348,0.1333333333333333,0.05,0.0,0.1666666666666666,2599.3709259630773,62,62,62,48
SLE,SL,4360.0,42258.0,42258.0,school in dasse,,-11.381944,9.152778,3,,,2008.0,8.0,16.0,81,77,,,81,7,,,81,1,,,1,29364,0.9506172839506172,0.0864197530864197,0.0123456790123456,0.9013602851882988,1075.0458847351902,63,63,63,49
SLE,SL,4361.0,42262.0,42262.0,school in dea,,-12.229167,7.449167,3,,,2008.0,8.0,16.0,51,26,,,51,1,,,51,6,,,1,29334,0.5098039215686274,0.0196078431372549,0.1176470588235294,0.5433537258998394,186.99538163308858,64,64,64,50
SLE,SL,4359.0,42253.0,42253.0,school in dea,,-10.901111,7.922778,3,,,2008.0,8.0,16.0,35,17,,,35,0,,,35,0,,,1,29358,0.4857142857142857,0.0,0.0,0.45822102425876,9785.80394825826,65,65,65,51
SLE,SL,4361.0,42263.0,42263.0,school in dea,,-11.946944,8.168333,3,,,2008.0,8.0,16.0,61,26,,,61,4,,,61,5,,,1,29361,0.4262295081967213,0.0655737704918032,0.081967213114754,0.4790568041062035,21015.024882213165,66,66,66,52
SLE,SL,4359.0,42254.0,42254.0,school in dea,,-11.475,8.442,3,,,2008.0,8.0,16.0,48,17,,,48,7,,,48,1,,,1,29337,0.3541666666666667,0.1458333333333333,0.0208333333333333,0.4338145172737596,7096.22935964973,67,67,67,53
SLE,SL,4361.0,42264.0,42264.0,school in folosaba,,-11.571944,7.435556,3,,,2008.0,8.0,16.0,55,33,,,55,11,,,55,3,,,1,29362,0.6,0.2,0.0545454545454545,0.657975986277873,13411.2478876165,68,68,68,54
SLE,SL,4361.0,42261.0,42261.0,school in folosaba,,-11.995278,7.658889,3,,,2008.0,8.0,16.0,58,36,,,58,11,,,58,6,,,1,29317,0.6206896551724138,0.1896551724137931,0.1034482758620689,0.6834197600681406,0.0,69,69,70,55
SLE,SL,4361.0,42261.0,42261.0,school in folosaba,,-11.995278,7.658889,3,,,2008.0,8.0,16.0,45,5,,,45,1,,,45,1,,,1,29350,0.1111111111111111,0.0222222222222222,0.0222222222222222,0.1416776664854931,0.0,70,70,69,55
SLE,SL,4361.0,42261.0,42261.0,school in folosaba,,-11.995278,7.658889,3,,,2008.0,8.0,16.0,56,3,,,56,1,,,56,0,,,1,29327,0.0535714285714285,0.0178571428571428,0.0,0.0664829611089718,0.0,71,71,69,55
SLE,SL,4360.0,42257.0,42257.0,school in folosaba,,-12.844944,9.133806,3,,,2008.0,8.0,16.0,47,12,,,47,10,,,47,0,,,1,29340,0.2553191489361702,0.2127659574468085,0.0,0.3903413992500661,9131.470266518576,72,72,72,56
SLE,SL,4361.0,42261.0,42261.0,school in gallines  perri,,-11.657778,7.839444,3,,,2008.0,8.0,16.0,34,5,,,34,4,,,34,0,,,1,29319,0.1470588235294117,0.1176470588235294,0.0,0.2334007965006202,1204.4440658097176,73,73,73,57
SLE,SL,4360.0,42259.0,42259.0,school in gallines  perri,,-12.682667,8.901333,3,,,2008.0,8.0,16.0,57,28,,,57,6,,,57,1,,,1,29353,0.4912280701754385,0.1052631578947368,0.0175438596491228,0.5214804463553523,3438.9003674767496,74,74,74,58
SLE,SL,4360.0,42256.0,42256.0,school in gallines  perri,,-12.015778,9.169944,3,,,2008.0,8.0,16.0,83,11,,,83,5,,,83,1,,,1,29325,0.1325301204819277,0.0602409638554216,0.0120481927710843,0.183593567349974,382.53729700671187,75,75,75,59
SLE,SL,4360.0,42258.0,42258.0,school in gallines  perri,,-10.956389,9.533889,3,,,2008.0,8.0,16.0,54,35,,,54,2,,,54,0,,,1,29320,0.6481481481481481,0.037037037037037,0.0,0.6237544322799388,63974.83678211641,76,76,76,60
SLE,SL,4361.0,42262.0,42262.0,school in gbense,,-12.142778,7.609444,3,,,2008.0,8.0,16.0,55,39,,,55,0,,,55,10,,,1,29354,0.7090909090909091,0.0,0.1818181818181818,0.7188523312022453,585.5108200128963,77,77,77,61
SLE,SL,4362.0,42265.0,42265.0,school in gbense,,-13.0635,8.241972,3,,,2008.0,8.0,16.0,38,17,,,38,5,,,38,3,,,1,29359,0.4473684210526316,0.131578947368421,0.0789473684210526,0.5263879986906063,368.00994471283616,78,78,78,62
SLE,SL,4359.0,42255.0,42255.0,school in gbense,,-11.012194,8.702083,3,,,2008.0,8.0,16.0,62,5,,,62,2,,,62,0,,,1,29335,0.0806451612903225,0.032258064516129,0.0,0.1040582726326742,8017.968592939134,79,79,79,63
SLE,SL,4360.0,42258.0,42258.0,school in gbense,,-11.702278,9.454667,3,,,2008.0,8.0,16.0,33,30,,,33,0,,,33,0,,,1,29346,0.9090909090909092,0.0,0.0,0.8576329331046311,54.89538099502442,80,80,80,64
SLE,SL,4361.0,42261.0,42261.0,school in impere,,-11.650556,7.570556,3,,,2008.0,8.0,16.0,59,5,,,59,3,,,59,2,,,1,29338,0.0847457627118644,0.0508474576271186,0.0338983050847457,0.1516340659472909,10914.589593609477,81,81,81,65
SLE,SL,4359.0,42253.0,42253.0,school in impere,,-10.929722,8.030833,3,,,2008.0,8.0,16.0,49,25,,,49,0,,,49,0,,,1,29321,0.5102040816326531,0.0,0.0,0.4813246053138236,12556.79025997071,82,82,82,66
SLE,SL,4359.0,42255.0,42255.0,school in impere,,-10.999306,8.619,3,,,2008.0,8.0,16.0,58,9,,,58,4,,,58,0,,,1,29345,0.1551724137931034,0.0689655172413793,0.0,0.2013550804298566,4157.086681520312,83,83,83,67
SLE,SL,4360.0,42256.0,42256.0,school in impere,,-11.907722,8.788416999999999,3,,,2008.0,8.0,16.0,37,11,,,37,4,,,37,0,,,1,29314,0.2972972972972973,0.1081081081081081,0.0,0.3521369406122083,189.82523344468746,84,84,84,68
SLE,SL,4359.0,42254.0,42254.0,school in kandu leppiama,,-11.388056,7.7125,3,,,2008.0,8.0,16.0,33,22,,,33,2,,,33,0,,,1,29343,0.6666666666666666,0.0606060606060606,0.0,0.6479893272346102,135.2926592636141,85,85,85,69
SLE,SL,4359.0,42253.0,42253.0,school in kandu leppiama,,-10.673333,8.004444,3,,,2008.0,8.0,16.0,46,15,,,46,0,,,46,1,,,1,29339,0.3260869565217391,0.0,0.0217391304347826,0.3214502264864285,168.32212988989266,86,86,86,70
SLE,SL,4360.0,42259.0,42259.0,school in kandu leppiama,,-12.747694,8.90775,3,,,2008.0,8.0,16.0,58,30,,,58,1,,,58,0,,,1,29360,0.5172413793103449,0.0172413793103448,0.0,0.4958158526462208,4140.15719123593,87,87,87,71
SLE,SL,4360.0,42257.0,42257.0,school in kandu leppiama,,-12.926972,9.134278,3,,,2008.0,8.0,16.0,67,13,,,67,6,,,67,0,,,1,29347,0.1940298507462686,0.0895522388059701,0.0,0.2511380019082284,7782.532299152489,88,88,88,72
SLE,SL,4359.0,42254.0,42254.0,school in kolifa rowala,,-11.286389,8.000556,3,,,2008.0,8.0,16.0,61,33,,,61,0,,,61,2,,,1,29332,0.5409836065573771,0.0,0.0327868852459016,0.5245597399765736,23592.122372091948,89,89,89,73
SLE,SL,4362.0,42265.0,42265.0,school in kolifa rowala,,-13.070056,8.321444,3,,,2008.0,8.0,16.0,50,14,,,50,5,,,50,2,,,1,29333,0.28,0.1,0.04,0.3565283018867924,1675.0413019798325,90,90,90,74
SLE,SL,4359.0,42255.0,42255.0,school in kolifa rowala,,-11.079639,8.599194,3,,,2008.0,8.0,16.0,64,9,,,64,3,,,64,1,,,1,29322,0.140625,0.046875,0.015625,0.182741992878464,169.24831420131574,91,91,91,75
SLE,SL,4360.0,42256.0,42256.0,school in kolifa rowala,,-12.105611,8.874889,3,,,2008.0,8.0,16.0,48,10,,,48,6,,,48,0,,,1,29366,0.2083333333333333,0.125,0.0,0.2898977987421383,5803.902911340969,92,92,92,76
SLE,SL,4361.0,42262.0,42262.0,school in rural,,-12.303889,7.696389,3,,,2008.0,8.0,16.0,32,9,,,32,0,,,32,5,,,1,29344,0.28125,0.0,0.15625,0.3712780070754716,10346.816464108937,93,93,93,77
SLE,SL,4359.0,42254.0,42254.0,school in rural,,-10.943611,8.144444,3,,,2008.0,8.0,16.0,61,32,,,61,0,,,61,1,,,1,29363,0.5245901639344263,0.0,0.0163934426229508,0.502248837551277,12867.398886477673,94,94,94,78
SLE,SL,4360.0,42259.0,42259.0,school in rural,,-12.677694,8.70575,3,,,2008.0,8.0,16.0,32,14,,,32,8,,,32,1,,,1,29342,0.4375,0.25,0.03125,0.557838295990566,21660.89573221964,95,95,95,79
SLE,SL,4360.0,42256.0,42256.0,school in rural,,-12.055444,8.860861,3,,,2008.0,8.0,16.0,47,7,,,47,3,,,47,0,,,1,29328,0.1489361702127659,0.0638297872340425,0.0,0.1917541447081834,1138.6310327038307,96,96,96,80
SLE,SL,4359.0,42254.0,42254.0,sendumei,,-11.388699,7.711478,1,,mapping,2008.0,5.0,14.0,117,40,,,117,11,,,117,1,,,1,22805,0.3418803418803419,0.094017094017094,0.0085470085470085,0.3857084454093207,0.0,97,97,98,81
SLE,SL,4359.0,42254.0,42254.0,sendumei,16276.0,-11.388699,7.711478,1,,,2008.0,,,118,40,,,118,11,,,118,1,,,1,13545,0.3389830508474576,0.0932203389830508,0.0084745762711864,0.3827197247022462,0.0,98,98,97,81
SLE,SL,4361.0,42263.0,42263.0,senehun,,-12.132267,8.132728,1,,mapping,2008.0,5.0,14.0,120,40,,,120,6,,,120,12,,,1,22817,0.3333333333333333,0.05,0.1,0.4056603773584905,20763.40979795439,99,99,99,82
SLE,SL,4361.0,42264.0,42264.0,simju,,-11.72083,7.3562993,1,,mapping,2008.0,5.0,14.0,108,50,,,108,9,,,108,3,,,1,22822,0.4629629629629629,0.0833333333333333,0.0277777777777777,0.4918779278929522,15910.759876543056,100,100,100,83
SLE,SL,4359.0,42255.0,42255.0,small sefadu,,-10.9693968,8.6448125,2,,mapping,2008.0,5.0,14.0,109,14,,,109,5,,,109,1,,,1,22810,0.128440366972477,0.0458715596330275,0.0091743119266055,0.1660842824864546,2599.3709259630773,101,101,101,84
SLE,SL,4359.0,42255.0,42255.0,swarray town,,-11.5,8.5,3,,mapping,2008.0,5.0,14.0,105,10,,,105,4,,,105,0,,,1,22813,0.0952380952380952,0.0380952380952381,0.0,0.1223634107731142,0.0,102,102,4,5
SLE,SL,4361.0,42263.0,42263.0,taninahun kaouima,16289.0,-12.3071232,8.1969956,3,,,2008.0,,,120,64,,,120,14,,,120,16,,,1,13603,0.5333333333333333,0.1166666666666666,0.1333333333333333,0.6063591893780572,20763.40979795439,103,103,103,85
SLE,SL,4361.0,42263.0,42263.0,taninahun kapuima,,-12.0841,7.72299,3,,mapping,2008.0,5.0,14.0,120,64,,,120,14,,,120,16,,,1,22814,0.5333333333333333,0.1166666666666666,0.1333333333333333,0.6063591893780572,10610.033257203255,104,104,104,86
SLE,SL,4361.0,42261.0,42261.0,tikonko,,-11.784,7.880965,3,,mapping,2008.0,5.0,14.0,136,12,,,136,2,,,136,0,,,1,22782,0.088235294117647,0.0147058823529411,0.0,0.0958901873735065,309.92605539231226,105,105,105,87
SLE,SL,4359.0,42253.0,42253.0,tikonko,,-10.81259,7.917731,3,,mapping,2008.0,5.0,14.0,112,44,,,112,0,,,112,0,,,1,22795,0.3928571428571428,0.0,0.0,0.3706199460916441,68.86645883727911,106,106,106,88
SLE,SL,4361.0,42261.0,42261.0,tikonko (bo),16257.0,-11.7822923,7.8831431,1,,,2008.0,,,136,12,,,136,2,,,136,0,,,1,13589,0.088235294117647,0.0147058823529411,0.0,0.0958901873735065,309.92605539231226,107,107,107,89
SLE,SL,4359.0,42253.0,42253.0,tikonko (kailahun),16269.0,-10.812817,7.917161,1,,,2008.0,,,112,44,,,112,0,,,112,0,,,1,13540,0.3928571428571428,0.0,0.0,0.3706199460916441,68.86645883727911,108,108,108,90
SLE,SL,4362.0,42265.0,42265.0,tissana,,-13.06188,8.23912,3,,mapping,2008.0,5.0,14.0,99,36,,,99,14,,,99,8,,,1,22831,0.3636363636363636,0.1414141414141414,0.0808080808080808,0.4696023771859313,368.00994471283616,109,109,109,91
SLE,SL,4361.0,42262.0,42262.0,tobanda,,-11.368578,7.807066,1,,mapping,2008.0,5.0,14.0,124,46,,,124,18,,,124,8,,,1,22793,0.3709677419354839,0.1451612903225806,0.064516129032258,0.4688401524330192,0.0,110,110,111,92
SLE,SL,4361.0,42262.0,42262.0,tobanda,16264.0,-11.368578,7.807066,1,,,2008.0,,,124,46,,,128,18,,,124,8,,,1,19833,0.3709677419354839,0.140625,0.064516129032258,0.4663218713800482,0.0,111,111,110,92
SLE,SL,4359.0,42254.0,42254.0,tomaju,,-11.5,8.5,3,,mapping,2008.0,5.0,14.0,111,45,,,111,0,,,111,0,,,1,22802,0.4054054054054054,0.0,0.0,0.3824579296277409,0.0,112,112,4,5
SLE,SL,4359.0,42255.0,42255.0,tombodu,,-10.618883,8.135433,1,,mapping,2008.0,5.0,14.0,103,10,,,103,3,,,103,0,,,1,22812,0.0970873786407767,0.029126213592233,0.0,0.1164017023637815,0.0,113,113,114,93
SLE,SL,4359.0,42255.0,42255.0,tombodu,16285.0,-10.618883,8.135433,1,,,2008.0,,,103,10,,,103,5,,,103,0,,,1,19823,0.0970873786407767,0.0485436893203883,0.0,0.1329415928448078,0.0,114,114,113,93
SLE,SL,4361.0,42262.0,42262.0,yangatoke,,-11.5,8.5,4,,mapping,2008.0,5.0,14.0,102,22,,,102,1,,,102,5,,,1,22792,0.2156862745098039,0.0098039215686274,0.0490196078431372,0.2466466481843475,0.0,115,115,4,5
