iso3,iso2,admin1_id,admin2_id,iu_id,location,site_id,longitude,latitude,georeliability,location_type,survey_type,year,age_start,age_end,hk_examined,hk_positive,hk_perc_highinfection,hk_perc_moderateinfection,asc_examined,asc_positive,asc_perc_highinfection,asc_perc_moderateinfection,tt_examined,tt_positive,tt_perc_highinfection,tt_perc_moderateinfection,quality,sn,shortest,id,src,dst
BFA,BF,599.0,5367.0,5367.0,arbinda s,50088.0,-0.8603645,14.2293346,1,,,2004.0,,,35,1,,,35,0,,,35,1,,,2,2369,49140.27598900518,0,0,0
BFA,BF,599.0,5370.0,5370.0,bana,50160.0,0.7535820999999999,13.2250153,1,,,2004.0,,,60,3,,,60,0,,,60,0,,,2,2377,56041.00282128298,1,1,1
BFA,BF,600.0,5371.0,5371.0,banaba ip,50064.0,-2.8834,9.8188,3,,,2004.0,,,60,9,,,60,0,,,60,0,,,2,2378,40183.99789729338,2,2,2
BFA,BF,600.0,5374.0,5374.0,banwan,50102.0,-2.9489,10.1684,3,,,2004.0,,,64,5,,,64,0,,,64,2,,,2,2381,40183.99789729338,3,3,3
BFA,BF,596.0,5355.0,5355.0,bereba,50109.0,-3.6876803,11.6207692,1,,,2004.0,,,60,0,,,60,0,,,60,0,,,2,2357,32607.446460982563,4,4,4
BFA,BF,596.0,5352.0,5352.0,bobo dioulasso,,-4.293,11.181,3,,,1980.0,1.0,99.0,265,61,,,265,3,,,265,1,,,3,28653,24567.192827261348,5,5,5
BFA,BF,588.0,5312.0,5312.0,bondo,50070.0,-3.4318022,11.760385,1,,,2004.0,,,58,25,,,58,1,,,58,3,,,2,2278,32607.446460982563,6,6,6
BFA,BF,595.0,5351.0,5351.0,bossoari,50134.0,0.60610002,11.0313,3,,,2004.0,,,58,2,,,58,0,,,58,0,,,2,2350,27036.956038203574,7,7,7
BFA,BF,591.0,5329.0,5329.0,boudangou,50132.0,0.3223896,12.1427273,1,,,2004.0,,,61,3,,,61,0,,,61,0,,,2,2296,8863.815440220269,8,8,8
BFA,BF,599.0,5368.0,5368.0,boudougue,50095.0,0.085299999,14.0315,3,,,2004.0,,,66,1,,,66,0,,,66,0,,,2,2372,5261.721234154801,9,9,9
BFA,BF,594.0,5344.0,5344.0,boungou,50136.0,-0.9332,11.0433,3,,,2004.0,,,61,0,,,61,0,,,61,0,,,2,2316,50632.887953837984,10,10,10
BFA,BF,594.0,5343.0,5343.0,bourzem,50122.0,-0.69910002,11.4258,3,,,2004.0,,,59,0,,,59,0,,,59,0,,,2,2315,8084.044072088191,11,11,11
BFA,BF,588.0,5312.0,5312.0,dakayes,50071.0,-2.7356,11.4782,3,,,2004.0,,,61,8,,,61,1,,,61,2,,,2,2279,24186.375626204568,12,12,12
BFA,BF,595.0,5346.0,5346.0,dakiri,50066.0,0.1596,13.1771,3,,,2004.0,,,61,0,,,61,0,,,61,0,,,2,2337,39415.88983477235,13,13,13
BFA,BF,592.0,5334.0,5334.0,dakiskiem,50072.0,-0.42680001,12.5269,3,,,2004.0,,,61,0,,,61,0,,,61,0,,,2,2301,11915.683835524997,14,14,14
BFA,BF,593.0,5337.0,5337.0,dapoury,50119.0,-1.8246,12.2519,3,,,2004.0,,,60,0,,,60,0,,,60,0,,,2,2305,19778.445060619953,15,15,15
BFA,BF,592.0,5335.0,5335.0,delga,50113.0,-1.1668,13.146,3,,,2004.0,,,59,0,,,59,0,,,59,0,,,2,2302,32532.682774837307,16,16,16
BFA,BF,589.0,5319.0,5319.0,dianabana,50123.0,-4.4555998,10.39,3,,,2004.0,,,59,3,,,59,0,,,59,0,,,2,2292,39548.141642131195,17,17,17
BFA,BF,599.0,5368.0,5368.0,diaounga,50096.0,0.25060001,13.9349,3,,,2004.0,,,65,2,,,65,0,,,65,0,,,2,2371,21480.421759948138,18,18,18
BFA,BF,600.0,5373.0,5373.0,diebougou,50087.0,-3.2432781,10.9578957,1,,,2004.0,,,59,0,,,59,0,,,59,0,,,2,2380,36717.95868051867,19,19,19
BFA,BF,591.0,5332.0,5332.0,dimvousse,50171.0,-0.62919998,11.4065,3,,,2004.0,,,61,0,,,61,0,,,61,0,,,2,2299,8084.044072088191,20,20,20
BFA,BF,588.0,5315.0,5315.0,dira,50163.0,-3.9823827,12.3485084,1,,,2004.0,,,60,15,,,60,0,,,60,1,,,2,2284,48832.607324988574,21,21,21
BFA,BF,599.0,5367.0,5367.0,djibo sec,50089.0,-1.6226538,14.1005099,1,,,2004.0,,,59,0,,,59,0,,,59,0,,,2,2367,21812.731927620396,22,22,22
BFA,BF,599.0,5368.0,5368.0,dori evan,50097.0,0.047400001,14.0589,3,,,2004.0,,,62,0,,,62,0,,,62,0,,,2,2373,5261.721234154801,23,23,23
BFA,BF,592.0,5333.0,5333.0,doro,50063.0,-0.8574,13.6467,3,,,2004.0,,,58,0,,,58,0,,,58,1,,,2,2300,66827.296471565,24,24,24
BFA,BF,595.0,5348.0,5348.0,ecole pro,50098.0,0.34290001,12.0675,3,,,2004.0,,,66,0,,,66,0,,,66,1,,,2,2344,3529.9537888848936,25,25,25
BFA,BF,588.0,5316.0,5316.0,franco ar,50166.0,-3.1249001,12.7857,3,,,2004.0,,,60,4,,,60,0,,,60,1,,,2,2285,35889.65712258683,26,26,26
BFA,BF,599.0,5367.0,5367.0,gaskinde,50090.0,-1.6340336999999998,13.9107089,1,,,2004.0,,,59,1,,,59,0,,,59,0,,,2,2368,21812.731927620396,27,27,27
BFA,BF,595.0,5349.0,5349.0,gayeri,50103.0,0.4915329,12.6513142,1,,,2004.0,,,60,0,,,60,0,,,60,0,,,2,2348,58407.003710693534,28,28,28
BFA,BF,600.0,5372.0,5372.0,gnikpiere,50079.0,-3.0301001,11.2049,3,,,2004.0,,,60,2,,,60,0,,,60,0,,,2,2379,33643.7275442393,29,29,29
BFA,BF,597.0,5363.0,5363.0,ipala sil,50170.0,-1.7961,12.997,3,,,2004.0,,,63,0,,,63,0,,,63,0,,,2,2363,43822.95076714742,30,30,30
BFA,BF,591.0,5330.0,5330.0,kampelse,50137.0,-0.45469999,12.426,3,,,2004.0,,,59,1,,,59,0,,,59,0,,,2,2298,11915.683835524997,31,31,31
BFA,BF,593.0,5340.0,5340.0,kandarzan,50138.0,-2.5114,12.7803,3,,,2004.0,,,62,0,,,62,0,,,62,0,,,2,2309,50140.346318597956,32,32,32
BFA,BF,588.0,5317.0,5317.0,kawara,50167.0,-2.8966999,13.0077,3,,,2004.0,,,60,5,,,60,0,,,60,0,,,2,2287,35889.65712258683,33,33,33
BFA,BF,595.0,5347.0,5347.0,kindi kom,50082.0,1.7283,11.6793,3,,,2004.0,,,63,0,,,63,0,,,63,0,,,2,2340,21286.977508039698,34,34,34
BFA,BF,597.0,5359.0,5359.0,kindibo,50108.0,-2.1910999,13.2326,3,,,2004.0,,,64,1,,,64,0,,,64,1,,,2,2359,30310.038257048174,35,35,35
BFA,BF,595.0,5349.0,5349.0,kirgou,50104.0,0.99519998,12.7947,3,,,2004.0,,,60,0,,,60,0,,,60,0,,,2,2349,56041.00282128298,36,36,36
BFA,BF,599.0,5369.0,5369.0,koirezena,50105.0,-0.023600001,14.3624,3,,,2004.0,,,54,1,,,54,0,,,54,0,,,2,2375,32836.45300097639,37,37,37
BFA,BF,588.0,5314.0,5314.0,koro,50129.0,-3.6065848,12.8096497,1,,,2004.0,,,58,4,,,58,0,,,58,1,,,2,2283,52822.04779277283,38,38,38
BFA,BF,588.0,5313.0,5313.0,kosso,50080.0,-3.7054373,12.0159737,1,,,2004.0,,,60,25,,,60,0,,,60,0,,,2,2281,42110.11251652177,39,39,39
BFA,BF,596.0,5353.0,5353.0,kouakouri,50077.0,-4.5606999,12.032,3,,,2004.0,,,60,2,,,60,0,,,60,0,,,2,2352,59359.439933827074,40,40,40
BFA,BF,588.0,5313.0,5313.0,koukateng,50081.0,-3.5366001,12.3516,3,,,2004.0,,,66,12,,,66,0,,,66,0,,,2,2280,42593.72923987788,41,41,41
BFA,BF,597.0,5361.0,5361.0,koumbrang,50161.0,-2.0023999,13.4236,3,,,2004.0,,,41,21,,,41,0,,,41,0,,,2,2361,30310.038257048174,42,42,42
BFA,BF,595.0,5346.0,5346.0,kouri,50067.0,0.035700001,12.3923,3,,,2004.0,,,59,0,,,59,0,,,59,0,,,2,2336,42741.83222625411,43,43,43
BFA,BF,600.0,53007.0,53007.0,libira es,50111.0,-3.5251,10.2682,3,,,2004.0,,,60,19,,,60,0,,,60,1,,,2,2387,65128.097117114114,44,44,44
BFA,BF,595.0,5347.0,5347.0,mangou,50083.0,1.8792,12.0763,3,,,2004.0,,,61,1,,,61,0,,,61,0,,,2,2339,29983.043910033783,45,45,45
BFA,BF,599.0,5369.0,5369.0,markoye,50106.0,0.0348262,14.6423179,1,,,2004.0,,,40,2,,,40,0,,,40,0,,,2,2376,32836.45300097639,46,46,46
BFA,BF,592.0,5336.0,5336.0,medersa d,50117.0,-1.7035,13.5991,3,,,2004.0,,,57,0,,,57,0,,,57,2,,,2,2303,36539.99580729948,47,47,47
BFA,BF,597.0,5360.0,5360.0,medersa y,50131.0,-2.4256001,13.5727,3,,,2004.0,,,60,9,,,60,0,,,60,1,,,2,2360,46863.55078667346,48,48,48
BFA,BF,589.0,5318.0,5318.0,mondon,50061.0,-4.8195508,10.8517748,1,,,2004.0,,,60,0,,,60,0,,,60,0,,,2,2288,37131.135393383636,49,49,49
BFA,BF,590.0,5322.0,5322.0,namalgzan,50069.0,-1.4841,12.3256,3,,,2004.0,,,26,0,,,26,0,,,26,0,,,2,2294,38823.168851763534,50,50,50
BFA,BF,595.0,5347.0,5347.0,namounou,50084.0,1.6990607999999998,11.8643009,1,,,2004.0,,,59,1,,,59,0,,,59,1,,,2,2341,5740.926382653812,51,51,51
BFA,BF,595.0,5348.0,5348.0,nassougou,50099.0,1.1788,12.0725,3,,,2004.0,,,61,1,,,61,0,,,61,0,,,2,2346,27414.469247780737,52,52,52
BFA,BF,593.0,5341.0,5341.0,neliri,50158.0,-2.0056572,11.3161466,1,,,2004.0,,,60,0,,,60,0,,,60,0,,,2,2310,32008.948759357576,53,53,53
BFA,BF,589.0,5318.0,5318.0,niangolok,50062.0,-4.9091329,10.2846705,1,,,2004.0,,,56,5,,,56,0,,,56,0,,,2,2289,50523.47720631455,54,54,54
BFA,BF,595.0,5346.0,5346.0,nindangou,50068.0,-0.1741,13.0618,3,,,2004.0,,,61,0,,,61,0,,,61,0,,,2,2338,39415.88983477235,55,55,55
BFA,BF,591.0,5365.0,5365.0,nioniopal,50172.0,-1.1359,12.4376,3,,,2004.0,,,61,1,,,61,0,,,61,0,,,2,2365,40809.14985824618,56,56,56
BFA,BF,591.0,5329.0,5329.0,niorgo ya,50133.0,0.1073,11.5499,3,,,2004.0,,,56,1,,,56,0,,,56,0,,,2,2297,38540.42035920875,57,57,57
BFA,BF,592.0,53002.0,53002.0,nongfaire,50169.0,-0.23370001,13.496,3,,,2004.0,,,59,0,,,59,0,,,59,0,,,2,2383,50104.07440573034,58,58,58
BFA,BF,591.0,5366.0,5366.0,nonghin e,50173.0,-0.76810002,12.5158,3,,,2004.0,,,60,0,,,60,0,,,60,0,,,2,2366,36358.73399482384,59,59,59
BFA,BF,588.0,5314.0,5314.0,oura,50130.0,-4.0531998,13.0938,3,,,2004.0,,,54,13,,,54,0,,,54,0,,,2,2282,59373.798192760674,60,60,60
BFA,BF,596.0,5355.0,5355.0,paana,50110.0,-3.2558,11.402,3,,,2004.0,,,61,0,,,61,0,,,61,0,,,2,2358,33643.7275442393,61,61,61
BFA,BF,595.0,5351.0,5351.0,pama b,50135.0,0.7049925,11.2489523,2,,,2004.0,,,60,4,,,60,0,,,60,0,,,2,2351,27036.956038203574,62,62,62
BFA,BF,595.0,5347.0,5347.0,popoumou,50085.0,1.6724,11.9075,3,,,2004.0,,,67,0,,,67,0,,,67,0,,,2,2342,5740.926382653812,63,63,63
BFA,BF,596.0,53005.0,53005.0,sadina,50126.0,-4.619514,11.4904898,1,,,2004.0,,,60,0,,,60,0,,,60,0,,,2,2385,35081.629936463105,64,64,64
BFA,BF,595.0,5348.0,5348.0,saint jos,50100.0,0.36849999,12.0492,3,,,2004.0,,,55,0,,,55,0,,,55,0,,,2,2347,3529.9537888848936,65,65,65
BFA,BF,596.0,53005.0,53005.0,samorogou,50127.0,-4.9387002,11.3929,3,,,2004.0,,,60,0,,,60,0,,,60,0,,,2,2386,37220.3043385199,66,66,66
BFA,BF,591.0,5364.0,5364.0,sandogo,50073.0,-1.9727,12.3478,3,,,2004.0,,,62,0,,,62,0,,,62,0,,,2,2364,19778.445060619953,67,67,67
BFA,BF,588.0,5317.0,5317.0,seme,50168.0,-2.9521923,13.5246228,1,,,2004.0,,,66,0,,,66,0,,,66,0,,,2,2286,58877.90751246123,68,68,68
BFA,BF,589.0,5319.0,5319.0,sideradou,50124.0,-4.2543001,10.6778,3,,,2004.0,,,58,2,,,58,0,,,58,0,,,2,2290,39548.141642131195,69,69,69
BFA,BF,589.0,5320.0,5320.0,sindou b,50162.0,-5.1692752,10.6503878,1,,,2004.0,,,60,2,,,60,0,,,60,0,,,2,2293,45125.75616693306,70,70,70
BFA,BF,589.0,5319.0,5319.0,sirakoro,50125.0,-4.1440099,10.1298739,1,,,2004.0,,,58,2,,,58,0,,,58,0,,,2,2291,45487.46286558407,71,71,71
BFA,BF,593.0,5339.0,5339.0,soala,50128.0,-1.96547,12.6504935,1,,,2004.0,,,61,0,,,61,0,,,61,0,,,2,2308,34523.11424435131,72,72,72
BFA,BF,596.0,5354.0,5354.0,sogossaga,50092.0,-4.6223998,11.1159,3,,,2004.0,,,60,0,,,60,0,,,60,0,,,2,2355,11418.777049052434,73,73,73
BFA,BF,591.0,5326.0,5326.0,songtaba,50065.0,-0.2324,11.4844,3,,,2004.0,,,62,1,,,62,0,,,62,0,,,2,2295,38540.42035920875,74,74,74
BFA,BF,592.0,53001.0,53001.0,tampelga,50075.0,-1.2272,12.8674,3,,,2004.0,,,68,0,,,68,0,,,68,0,,,2,2382,32532.682774837307,75,75,75
BFA,BF,595.0,5347.0,5347.0,tatchango,50086.0,1.3848,11.9405,3,,,2004.0,,,56,1,,,56,0,,,56,0,,,2,2343,27414.469247780737,76,76,76
BFA,BF,597.0,5362.0,5362.0,tibou a,50165.0,-2.1684999,14.0957,3,,,2004.0,,,61,8,,,61,0,,,61,1,,,2,2362,60765.81773332632,77,77,77
BFA,BF,593.0,5338.0,5338.0,tiessouro,50120.0,-2.3353,11.3336,3,,,2004.0,,,60,4,,,60,0,,,60,0,,,2,2307,27405.162577999527,78,78,78
BFA,BF,599.0,5369.0,5369.0,tinakof,50107.0,-0.1764234999999999,14.9665632,1,,,2004.0,,,59,0,,,59,0,,,59,0,,,2,2374,44123.20836889413,79,79,79
BFA,BF,596.0,5354.0,5354.0,toukoro,50093.0,-4.5515745,11.1886995,1,,,2004.0,,,60,45,,,60,0,,,60,0,,,2,2354,11418.777049052434,80,80,80
BFA,BF,599.0,5367.0,5367.0,tounte,50091.0,-0.91360003,14.6537,3,,,2004.0,,,60,0,,,60,0,,,60,2,,,2,2370,49140.27598900518,81,81,81
BFA,BF,593.0,53004.0,53004.0,tyelle,50164.0,-2.3297,11.9549,3,,,2004.0,,,60,0,,,60,0,,,60,0,,,2,2384,56444.95066050031,82,82,82
BFA,BF,593.0,5341.0,5341.0,vrassan b,50159.0,-1.9201,11.5852,3,,,2004.0,,,60,0,,,60,0,,,60,0,,,2,2311,32008.948759357576,83,83,83
BFA,BF,593.0,5338.0,5338.0,ya,50121.0,-2.5189525,11.4943048,1,,,2004.0,,,54,0,,,54,0,,,54,0,,,2,2306,24186.375626204568,84,84,84
BFA,BF,595.0,5348.0,5348.0,yanwega,50101.0,0.057599999,11.8958,3,,,2004.0,,,66,0,,,66,0,,,66,1,,,2,2345,37288.66891802849,85,85,85
BFA,BF,596.0,5354.0,5354.0,yessora,50094.0,-4.4449,11.0239,3,,,2004.0,,,60,0,,,60,0,,,60,0,,,2,2356,22148.087635901134,86,86,86
BFA,BF,596.0,5353.0,5353.0,zongoma,50078.0,-4.3147001,11.5689,3,,,2004.0,,,60,2,,,60,0,,,60,0,,,2,2353,35081.629936463105,87,87,87
