iso3,iso2,admin1_id,admin2_id,iu_id,location,site_id,longitude,latitude,georeliability,location_type,survey_type,year,age_start,age_end,hk_examined,hk_positive,hk_perc_highinfection,hk_perc_moderateinfection,asc_examined,asc_positive,asc_perc_highinfection,asc_perc_moderateinfection,tt_examined,tt_positive,tt_perc_highinfection,tt_perc_moderateinfection,quality,sn,hk_prevalence,asc_prevalence,tt_prevalence,sth_prevalence,shortest,id,src,dst
BDI,BI,706.0,6389.0,6389.0,bitare,,29.333333,-2.883333,1,school,mapping,2014.0,12.0,14.0,50,2,0.0,0.0,50,3,0.0,0.0,50,0,0.0,0.0,1,23394,0.04,0.06,0.0,0.0920754716981132,10367.615774115517,0,0,0
BDI,BI,715.0,6414.0,6414.0,buhiga ii,,29.7915,-2.906027778,3,school,mapping,2016.0,13.0,14.0,50,0,0.0,0.0,50,9,0.0,0.02,50,24,0.0,0.04,1,23577,0.0,0.18,0.48,0.541132075471698,5574.965279097866,1,1,1
BDI,BI,702.0,6378.0,6378.0,buhina,10243.0,29.438,-3.4523,1,,,2014.0,,,47,0,,,47,12,,,47,9,,,1,18499,0.0,0.2553191489361702,0.1914893617021276,0.3753939714888491,8154.867369618726,2,2,2
BDI,BI,717.0,6418.0,6418.0,buhonga,,30.333333,-3.65,1,school,mapping,2014.0,12.0,16.0,50,1,0.0,0.0,50,1,0.0,0.0,50,0,0.0,0.0,1,23613,0.02,0.02,0.0,0.0373584905660377,7035.244498480952,3,3,3
BDI,BI,710.0,6402.0,6402.0,burarana,,30.0882,-2.6908000000000003,1,school,mapping,2014.0,12.0,15.0,50,1,0.0,0.0,50,2,0.0,0.0,50,0,0.0,0.0,1,23476,0.02,0.04,0.0,0.0558490566037735,0.0,4,4,5
BDI,BI,710.0,6402.0,6402.0,burarana,10373.0,30.0882,-2.6908000000000003,1,,,2014.0,,,50,1,,,50,1,,,50,0,,,1,18630,0.02,0.02,0.0,0.0373584905660377,0.0,5,5,4
BDI,BI,709.0,6396.0,6396.0,bushoka,,29.808,-3.0943,3,school,mapping,2014.0,13.0,14.0,50,2,0.0,0.0,50,4,0.0,0.0,50,0,0.0,0.0,1,23438,0.04,0.08,0.0,0.110188679245283,7883.542588803293,6,6,6
BDI,BI,717.0,6419.0,6419.0,busoro,,30.4327029,-3.2515663,1,school,mapping,2014.0,12.0,16.0,50,2,0.0,0.0,50,3,0.0,0.0,50,0,0.0,0.0,1,23623,0.04,0.06,0.0,0.0920754716981132,7487.927948228562,7,7,7
BDI,BI,705.0,6387.0,6387.0,busumanyi,,30.6339,-3.0634,3,school,mapping,2014.0,12.0,15.0,50,7,0.0,0.0,50,0,0.0,0.0,50,0,0.0,0.0,1,23371,0.14,0.0,0.0,0.1320754716981132,0.0,8,8,9
BDI,BI,705.0,6387.0,6387.0,busumanyi,10314.0,30.6339,-3.0634,3,,,2014.0,,,50,6,,,50,0,,,50,0,,,1,2185,0.12,0.0,0.0,0.1132075471698113,0.0,9,9,8
BDI,BI,715.0,6412.0,6412.0,butaha,,29.90111111,-2.874833333,3,school,mapping,2016.0,12.0,15.0,50,0,0.0,0.0,50,6,0.0,0.04,49,10,0.0,0.0,1,23557,0.0,0.12,0.2040816326530612,0.2826338082402772,5007.467545060681,10,10,10
BDI,BI,717.0,6417.0,6417.0,butezi,,30.182022,-3.3603962,1,school,mapping,2014.0,12.0,15.0,50,1,0.0,0.0,50,28,0.0,0.02,50,7,0.0,0.0,1,23610,0.02,0.56,0.14,0.593554716981132,4799.66160264073,11,11,11
BDI,BI,710.0,6401.0,6401.0,butihinda,,30.1857,-2.6413,1,school,mapping,2014.0,12.0,15.0,50,3,0.0,0.0,50,5,0.0,0.0,50,4,0.0,0.0,1,23472,0.06,0.1,0.08,0.209132075471698,0.0,12,12,13
BDI,BI,710.0,6401.0,6401.0,butihinda,10305.0,30.1857,-2.6413,1,,,2014.0,,,50,3,,,50,5,,,50,3,,,1,18623,0.06,0.1,0.06,0.1931698113207547,0.0,13,13,12
BDI,BI,709.0,6397.0,6397.0,buziraguhindwa,10254.0,29.5733,-2.9652000000000003,3,,,2014.0,,,50,0,,,50,0,,,50,0,,,1,2207,0.0,0.0,0.0,0.0,1891.016908541867,14,14,14
BDI,BI,715.0,6414.0,6414.0,bwiza bweranka,,29.884,-2.945111111,3,school,mapping,2016.0,13.0,14.0,50,0,0.0,0.0,50,7,0.0,0.0,50,11,0.0,0.02,1,23579,0.0,0.14,0.22,0.310566037735849,3759.2827948311424,15,15,15
BDI,BI,702.0,6377.0,6377.0,bwumba,,29.5145,-3.4234,3,school,mapping,2014.0,12.0,16.0,50,2,0.0,0.0,50,26,0.0,0.16,50,14,0.0,0.0,1,23225,0.04,0.52,0.28,0.6304,0.0,16,16,17
BDI,BI,702.0,6377.0,6377.0,bwumba,10240.0,29.5145,-3.4234,3,,,2014.0,,,50,2,,,50,25,,,50,12,,,1,2149,0.04,0.5,0.24,0.5992452830188678,0.0,17,17,16
BDI,BI,703.0,6381.0,6381.0,cibitoke ii,,29.3769066,-3.3422586,3,school,mapping,2014.0,12.0,16.0,50,0,0.0,0.0,50,0,0.0,0.0,50,5,0.0,0.0,1,23256,0.0,0.0,0.1,0.0943396226415094,979.0527906235462,18,18,18
BDI,BI,704.0,6384.0,6384.0,condi,,29.8279,-3.8073,3,school,mapping,2014.0,12.0,15.0,50,0,0.0,0.0,50,19,0.0,0.04,50,1,0.0,0.0,1,23312,0.0,0.38,0.02,0.370188679245283,0.0,19,19,20
BDI,BI,704.0,6384.0,6384.0,condi,,29.8279,-3.8073,3,school,sentinel site,2009.0,6.0,16.0,389,3,0.0,0.0,389,182,0.0,0.0026,389,38,0.0,0.0,1,23309,0.0077120822622107,0.467866323907455,0.0976863753213367,0.493916510864293,0.0,20,20,19
BDI,BI,704.0,6384.0,6384.0,condi,,29.8279,-3.8073,3,school,sentinel site,2008.0,6.0,17.0,296,6,0.0,0.0,295,93,0.0068,0.0508,296,24,0.0,0.0,1,23308,0.0202702702702702,0.3152542372881356,0.081081081081081,0.3618195676899728,0.0,21,21,19
BDI,BI,704.0,6384.0,6384.0,condi,,29.8279,-3.8073,3,school,sentinel site,2007.0,6.0,20.0,300,4,0.0,0.0,300,93,0.0,0.06,300,39,0.0,0.0,1,23307,0.0133333333333333,0.31,0.13,0.3846264150943396,0.0,22,22,19
BDI,BI,704.0,6384.0,6384.0,condi,,29.8279,-3.8073,3,school,sentinel site,2010.0,5.0,17.0,424,3,0.0,0.0024,424,129,0.0,0.033,424,27,0.0,0.0,1,23310,0.0070754716981132,0.3042452830188679,0.0636792452830188,0.3331695579022685,0.0,23,23,19
BDI,BI,704.0,6384.0,6384.0,condi,,29.8279,-3.8073,3,school,sentinel site,2011.0,6.0,18.0,410,1,0.0,0.0,410,113,0.0,0.0293,410,22,0.0,0.0,1,23311,0.0024390243902439,0.275609756097561,0.0536585365853658,0.2982561111121757,0.0,24,24,19
BDI,BI,714.0,6410.0,6410.0,ecofo kibimba i,,29.62705556,-3.582222222,3,school,mapping,2016.0,10.0,14.0,48,1,0.0,0.0,48,9,0.0,0.0208,48,3,0.0,0.0,1,23532,0.0208333333333333,0.1875,0.0625,0.2397645194575471,3147.5723246758134,25,25,25
BDI,BI,714.0,6411.0,6411.0,ecofo kibumbu ii,,29.74636111,-3.532416667,3,school,mapping,2016.0,11.0,13.0,50,0,0.0,0.0,50,7,0.0,0.04,50,2,0.0,0.0,1,23542,0.0,0.14,0.04,0.1645283018867924,8489.977464022097,26,26,26
BDI,BI,715.0,6413.0,6413.0,ep kidasha,,30.05902778,-2.787166667,3,school,mapping,2016.0,12.0,14.0,50,0,0.0,0.0,50,4,0.0,0.0,50,7,0.0,0.0,1,23566,0.0,0.08,0.14,0.1969811320754717,5427.6856533871,27,27,27
BDI,BI,715.0,6413.0,6413.0,ep kigomero,,30.02330556,-2.922305556,3,school,mapping,2016.0,12.0,14.0,50,1,0.0,0.0,50,6,0.0,0.02,50,4,0.0,0.0,1,23567,0.02,0.12,0.08,0.1948981132075471,3074.8277582063156,28,28,28
BDI,BI,715.0,6413.0,6413.0,ep myando,,29.99461111,-2.939888889,3,school,mapping,2016.0,12.0,14.0,50,1,0.0,0.0,50,9,0.0,0.0,50,8,0.0,0.0,1,23568,0.02,0.18,0.16,0.3065811320754716,3747.609312633924,29,29,29
BDI,BI,704.0,6385.0,6385.0,ep kizuga,,29.54527778,-3.760277778,3,school,sentinel site,2017.0,6.0,15.0,120,0,0.0,0.0,120,16,0.0,0.0,120,0,0.0,0.0,1,23340,0.0,0.1333333333333333,0.0,0.1257861635220125,0.0,30,30,139
BDI,BI,702.0,6377.0,6377.0,ep maramvya,,29.34833333,-3.296666667,3,school,sentinel site,2017.0,6.0,15.0,120,2,0.0,0.0,120,1,0.0,0.0,120,4,0.0,0.0,1,23226,0.0166666666666666,0.0083333333333333,0.0333333333333333,0.0541186233403214,5183.685601905491,31,31,31
BDI,BI,706.0,6388.0,6388.0,ep mirombero,,29.30416667,-2.971666667,3,school,sentinel site,2017.0,6.0,15.0,120,0,0.0,0.0,120,1,0.0,0.0,120,1,0.0,0.0,1,23376,0.0,0.0083333333333333,0.0083333333333333,0.0156577568134171,5404.173381260157,32,32,32
BDI,BI,704.0,6385.0,6385.0,ep mudende,,29.51333333,-3.891388889,3,school,sentinel site,2017.0,6.0,15.0,120,0,0.0,0.0,120,2,0.0,0.0,120,1,0.0,0.0,1,23341,0.0,0.0166666666666666,0.0083333333333333,0.0234538784067085,0.0,33,33,181
BDI,BI,711.0,6403.0,6403.0,ep mugeni,,30.05777778,-4.119166667,3,school,sentinel site,2017.0,6.0,14.0,120,1,0.0,0.0,120,3,0.0,0.0,120,0,0.0,0.0,1,23482,0.0083333333333333,0.025,0.0,0.03125,420.5040320855479,34,34,34
BDI,BI,706.0,6388.0,6388.0,ep munyika,,29.12083333,-2.831111111,3,school,sentinel site,2017.0,6.0,15.0,120,0,0.0,0.0,120,0,0.0,0.0,120,0,0.0,0.0,1,23377,0.0,0.0,0.0,0.0,6328.112121390441,35,35,35
BDI,BI,701.0,6376.0,6376.0,ep musenyi,,29.40444444,-3.195833333,3,school,sentinel site,2017.0,6.0,14.0,120,0,0.0,0.0,120,0,0.0,0.0,120,0,0.0,0.0,1,23211,0.0,0.0,0.0,0.0,0.0,36,36,234
BDI,BI,704.0,6385.0,6385.0,ep nyamibu,,29.39722222,-3.896944444,3,school,sentinel site,2017.0,5.0,15.0,120,6,0.0,0.0,120,2,0.0,0.0,120,1,0.0,0.0,1,23342,0.05,0.0166666666666666,0.0083333333333333,0.0694509958071278,337.0855603194401,37,37,37
BDI,BI,717.0,6418.0,6418.0,ep nyamusasa,,30.39111111,-3.675555556,3,school,sentinel site,2017.0,5.0,14.0,120,5,0.0,0.0,120,3,0.0,0.0,120,2,0.0,0.0,1,23614,0.0416666666666666,0.025,0.0166666666666666,0.0766018081761006,0.0,38,38,273
BDI,BI,704.0,6385.0,6385.0,ep rukinga i,,29.44083333,-3.964166667,3,school,sentinel site,2017.0,6.0,15.0,120,4,0.0,0.0,120,5,0.0,0.0,120,2,0.0,0.0,1,23343,0.0333333333333333,0.0416666666666666,0.0166666666666666,0.0840103074772886,0.0,39,39,296
BDI,BI,701.0,6375.0,6375.0,ep ruzibira,,29.41805556,-2.9847222220000003,3,school,sentinel site,2017.0,6.0,17.0,120,0,0.0,0.0,120,5,0.0,0.0,120,0,0.0,0.0,1,23199,0.0,0.0416666666666666,0.0,0.0393081761006289,0.0,40,40,315
BDI,BI,707.0,6393.0,6393.0,gahe,,29.8497,-3.5867,3,school,mapping,2014.0,13.0,14.0,50,0,0.0,0.0,50,25,0.0,0.02,50,2,0.0,0.0,1,23418,0.0,0.5,0.04,0.490566037735849,11528.309768067173,41,41,41
BDI,BI,713.0,6409.0,6409.0,gahemba i,,30.2794444,-3.4186111,1,school,mapping,2014.0,11.0,14.0,50,9,0.0,0.0,50,3,0.0,0.02,50,3,0.0,0.0,1,23523,0.18,0.06,0.06,0.2598566037735848,0.0,42,42,43
BDI,BI,713.0,6409.0,6409.0,gahemba i,10328.0,30.2794444,-3.4186111,1,,,2014.0,,,50,7,,,50,3,,,50,3,,,1,18663,0.14,0.06,0.06,0.2265132075471697,0.0,43,43,42
BDI,BI,716.0,6415.0,6415.0,gakungu,,30.3211533,-3.7509575,3,school,mapping,2014.0,13.0,14.0,50,9,0.0,0.0,50,3,0.0,0.0,50,0,0.0,0.0,1,23590,0.18,0.06,0.0,0.2162264150943396,9557.30056995558,44,44,44
BDI,BI,706.0,6388.0,6388.0,gasenyi,,29.2,-2.966667,1,school,mapping,2014.0,12.0,15.0,50,2,0.0,0.0,50,0,0.0,0.0,50,0,0.0,0.0,1,23378,0.04,0.0,0.0,0.0377358490566037,11609.165429610406,45,45,45
BDI,BI,713.0,6407.0,6407.0,gasorwe ii,,30.2209801,-2.8521841,1,school,mapping,2014.0,12.0,14.0,50,1,0.0,0.0,50,21,0.0,0.04,50,16,0.0,0.0,1,23513,0.02,0.42,0.32,0.5787622641509432,0.0,46,46,47
BDI,BI,713.0,6407.0,6407.0,gasorwe ii,10219.0,30.2209801,-2.8521841,1,,,2014.0,,,50,1,,,50,21,,,50,15,,,1,2234,0.02,0.42,0.3,0.5680377358490565,0.0,47,47,46
BDI,BI,713.0,6407.0,6407.0,gasorwe iii,,30.2209801,-2.8521841,1,school,mapping,2014.0,13.0,14.0,50,2,0.0,0.0,50,13,0.0,0.0,50,6,0.0,0.0,1,23514,0.04,0.26,0.12,0.3536301886792452,0.0,48,48,46
BDI,BI,710.0,6402.0,6402.0,gatanga,,29.7929048,-4.3495219,1,school,mapping,2014.0,12.0,15.0,50,6,0.0,0.0,50,0,0.0,0.0,50,0,0.0,0.0,1,23477,0.12,0.0,0.0,0.1132075471698113,6845.351759426404,49,49,49
BDI,BI,708.0,6395.0,6395.0,gatonde,10334.0,30.1773,-3.2562,3,,,2014.0,,,50,0,,,50,4,,,50,0,,,1,2202,0.0,0.08,0.0,0.0754716981132075,5395.943688668257,50,50,50
BDI,BI,704.0,6384.0,6384.0,gatwe,,29.4858333,-3.5577778,1,school,mapping,2014.0,12.0,15.0,50,3,0.0,0.0,50,11,0.0,0.1,50,4,0.0,0.0,1,23318,0.06,0.22,0.08,0.3070339622641508,0.0,51,51,52
BDI,BI,704.0,6384.0,6384.0,gatwe,,29.4858333,-3.5577778,1,school,sentinel site,2009.0,6.0,18.0,456,23,0.0,0.0,456,103,0.0,0.011,456,13,0.0,0.0,1,23315,0.050438596491228,0.2258771929824561,0.0285087719298245,0.269697176783267,0.0,52,52,51
BDI,BI,704.0,6384.0,6384.0,gatwe,,29.4858333,-3.5577778,1,school,sentinel site,2008.0,6.0,18.0,311,1,0.0,0.0,307,61,0.0,0.0261,310,7,0.0,0.0,1,23314,0.0032154340836012,0.1986970684039088,0.0225806451612903,0.2068956249662815,0.0,53,53,51
BDI,BI,704.0,6384.0,6384.0,gatwe,,29.4858333,-3.5577778,1,school,sentinel site,2010.0,5.0,20.0,431,4,0.0,0.0,431,68,0.0,0.0162,431,9,0.0,0.0,1,23316,0.0092807424593967,0.1577726218097447,0.0208816705336426,0.172653783342753,0.0,54,54,51
BDI,BI,704.0,6384.0,6384.0,gatwe,,29.4858333,-3.5577778,1,school,sentinel site,2011.0,6.0,18.0,359,0,0.0,0.0,359,55,0.0,0.0251,359,4,0.0,0.0,1,23317,0.0,0.1532033426183844,0.011142061281337,0.1534324555356242,0.0,55,55,51
BDI,BI,704.0,6384.0,6384.0,gatwe,,29.4858333,-3.5577778,1,school,sentinel site,2007.0,5.0,18.0,300,3,0.0,0.0,300,38,0.0,0.0033,300,9,0.0,0.0,1,23313,0.01,0.1266666666666666,0.03,0.1522056603773584,0.0,56,56,51
BDI,BI,704.0,6384.0,6384.0,gatwe,10292.0,29.4858333,-3.5577778,1,,,2014.0,,,50,3,,,50,10,,,50,4,,,1,18530,0.06,0.2,0.08,0.2907169811320754,0.0,57,57,51
BDI,BI,716.0,6415.0,6415.0,giharo,,30.2382911,-3.7733787,1,school,mapping,2014.0,13.0,14.0,50,4,0.0,0.0,50,1,0.0,0.0,50,0,0.0,0.0,1,23591,0.08,0.02,0.0,0.0928301886792452,9557.30056995558,58,58,58
BDI,BI,708.0,6395.0,6395.0,gihogazi ii,50198.0,29.9971769,-3.1552575,1,,,2007.0,,,60,4,,,60,24,,,60,4,,,1,2128,0.0666666666666666,0.4,0.0666666666666666,0.450314465408805,2314.031690229943,59,59,59
BDI,BI,708.0,6395.0,6395.0,gikombe,10335.0,29.7630556,-4.0944444,1,,,2014.0,,,50,1,,,50,12,,,50,3,,,1,18593,0.02,0.24,0.06,0.2829132075471697,8239.3890796118,60,60,60
BDI,BI,707.0,6390.0,6390.0,gisebuzi,,29.8428,-3.3707000000000003,3,school,mapping,2014.0,13.0,14.0,50,10,0.0,0.0,50,21,0.0,0.0,50,18,0.0,0.0,1,23399,0.2,0.42,0.36,0.6632452830188678,0.0,61,61,62
BDI,BI,707.0,6390.0,6390.0,gisebuzi,10229.0,29.8428,-3.3707000000000003,3,,,2014.0,,,50,10,,,50,20,,,50,18,,,1,2192,0.2,0.4,0.36,0.6535849056603773,0.0,62,62,61
BDI,BI,708.0,6394.0,6394.0,gisenyi,,30.2032,-3.0966,1,school,mapping,2014.0,12.0,16.0,50,1,0.0,0.0,50,8,0.0,0.0,50,0,0.0,0.0,1,23423,0.02,0.16,0.0,0.1667924528301886,14038.701295041272,63,63,63
BDI,BI,716.0,6416.0,6416.0,gisuriro,,30.068,-3.7458,3,school,mapping,2014.0,12.0,14.0,50,2,0.0,0.0,50,17,0.0,0.02,50,4,0.0,0.0,1,23602,0.04,0.34,0.08,0.3934792452830188,0.0,64,64,65
BDI,BI,716.0,6416.0,6416.0,gisuriro,,30.068,-3.7458,3,school,sentinel site,2008.0,6.0,16.0,300,25,0.0,0.0,300,82,0.0,0.03,300,68,0.0,0.0,1,23599,0.0833333333333333,0.2733333333333333,0.2266666666666666,0.4574283717679944,0.0,65,65,64
BDI,BI,716.0,6416.0,6416.0,gisuriro,,30.068,-3.7458,3,school,sentinel site,2011.0,2.0,18.0,503,9,0.0,0.0,503,101,0.0,0.0199,503,54,0.0,0.0,1,23601,0.0178926441351888,0.2007952286282306,0.1073558648111332,0.2824143942418981,0.0,66,66,64
BDI,BI,716.0,6416.0,6416.0,gisuriro,,30.068,-3.7458,3,school,sentinel site,2009.0,6.0,19.0,385,5,0.0,0.0,384,37,0.0026,0.013,385,89,0.0,0.0,1,23600,0.0129870129870129,0.0963541666666666,0.2311688311688311,0.2964826972423149,0.0,67,67,64
BDI,BI,713.0,6409.0,6409.0,gitaramuka,,30.1358346,-2.9757159,1,school,mapping,2014.0,13.0,14.0,50,7,0.0,0.0,50,1,0.0,0.0,50,3,0.0,0.0,1,23524,0.14,0.02,0.06,0.1960075471698113,0.0,68,68,69
BDI,BI,713.0,6409.0,6409.0,gitaramuka,10329.0,30.1358346,-2.9757159,1,,,2014.0,,,50,8,,,50,2,,,50,3,,,1,2239,0.16,0.04,0.06,0.2282867924528302,0.0,69,69,68
BDI,BI,702.0,6378.0,6378.0,gitaza ii,,29.3460869,-3.617381,1,school,mapping,2014.0,12.0,15.0,50,0,0.0,0.0,50,1,0.0,0.0,50,7,0.0,0.0,1,23233,0.0,0.02,0.14,0.1483018867924528,0.0,70,70,71
BDI,BI,702.0,6378.0,6378.0,gitaza ii,10244.0,29.3460869,-3.617381,1,,,2014.0,,,50,1,,,50,1,,,50,5,,,1,2151,0.02,0.02,0.1,0.1279622641509434,0.0,71,71,70
BDI,BI,713.0,6408.0,6408.0,gitega,,30.2713,-2.7141,1,school,mapping,2014.0,12.0,14.0,50,4,0.0,0.0,50,13,0.0,0.04,50,14,0.0,0.0,1,23518,0.08,0.26,0.28,0.4809660377358489,12514.802892771906,72,72,72
BDI,BI,702.0,6378.0,6378.0,gitenga,,29.3942,-3.5302,3,school,mapping,2014.0,13.0,14.0,50,17,0.0,0.0,50,1,0.0,0.0,50,1,0.0,0.0,1,23234,0.34,0.02,0.02,0.345411320754717,0.0,73,73,74
BDI,BI,702.0,6378.0,6378.0,gitenga,10245.0,29.3942,-3.5302,3,,,2014.0,,,50,17,,,50,1,,,50,2,,,1,2155,0.34,0.02,0.04,0.3576150943396226,0.0,74,74,73
BDI,BI,704.0,6384.0,6384.0,gitobo,,29.8235,-3.9825,3,school,mapping,2014.0,12.0,15.0,50,0,0.0,0.0,50,9,0.0,0.08,50,1,0.0,0.0,1,23325,0.0,0.18,0.02,0.1852830188679245,0.0,75,75,76
BDI,BI,704.0,6384.0,6384.0,gitobo,,29.8235,-3.9825,3,school,sentinel site,2009.0,5.0,19.0,465,2,0.0,0.0,465,117,0.0,0.0258,465,3,0.0,0.0,1,23322,0.0043010752688172,0.2516129032258064,0.0064516129032258,0.2449427447274713,0.0,76,76,75
BDI,BI,704.0,6384.0,6384.0,gitobo,,29.8235,-3.9825,3,school,sentinel site,2010.0,6.0,19.0,444,1,0.0,0.0,444,109,0.0,0.0383,444,6,0.0,0.0,1,23323,0.0022522522522522,0.2454954954954954,0.0135135135135135,0.2427998800032166,0.0,77,77,75
BDI,BI,704.0,6384.0,6384.0,gitobo,,29.8235,-3.9825,3,school,sentinel site,2011.0,5.0,18.0,490,0,0.0,0.0,490,112,0.0,0.0388,490,6,0.0,0.0,1,23324,0.0,0.2285714285714285,0.0122448979591836,0.2245448044446889,0.0,78,78,75
BDI,BI,704.0,6384.0,6384.0,gitobo,,29.8235,-3.9825,3,school,sentinel site,2007.0,5.0,17.0,299,29,0.0,0.0,300,67,0.0,0.0333,300,10,0.0,0.0,1,23320,0.0969899665551839,0.2233333333333333,0.0333333333333333,0.3038114469615699,0.0,79,79,75
BDI,BI,704.0,6384.0,6384.0,gitobo,,29.8235,-3.9825,3,school,sentinel site,2008.0,6.0,17.0,331,2,0.0,0.0,331,66,0.003,0.0151,331,3,0.0,0.0,1,23321,0.0060422960725075,0.1993957703927492,0.0090634441087613,0.1994770241254622,0.0,80,80,75
BDI,BI,704.0,6384.0,6384.0,gitobo,10294.0,29.8235,-3.9825,3,,,2014.0,,,50,0,,,50,8,,,50,1,,,1,2172,0.0,0.16,0.02,0.1667924528301886,0.0,81,81,75
BDI,BI,706.0,6389.0,6389.0,gitukura,,29.1230716,-2.8878427,2,school,mapping,2014.0,12.0,14.0,50,2,0.0,0.0,50,4,0.0,0.02,50,0,0.0,0.0,1,23395,0.04,0.08,0.0,0.110188679245283,0.0,82,82,83
BDI,BI,706.0,6389.0,6389.0,gitukura,10281.0,29.1230716,-2.8878427,2,,,2014.0,,,50,2,,,50,3,,,50,0,,,1,2190,0.04,0.06,0.0,0.0920754716981132,0.0,83,83,82
BDI,BI,710.0,6401.0,6401.0,kabirizi i,,30.3167,-2.6033,3,school,mapping,2014.0,13.0,15.0,50,3,0.0,0.0,50,2,0.0,0.0,50,2,0.0,0.0,1,23473,0.06,0.04,0.04,0.1261283018867924,12457.182681311182,84,84,84
BDI,BI,711.0,6404.0,6404.0,kabo,,29.64638889,-4.299444444,3,school,mapping,2014.0,13.0,14.0,50,6,0.0,0.0,50,2,0.0,0.0,50,2,0.0,0.0,1,23491,0.12,0.04,0.04,0.1782943396226415,0.0,85,85,86
BDI,BI,711.0,6404.0,6404.0,kabo,,29.64638889,-4.299444444,3,school,sentinel site,2009.0,6.0,17.0,308,65,0.0,0.0,308,40,0.0,0.0,308,37,0.0,0.0,1,23493,0.211038961038961,0.1298701298701298,0.1201298701298701,0.3735569974089785,0.0,86,86,85
BDI,BI,711.0,6404.0,6404.0,kabo,,29.64638889,-4.299444444,3,school,sentinel site,2008.0,5.0,17.0,300,50,0.0,0.0,300,12,0.0,0.0,300,15,0.0,0.0,1,23492,0.1666666666666666,0.04,0.05,0.2264150943396226,0.0,87,87,85
BDI,BI,711.0,6404.0,6404.0,kabo,,29.64638889,-4.299444444,3,school,sentinel site,2011.0,6.0,17.0,450,14,0.0,0.0,450,3,0.0,0.0,450,4,0.0,0.0,1,23494,0.0311111111111111,0.0066666666666666,0.0088888888888888,0.043514434350493,0.0,88,88,85
BDI,BI,711.0,6404.0,6404.0,kabo,10340.0,29.64638889,-4.299444444,3,,,2014.0,,,50,6,,,50,1,,,50,2,,,1,18641,0.12,0.02,0.04,0.162354716981132,0.0,89,89,85
BDI,BI,710.0,6402.0,6402.0,kabuye,,30.1309,-2.7153,1,school,mapping,2014.0,12.0,15.0,50,2,0.0,0.0,50,17,0.0,0.0,50,10,0.0,0.0,1,23478,0.04,0.34,0.2,0.4652075471698113,0.0,90,90,91
BDI,BI,710.0,6402.0,6402.0,kabuye,10375.0,30.1309,-2.7153,1,,,2014.0,,,50,2,,,50,19,,,50,8,,,1,18629,0.04,0.38,0.16,0.4717283018867924,0.0,91,91,90
BDI,BI,715.0,6412.0,6412.0,kagoma,,29.841,-2.845055556,3,school,mapping,2016.0,13.0,14.0,50,0,0.0,0.0,50,3,0.0,0.0,50,1,0.0,0.0,1,23559,0.0,0.06,0.02,0.0743396226415094,3490.3048378452427,92,92,92
BDI,BI,704.0,6385.0,6385.0,kagongo,,29.3766,-3.8445,3,school,mapping,2014.0,13.0,14.0,50,1,0.0,0.0,50,3,0.0,0.0,50,2,0.0,0.0,1,23345,0.02,0.06,0.04,0.1091018867924528,6010.374740428442,93,93,93
BDI,BI,703.0,6381.0,6381.0,kamenge iii,,29.3863122,-3.3455361,3,school,mapping,2014.0,12.0,14.0,50,0,0.0,0.0,50,1,0.0,0.0,50,1,0.0,0.0,1,23258,0.0,0.02,0.02,0.0373584905660377,1108.9789892866995,94,94,94
BDI,BI,701.0,6375.0,6375.0,kanazi,,29.4938889,-3.0438889,1,school,mapping,2014.0,12.0,16.0,50,1,0.0,0.0,50,8,0.0,0.0,50,0,0.0,0.0,1,23201,0.02,0.16,0.0,0.1667924528301886,1436.4519916863017,95,95,95
BDI,BI,709.0,6398.0,6398.0,karehe,,29.73793,-3.1775199,3,school,mapping,2014.0,12.0,15.0,50,3,0.0,0.0,50,12,0.0,0.0,50,1,0.0,0.0,1,23453,0.06,0.24,0.02,0.2829132075471697,0.0,96,96,97
BDI,BI,709.0,6398.0,6398.0,karehe,,29.73793,-3.1775199,3,school,sentinel site,2008.0,6.0,19.0,300,14,0.0,0.0,300,133,0.0,0.13,300,22,0.0,0.0,1,23450,0.0466666666666666,0.4433333333333333,0.0733333333333333,0.4794606568832983,0.0,97,97,96
BDI,BI,709.0,6398.0,6398.0,karehe,,29.73793,-3.1775199,3,school,sentinel site,2011.0,6.0,18.0,453,4,0.0,0.0,453,99,0.0,0.0132,453,21,0.0,0.0,1,23452,0.0088300220750551,0.2185430463576159,0.0463576158940397,0.2465565369567264,0.0,98,98,96
BDI,BI,709.0,6398.0,6398.0,karehe,,29.73793,-3.1775199,3,school,sentinel site,2009.0,6.0,14.0,301,23,0.0,0.0,301,35,0.0,0.0166,301,50,0.0,0.0,1,23451,0.0764119601328903,0.1162790697674418,0.1661129568106312,0.3013078589685331,0.0,99,99,96
BDI,BI,707.0,6392.0,6392.0,karemba,,30.0076,-3.7068,1,school,mapping,2014.0,13.0,14.0,50,4,0.0,0.0,50,23,0.0,0.02,50,5,0.0,0.0,1,23414,0.08,0.46,0.1,0.5215849056603773,8008.51606502314,100,100,100
BDI,BI,716.0,6416.0,6416.0,karinzi,,29.85430625,-3.0373625,4,school,mapping,2014.0,13.0,14.0,50,2,0.0,0.0,50,5,0.0,0.0,50,2,0.0,0.0,1,23603,0.04,0.1,0.04,0.1609056603773584,2634.489353416913,101,101,101
BDI,BI,717.0,6419.0,6419.0,karuyigi,,30.2483881,-3.4750027,3,school,mapping,2014.0,12.0,16.0,50,0,0.0,0.0,50,1,0.0,0.0,50,0,0.0,0.0,1,23624,0.0,0.02,0.0,0.0188679245283018,0.0,102,102,312
BDI,BI,709.0,6397.0,6397.0,kayanza ii,,29.6321188,-2.9297132,3,school,mapping,2014.0,12.0,16.0,50,0,0.0,0.0,50,6,0.0,0.04,50,1,0.0,0.0,1,23443,0.0,0.12,0.02,0.1298113207547169,4866.373995566624,103,103,103
BDI,BI,713.0,6409.0,6409.0,kayenzi,,30.3589,-2.89833,3,,,2007.0,10.0,16.0,60,11,,,60,4,,,60,3,,,1,31272,0.1833333333333333,0.0666666666666666,0.05,0.260272536687631,3170.621647052767,104,104,104
BDI,BI,712.0,6405.0,6405.0,kibogoye,10264.0,29.6041,-3.2177,1,,,2014.0,,,50,0,,,50,13,,,50,0,,,1,18647,0.0,0.26,0.0,0.2452830188679245,6252.036437021245,105,105,105
BDI,BI,710.0,6399.0,6399.0,kibonde,,30.1602,-2.4725,3,school,mapping,2014.0,12.0,15.0,50,5,0.0,0.0,50,2,0.0,0.0,50,2,0.0,0.0,1,23459,0.1,0.04,0.04,0.1609056603773584,0.0,106,106,107
BDI,BI,710.0,6399.0,6399.0,kibonde,10193.0,30.1602,-2.4725,3,,,2014.0,,,50,4,,,50,1,,,50,2,,,1,2213,0.08,0.02,0.04,0.1268528301886792,0.0,107,107,106
BDI,BI,712.0,6405.0,6405.0,kibumbu,,29.7583,-3.2179,1,school,mapping,2014.0,12.0,16.0,50,2,0.0,0.0,50,19,0.0,0.02,50,1,0.0,0.0,1,23503,0.04,0.38,0.02,0.3931169811320754,0.0,108,108,109
BDI,BI,712.0,6405.0,6405.0,kibumbu,10265.0,29.7583,-3.2179,1,,,2014.0,,,50,2,,,50,18,,,50,1,,,1,18645,0.04,0.36,0.02,0.375366037735849,0.0,109,109,108
BDI,BI,711.0,6404.0,6404.0,kiderege,,29.6725,-4.2695,3,school,mapping,2014.0,12.0,16.0,50,4,0.0,0.0,50,1,0.0,0.0,50,0,0.0,0.0,1,23496,0.08,0.02,0.0,0.0928301886792452,0.0,110,110,111
BDI,BI,711.0,6404.0,6404.0,kiderege,10342.0,29.6725,-4.2695,3,,,2014.0,,,50,1,,,50,1,,,50,0,,,1,18643,0.02,0.02,0.0,0.0373584905660377,0.0,111,111,110
BDI,BI,708.0,6394.0,6394.0,kigarama ii,,29.716667,-2.933333,1,school,mapping,2014.0,12.0,14.0,50,0,0.0,0.0,50,7,0.0,0.0,50,0,0.0,0.0,1,23424,0.0,0.14,0.0,0.1320754716981132,0.0,112,112,113
BDI,BI,708.0,6394.0,6394.0,kigarama ii,10166.0,29.716667,-2.933333,1,,,2014.0,,,50,0,,,50,7,,,50,1,,,1,18584,0.0,0.14,0.02,0.1483018867924528,0.0,113,113,112
BDI,BI,710.0,6402.0,6402.0,kigobe,,30.1231,-2.6833,1,school,mapping,2014.0,13.0,14.0,50,2,0.0,0.0,50,14,0.0,0.0,50,6,0.0,0.0,1,23479,0.04,0.28,0.12,0.3695698113207546,0.0,114,114,115
BDI,BI,710.0,6402.0,6402.0,kigobe,10376.0,30.1231,-2.6833,1,,,2014.0,,,50,2,,,50,14,,,50,5,,,1,18628,0.04,0.28,0.1,0.3565283018867924,0.0,115,115,114
BDI,BI,713.0,6407.0,6407.0,kigoganya,,30.2941,-2.8373,3,school,mapping,2014.0,12.0,14.0,50,9,0.0,0.0,50,7,0.0,0.0,50,4,0.0,0.0,1,23515,0.18,0.14,0.08,0.3313358490566038,0.0,116,116,117
BDI,BI,713.0,6407.0,6407.0,kigoganya,10221.0,30.2941,-2.8373,3,,,2014.0,,,50,10,,,50,7,,,50,4,,,1,2232,0.2,0.14,0.08,0.3462641509433962,0.0,117,117,116
BDI,BI,703.0,6381.0,6381.0,kinama iii,,29.3767699,-3.3334796,3,school,mapping,2014.0,12.0,14.0,50,0,0.0,0.0,50,1,0.0,0.0,50,1,0.0,0.0,1,23259,0.0,0.02,0.02,0.0373584905660377,979.0527906235462,118,118,118
BDI,BI,706.0,6389.0,6389.0,kinga,,29.1230716,-2.8878427,2,school,mapping,2014.0,12.0,14.0,50,1,0.0,0.0,50,11,0.0,0.0,50,5,0.0,0.0,1,23396,0.02,0.22,0.1,0.294377358490566,0.0,119,119,82
BDI,BI,706.0,6389.0,6389.0,kinga,10282.0,29.1230716,-2.8878427,2,,,2014.0,,,50,1,,,50,11,,,50,2,,,1,18560,0.02,0.22,0.04,0.2511094339622641,0.0,120,120,82
BDI,BI,702.0,6378.0,6378.0,kinonko,,29.4716,-3.5377,3,school,mapping,2014.0,12.0,16.0,50,1,0.0,0.0,50,27,0.0,0.18,50,4,0.0,0.0,1,23236,0.02,0.54,0.08,0.5521358490566037,2743.194198534268,121,121,121
BDI,BI,707.0,6391.0,6391.0,kirambi,,29.7553,-3.6292,1,school,mapping,2014.0,13.0,14.0,50,4,0.0,0.02,50,19,0.0,0.02,50,3,0.0,0.0,1,23408,0.08,0.38,0.06,0.4375698113207547,8966.55722417779,122,122,122
BDI,BI,707.0,6393.0,6393.0,kiranzira,,29.90945,-3.41934,1,school,mapping,2014.0,13.0,14.0,50,2,0.0,0.0,50,15,0.0,0.0,50,1,0.0,0.0,1,23419,0.04,0.3,0.02,0.3221132075471697,1337.0154500076803,123,123,123
BDI,BI,716.0,6416.0,6416.0,kireka,,30.0876,-3.677,3,school,mapping,2014.0,13.0,14.0,50,2,0.0,0.0,50,20,0.0,0.0,50,1,0.0,0.0,1,23604,0.04,0.4,0.02,0.4108679245283018,0.0,124,124,125
BDI,BI,716.0,6416.0,6416.0,kireka,10354.0,30.0876,-3.677,3,,,2014.0,,,50,2,,,50,21,,,50,1,,,1,2247,0.04,0.42,0.02,0.4286188679245282,0.0,125,125,124
BDI,BI,702.0,6378.0,6378.0,kirombwe iii,10249.0,29.3675,-3.6227,3,,,2014.0,,,50,2,,,50,19,,,50,18,,,1,2150,0.04,0.38,0.36,0.5840301886792452,2456.420016378846,126,126,126
BDI,BI,702.0,6378.0,6378.0,kirundo,,29.3563904,-3.3846521,1,school,mapping,2014.0,12.0,15.0,50,2,0.0,0.0,50,7,0.0,0.0,50,0,0.0,0.0,1,23237,0.04,0.14,0.0,0.1645283018867924,1554.5418829731132,127,127,127
BDI,BI,717.0,6417.0,6417.0,kivumu,,30.1166667,-3.3983333,1,school,mapping,2014.0,11.0,15.0,50,2,0.0,0.0,50,11,0.0,0.0,50,0,0.0,0.0,1,23611,0.04,0.22,0.0,0.2369811320754717,5779.56128162445,128,128,128
BDI,BI,709.0,6398.0,6398.0,kivumu i,,29.5175,-2.8905556,1,school,mapping,2014.0,12.0,16.0,50,1,0.0,0.0,50,33,0.0,0.02,50,5,0.0,0.0,1,23454,0.02,0.66,0.1,0.6604905660377357,0.0,129,129,130
BDI,BI,709.0,6398.0,6398.0,kivumu i,10321.0,29.5175,-2.8905556,1,,,2014.0,,,50,1,,,50,32,,,50,5,,,1,18607,0.02,0.64,0.1,0.6438490566037735,0.0,130,130,129
BDI,BI,709.0,6396.0,6396.0,kivuruga,,29.6492,-2.9699,1,school,mapping,2014.0,12.0,14.0,50,3,0.0,0.0,50,29,0.0,0.04,50,5,0.0,0.0,1,23439,0.06,0.58,0.1,0.608188679245283,0.0,131,131,132
BDI,BI,709.0,6396.0,6396.0,kivuruga,10215.0,29.6492,-2.9699,1,,,2014.0,,,50,3,,,50,29,,,50,4,,,1,18595,0.06,0.58,0.08,0.6007396226415093,0.0,132,132,131
BDI,BI,701.0,6375.0,6375.0,kivyuka ii,,29.4509403,-3.0288458,1,school,mapping,2014.0,12.0,15.0,50,5,0.0,0.0,50,6,0.0,0.0,50,0,0.0,0.0,1,23202,0.1,0.12,0.0,0.1962264150943396,0.0,133,133,134
BDI,BI,701.0,6375.0,6375.0,kivyuka ii,10162.0,29.4509403,-3.0288458,1,,,2014.0,,,50,5,,,50,5,,,50,0,,,1,2141,0.1,0.1,0.0,0.1792452830188679,0.0,134,134,133
BDI,BI,711.0,6403.0,6403.0,kiyange ii,,29.1288889,-2.7158333,1,school,mapping,2014.0,12.0,15.0,50,6,0.0,0.0,50,1,0.0,0.0,50,0,0.0,0.0,1,23484,0.12,0.02,0.0,0.1298113207547169,4841.436415920354,135,135,135
BDI,BI,710.0,6400.0,6400.0,kiyanza,,30.1460157,-2.5051722,3,school,mapping,2014.0,13.0,14.0,50,7,0.0,0.0,50,5,0.0,0.02,50,2,0.0,0.0,1,23463,0.14,0.1,0.04,0.2424150943396226,0.0,136,136,137
BDI,BI,710.0,6400.0,6400.0,kiyanza,10276.0,30.1460157,-2.5051722,3,,,2014.0,,,50,6,,,50,5,,,50,2,,,1,2217,0.12,0.1,0.04,0.2261132075471698,0.0,137,137,136
BDI,BI,709.0,6398.0,6398.0,kiziba,,29.4922222,-3.0311111,2,school,mapping,2014.0,13.0,14.0,50,2,0.0,0.0,50,35,0.0,0.22,50,8,0.0,0.0,1,23455,0.04,0.7,0.16,0.7151698113207546,1436.4519916863017,138,138,138
BDI,BI,704.0,6385.0,6385.0,kizuga,,29.54527778,-3.760277778,3,school,mapping,2014.0,12.0,16.0,50,1,0.0,0.0,50,4,0.0,0.0,50,0,0.0,0.0,1,23346,0.02,0.08,0.0,0.0928301886792452,0.0,139,139,30
BDI,BI,704.0,6385.0,6385.0,kizuga/nkizi,,29.54527778,-3.760277778,3,school,sentinel site,2007.0,6.0,19.0,300,51,0.0,0.0033,300,143,0.0033,0.08,300,12,0.0,0.0,1,23347,0.17,0.4766666666666667,0.04,0.5500075471698114,0.0,140,140,30
BDI,BI,704.0,6385.0,6385.0,kizuga/nkizi,,29.54527778,-3.760277778,3,school,sentinel site,2009.0,6.0,18.0,446,19,0.0,0.0,446,201,0.0,0.0157,446,19,0.0,0.0,1,23349,0.0426008968609865,0.4506726457399103,0.0426008968609865,0.4683767758283486,0.0,141,141,30
BDI,BI,704.0,6385.0,6385.0,kizuga/nkizi,,29.54527778,-3.760277778,3,school,sentinel site,2011.0,6.0,19.0,350,5,0.0,0.0,350,88,0.0,0.0514,350,9,0.0,0.0,1,23351,0.0142857142857142,0.2514285714285714,0.0257142857142857,0.2651853237251774,0.0,142,142,30
BDI,BI,704.0,6385.0,6385.0,kizuga/nkizi,,29.54527778,-3.760277778,3,school,sentinel site,2010.0,5.0,18.0,454,3,0.0,0.0,454,87,0.0,0.011,454,7,0.0,0.0,1,23350,0.0066079295154185,0.1916299559471365,0.0154185022026431,0.1975029275924991,0.0,143,143,30
BDI,BI,704.0,6385.0,6385.0,kizuga/nkizi,,29.54527778,-3.760277778,3,school,sentinel site,2008.0,6.0,18.0,343,10,0.0,0.0,343,54,0.0029,0.0087,343,7,0.0,0.0,1,23348,0.0291545189504373,0.1574344023323615,0.0204081632653061,0.1874461273930374,0.0,144,144,30
BDI,BI,713.0,6408.0,6408.0,kobero,,30.4103505,-2.664491,1,school,mapping,2014.0,13.0,14.0,50,2,0.0,0.0,50,1,0.0,0.0,50,4,0.0,0.0,1,23519,0.04,0.02,0.08,0.1268528301886792,12457.182681311182,145,145,145
BDI,BI,707.0,6390.0,6390.0,kwibuka,,29.9093794,-3.4073509,3,school,mapping,2014.0,13.0,14.0,50,3,0.0,0.0,50,11,0.0,0.02,50,6,0.0,0.0,1,23400,0.06,0.22,0.12,0.3347018867924527,1337.0154500076803,146,146,146
BDI,BI,703.0,6380.0,6380.0,lumiere kinindo,10172.0,29.3513824,-3.4120317,3,,,2014.0,,,50,0,,,50,0,,,50,0,,,1,18510,0.0,0.0,0.0,0.0,2780.3125786644227,147,147,147
BDI,BI,702.0,6378.0,6378.0,magara ii,,29.317042,-3.7249768,1,school,mapping,2014.0,12.0,15.0,50,0,0.0,0.0,50,3,0.0,0.02,50,0,0.0,0.0,1,23238,0.0,0.06,0.0,0.0566037735849056,0.0,148,148,149
BDI,BI,702.0,6378.0,6378.0,magara ii,10251.0,29.317042,-3.7249768,1,,,2014.0,,,50,1,,,50,4,,,50,1,,,1,2153,0.02,0.08,0.02,0.1098415094339622,0.0,149,149,148
BDI,BI,715.0,6414.0,6414.0,makaba,,29.82047222,-2.994388889,3,school,mapping,2016.0,13.0,14.0,50,5,0.0,0.0,50,2,0.0,0.0,50,0,0.0,0.0,1,23581,0.1,0.04,0.0,0.1283018867924528,3979.910960990413,150,150,150
BDI,BI,707.0,6391.0,6391.0,maramvya,,29.966667,-3.55,1,school,mapping,2014.0,13.0,14.0,50,1,0.0,0.0,50,12,0.0,0.0,50,0,0.0,0.0,1,23410,0.02,0.24,0.0,0.240754716981132,4292.862329486974,151,151,151
BDI,BI,702.0,6377.0,6377.0,maramvya i,,29.3771856,-3.3927199,2,school,mapping,2014.0,12.0,13.0,50,0,0.0,0.0,50,0,0.0,0.0,50,2,0.0,0.0,1,23231,0.0,0.0,0.04,0.0377358490566037,0.0,152,152,153
BDI,BI,702.0,6377.0,6377.0,maramvya i,,29.3771856,-3.3927199,2,school,sentinel site,2008.0,6.0,18.0,300,39,0.0,0.0,300,39,0.0,0.0,300,16,0.0,0.0,1,23228,0.13,0.13,0.0533333333333333,0.267422641509434,0.0,153,153,152
BDI,BI,702.0,6377.0,6377.0,maramvya i,,29.3771856,-3.3927199,2,school,sentinel site,2009.0,6.0,14.0,331,31,0.0,0.0,331,8,0.0,0.0,331,34,0.0,0.0,1,23229,0.093655589123867,0.0241691842900302,0.1027190332326284,0.1947263144374099,0.0,154,154,152
BDI,BI,702.0,6377.0,6377.0,maramvya i,,29.3771856,-3.3927199,2,school,sentinel site,2011.0,6.0,19.0,495,13,0.0,0.0,495,4,0.0,0.0,495,1,0.0,0.0,1,23230,0.0262626262626262,0.008080808080808,0.002020202020202,0.0340400577165019,0.0,155,155,152
BDI,BI,708.0,6394.0,6394.0,masabo,,30.066667,-3.133333,1,school,mapping,2014.0,12.0,15.0,50,0,0.0,0.0,50,7,0.0,0.0,50,0,0.0,0.0,1,23425,0.0,0.14,0.0,0.1320754716981132,6328.624946978919,156,156,156
BDI,BI,704.0,6384.0,6384.0,matana,,29.6832329,-3.7676289,1,school,mapping,2014.0,12.0,15.0,50,0,0.0,0.0,50,12,0.0,0.06,50,2,0.0,0.0,1,23327,0.0,0.24,0.04,0.2550943396226414,3310.906824676811,157,157,157
BDI,BI,702.0,6379.0,6379.0,mayuyu,,29.5176,-3.5791,3,school,mapping,2014.0,12.0,15.0,50,0,0.0,0.0,50,5,0.0,0.0,50,0,0.0,0.0,1,23240,0.0,0.1,0.0,0.0943396226415094,4261.555998913676,158,158,158
BDI,BI,704.0,6383.0,6383.0,mbiga,,29.6391667,-4.1008333,1,school,mapping,2014.0,12.0,15.0,50,2,0.0,0.0,50,7,0.0,0.0,50,0,0.0,0.0,1,23276,0.04,0.14,0.0,0.1645283018867924,0.0,159,159,160
BDI,BI,704.0,6383.0,6383.0,mbiga,10187.0,29.6391667,-4.1008333,1,,,2014.0,,,50,0,,,50,0,,,50,0,,,1,2168,0.0,0.0,0.0,0.0,0.0,160,160,159
BDI,BI,711.0,6404.0,6404.0,mbizi ii,50199.0,29.7163889,-4.41,1,,,2007.0,,,60,12,,,60,2,,,60,0,,,1,2133,0.2,0.0333333333333333,0.0,0.2138364779874213,10756.947546963775,161,161,161
BDI,BI,714.0,6411.0,6411.0,mbogora ii,,29.77188889,-3.386833333,3,school,mapping,2016.0,11.0,14.0,50,0,0.0,0.0,50,3,0.0,0.0,50,0,0.0,0.0,1,23546,0.0,0.06,0.0,0.0566037735849056,4778.33496534637,162,162,162
BDI,BI,714.0,6411.0,6411.0,mbogora iii,,29.76836111,-3.459527778,3,school,mapping,2016.0,12.0,14.0,50,0,0.0,0.0,50,9,0.0,0.0,50,2,0.0,0.0,1,23548,0.0,0.18,0.04,0.200754716981132,0.0,163,163,259
BDI,BI,716.0,6416.0,6416.0,mbuza,,30.04374,-3.77378,3,school,mapping,2014.0,13.0,14.0,50,2,0.0,0.0,50,16,0.0,0.04,50,9,0.0,0.0,1,23606,0.04,0.32,0.18,0.4383999999999999,4127.550280739387,164,164,164
BDI,BI,703.0,6380.0,6380.0,michel archange,,29.3677213,-3.376504,3,school,mapping,2014.0,12.0,14.0,50,0,0.0,0.0,50,0,0.0,0.0,50,0,0.0,0.0,1,23250,0.0,0.0,0.0,0.0,1554.5418829731132,165,165,165
BDI,BI,712.0,6405.0,6405.0,migezi,,29.7438889,-4.2877778,1,school,mapping,2014.0,12.0,16.0,50,1,0.0,0.0,50,5,0.0,0.0,50,1,0.0,0.0,1,23504,0.02,0.1,0.02,0.1279622641509434,3256.905978465466,166,166,166
BDI,BI,709.0,6396.0,6396.0,mikoni,,29.7216,-2.9533,1,school,mapping,2014.0,13.0,15.0,50,0,0.0,0.0,50,13,0.0,0.04,50,3,0.0,0.0,1,23440,0.0,0.26,0.06,0.2871698113207547,2292.396544370146,167,167,167
BDI,BI,708.0,6395.0,6395.0,mikore,,30.1309,-3.2422,1,school,mapping,2014.0,12.0,16.0,50,0,0.0,0.0,50,10,0.0,0.0,50,0,0.0,0.0,1,23432,0.0,0.2,0.0,0.1886792452830188,5395.943688668257,168,168,168
BDI,BI,705.0,6386.0,6386.0,minyare,,30.4910928,-3.2182245,3,school,mapping,2014.0,12.0,14.0,50,4,0.0,0.0,50,2,0.0,0.0,50,0,0.0,0.0,1,23362,0.08,0.04,0.0,0.110188679245283,0.0,169,169,170
BDI,BI,705.0,6386.0,6386.0,minyare,10202.0,30.4910928,-3.2182245,3,,,2014.0,,,50,3,,,50,2,,,50,0,,,1,2182,0.06,0.04,0.0,0.0920754716981132,0.0,170,170,169
BDI,BI,706.0,6388.0,6388.0,mirombero,,29.1230716,-2.8878427,2,school,mapping,2014.0,12.0,14.0,50,1,0.0,0.0,50,6,0.0,0.0,50,2,0.0,0.0,1,23384,0.02,0.12,0.04,0.162354716981132,0.0,171,171,82
BDI,BI,706.0,6388.0,6388.0,mirombero,,29.1230716,-2.8878427,2,school,sentinel site,2009.0,6.0,18.0,427,80,0.0,0.0,428,79,0.0,0.0,428,54,0.0,0.0,1,23381,0.1873536299765808,0.1845794392523364,0.1261682242990654,0.3971288992978869,0.0,172,172,82
BDI,BI,706.0,6388.0,6388.0,mirombero,,29.1230716,-2.8878427,2,school,sentinel site,2007.0,5.0,23.0,300,118,0.0,0.0,300,13,0.0,0.0,300,7,0.0,0.0,1,23379,0.3933333333333333,0.0433333333333333,0.0233333333333333,0.4086456324248776,0.0,173,173,82
BDI,BI,706.0,6388.0,6388.0,mirombero,,29.1230716,-2.8878427,2,school,sentinel site,2011.0,6.0,17.0,412,17,0.0,0.0,412,15,0.0,0.0,412,8,0.0,0.0,1,23383,0.0412621359223301,0.0364077669902912,0.0194174757281553,0.0887793708456345,0.0,174,174,82
BDI,BI,706.0,6388.0,6388.0,mirombero,,29.1230716,-2.8878427,2,school,sentinel site,2010.0,5.0,19.0,441,22,0.0,0.0,441,4,0.0,0.0,441,7,0.0,0.0,1,23382,0.0498866213151927,0.0090702947845804,0.0158730158730158,0.0692913244054438,0.0,175,175,82
BDI,BI,706.0,6388.0,6388.0,mirombero,,29.1230716,-2.8878427,2,school,sentinel site,2008.0,6.0,18.0,305,26,0.0,0.0,305,2,0.0,0.0033,305,3,0.0,0.0,1,23380,0.0852459016393442,0.0065573770491803,0.0098360655737704,0.0945121414451363,0.0,176,176,82
BDI,BI,714.0,6410.0,6410.0,mpanuka,,29.79391667,-3.350055556,3,school,mapping,2016.0,12.0,14.0,48,1,0.0,0.0,48,9,0.0,0.0,48,4,0.0,0.0,1,23535,0.0208333333333333,0.1875,0.0833333333333333,0.2554007796121592,4778.33496534637,177,177,177
BDI,BI,706.0,6388.0,6388.0,mparambo,,29.1230716,-2.8878427,2,school,mapping,2014.0,12.0,14.0,50,4,0.0,0.0,50,2,0.0,0.0,50,0,0.0,0.0,1,23385,0.08,0.04,0.0,0.110188679245283,0.0,178,178,82
BDI,BI,706.0,6388.0,6388.0,mparambo,10210.0,29.1230716,-2.8878427,2,,,2014.0,,,50,5,,,50,2,,,50,0,,,1,18556,0.1,0.04,0.0,0.1283018867924528,0.0,179,179,82
BDI,BI,715.0,6414.0,6414.0,mpondogoto,,29.71866667,-2.906222222,3,school,mapping,2016.0,13.0,14.0,50,0,0.0,0.0,50,13,0.0,0.06,50,6,0.0,0.0,1,23587,0.0,0.26,0.12,0.3290566037735848,3030.068669057451,180,180,180
BDI,BI,704.0,6385.0,6385.0,mudende,,29.51333333,-3.891388889,3,school,sentinel site,2007.0,5.0,18.0,300,82,0.0,0.0,300,17,0.0,0.0,300,6,0.0,0.0,1,23353,0.2733333333333333,0.0566666666666666,0.02,0.3096423480083857,0.0,181,181,33
BDI,BI,704.0,6385.0,6385.0,mudende,,29.51333333,-3.891388889,3,school,sentinel site,2011.0,5.0,21.0,424,46,0.0,0.0,424,19,0.0,0.0,424,8,0.0,0.0,1,23357,0.1084905660377358,0.0448113207547169,0.0188679245283018,0.1551957035318885,0.0,182,182,33
BDI,BI,704.0,6385.0,6385.0,mudende,,29.51333333,-3.891388889,3,school,sentinel site,2009.0,5.0,17.0,392,68,0.0,0.0,392,11,0.0,0.0,392,6,0.0,0.0,1,23355,0.173469387755102,0.0280612244897959,0.0153061224489795,0.1971309675630917,0.0,183,183,33
BDI,BI,704.0,6385.0,6385.0,mudende,,29.51333333,-3.891388889,3,school,sentinel site,2010.0,5.0,20.0,413,76,0.0,0.0024,413,11,0.0,0.0,413,3,0.0,0.0,1,23356,0.1840193704600484,0.0266343825665859,0.0072639225181598,0.1995489272986363,0.0,184,184,33
BDI,BI,704.0,6385.0,6385.0,mudende,,29.51333333,-3.891388889,3,school,sentinel site,2008.0,6.0,18.0,319,60,0.0,0.0,319,2,0.0,0.0,319,1,0.0,0.0,1,23354,0.1880877742946708,0.006269592476489,0.0031347962382445,0.1846295804055543,0.0,185,185,33
BDI,BI,704.0,6385.0,6385.0,mudende ii,10349.0,29.5171845,-3.8906651,3,,,2014.0,,,50,3,,,50,5,,,50,0,,,1,18540,0.06,0.1,0.0,0.1452830188679245,436.25033851024386,186,186,186
BDI,BI,708.0,6394.0,6394.0,mugende,,30.09676,-3.02906,3,school,mapping,2014.0,12.0,15.0,50,0,0.0,0.0,50,22,0.0,0.02,50,0,0.0,0.0,1,23426,0.0,0.44,0.0,0.4150943396226415,7367.505117840313,187,187,187
BDI,BI,702.0,6379.0,6379.0,mugendo,,29.3428,-3.6911,1,school,mapping,2014.0,11.0,15.0,50,3,0.0,0.0,50,22,0.0,0.08,50,9,0.0,0.0,1,23241,0.06,0.44,0.18,0.5361811320754715,0.0,188,188,189
BDI,BI,702.0,6379.0,6379.0,mugendo,10365.0,29.3428,-3.6911,1,,,2014.0,,,50,3,,,50,20,,,50,6,,,1,18504,0.06,0.4,0.12,0.4751698113207548,0.0,189,189,188
BDI,BI,711.0,6403.0,6403.0,mugeni,,30.0544625,-4.1173608,3,school,mapping,2014.0,12.0,14.0,50,2,0.0,0.0,50,0,0.0,0.0,50,0,0.0,0.0,1,23488,0.04,0.0,0.0,0.0377358490566037,0.0,190,190,191
BDI,BI,711.0,6403.0,6403.0,mugeni,,30.0544625,-4.1173608,3,school,sentinel site,2009.0,6.0,17.0,350,61,0.0,0.0,350,36,0.0,0.0,349,44,0.0,0.0,1,23486,0.1742857142857143,0.1028571428571428,0.1260744985673352,0.3326511855755979,0.0,191,191,190
BDI,BI,711.0,6403.0,6403.0,mugeni,,30.0544625,-4.1173608,3,school,sentinel site,2011.0,6.0,17.0,474,10,0.0,0.0,474,14,0.0,0.0,474,3,0.0,0.0,1,23487,0.0210970464135021,0.0295358649789029,0.0063291139240506,0.0528513095585079,0.0,192,192,190
BDI,BI,711.0,6403.0,6403.0,mugeni,,30.0544625,-4.1173608,3,school,sentinel site,2008.0,6.0,17.0,300,25,0.0,0.0,300,1,0.0,0.0033,300,5,0.0,0.0,1,23485,0.0833333333333333,0.0033333333333333,0.0166666666666666,0.0958639063591893,0.0,193,193,190
BDI,BI,711.0,6403.0,6403.0,mugeni,10288.0,30.0544625,-4.1173608,3,,,2014.0,,,50,1,,,50,1,,,50,0,,,1,2222,0.02,0.02,0.0,0.0373584905660377,0.0,194,194,190
BDI,BI,706.0,6389.0,6389.0,mugina,,29.1085314,-2.7542222,1,school,mapping,2014.0,13.0,14.0,50,9,0.0,0.0,50,1,0.0,0.0,50,0,0.0,0.0,1,23397,0.18,0.02,0.0,0.1852830188679245,4841.436415920354,195,195,195
BDI,BI,711.0,6404.0,6404.0,mugu,,29.6887,-4.1662,3,school,mapping,2014.0,12.0,14.0,50,1,0.0,0.0,50,2,0.0,0.0,50,1,0.0,0.0,1,23497,0.02,0.04,0.02,0.0736,2376.835580017149,196,196,196
BDI,BI,707.0,6393.0,6393.0,muhagaze,,29.5094444,-3.2197222,1,school,mapping,2014.0,13.0,14.0,50,0,0.0,0.0,50,25,0.0,0.02,50,8,0.0,0.0,1,23420,0.0,0.5,0.16,0.5471698113207547,0.0,197,197,198
BDI,BI,707.0,6393.0,6393.0,muhagaze,10370.0,29.5094444,-3.2197222,1,,,2014.0,,,50,0,,,50,29,,,50,8,,,1,2199,0.0,0.58,0.16,0.6105660377358489,0.0,198,198,197
BDI,BI,709.0,6396.0,6396.0,muhanga iii,,29.8325852,-3.0279801,3,school,mapping,2014.0,12.0,16.0,50,6,0.0,0.0,50,21,0.0,0.1,50,6,0.0,0.0,1,23441,0.12,0.42,0.12,0.5196679245283018,0.0,199,199,200
BDI,BI,709.0,6396.0,6396.0,muhanga iii,10217.0,29.8325852,-3.0279801,3,,,2014.0,,,50,6,,,50,21,,,50,7,,,1,18598,0.12,0.42,0.14,0.5292981132075473,0.0,200,200,199
BDI,BI,701.0,6375.0,6375.0,muhanza,,29.3063,-3.0201,3,school,mapping,2014.0,13.0,16.0,50,1,0.0,0.0,50,2,0.0,0.0,50,0,0.0,0.0,1,23203,0.02,0.04,0.0,0.0558490566037735,5404.173381260157,201,201,201
BDI,BI,705.0,6386.0,6386.0,muhweza,,30.616667,-3.133333,1,school,mapping,2014.0,13.0,14.0,50,5,0.0,0.0,50,0,0.0,0.0,50,0,0.0,0.0,1,23366,0.1,0.0,0.0,0.0943396226415094,0.0,202,202,203
BDI,BI,705.0,6386.0,6386.0,muhweza,,30.616667,-3.133333,1,school,sentinel site,2008.0,6.0,18.0,300,67,0.0,0.0,300,26,0.0,0.0,300,4,0.0,0.0,1,23363,0.2233333333333333,0.0866666666666666,0.0133333333333333,0.2831155835080363,0.0,203,203,202
BDI,BI,705.0,6386.0,6386.0,muhweza,,30.616667,-3.133333,1,school,sentinel site,2011.0,7.0,19.0,459,36,0.0,0.0,459,13,0.0,0.0,458,3,0.0,0.0,1,23365,0.0784313725490196,0.0283224400871459,0.0065502183406113,0.1041490120658275,0.0,204,204,202
BDI,BI,705.0,6386.0,6386.0,muhweza,,30.616667,-3.133333,1,school,sentinel site,2009.0,6.0,18.0,362,21,0.0,0.0,362,8,0.0,0.0,362,3,0.0,0.0,1,23364,0.0580110497237569,0.0220994475138121,0.0082872928176795,0.0815683992154253,0.0,205,205,202
BDI,BI,707.0,6390.0,6390.0,mungwa,,29.8818,-3.45176,3,,,2007.0,10.0,16.0,60,20,,,60,36,,,60,25,,,1,31275,0.3333333333333333,0.6,0.4166666666666667,0.7966457023060795,4748.2258111090805,206,206,206
BDI,BI,706.0,6388.0,6388.0,munyika i,,29.8041667,-4.1558333,1,school,mapping,2014.0,13.0,14.0,50,4,0.0,0.0,50,1,0.0,0.0,50,0,0.0,0.0,1,23391,0.08,0.02,0.0,0.0928301886792452,0.0,207,207,208
BDI,BI,706.0,6388.0,6388.0,munyika i,10211.0,29.8041667,-4.1558333,1,,,2014.0,,,47,4,,,47,1,,,47,0,,,1,18553,0.0851063829787234,0.0212765957446808,0.0,0.098653023224032,0.0,208,208,207
BDI,BI,706.0,6388.0,6388.0,munyika ii,,29.8041667,-4.1558333,1,school,mapping,2014.0,13.0,14.0,50,5,0.0,0.0,50,2,0.0,0.04,50,6,0.0,0.0,1,23392,0.1,0.04,0.12,0.2261132075471698,0.0,209,209,207
BDI,BI,706.0,6388.0,6388.0,munyika ii,10212.0,29.8041667,-4.1558333,1,,,2014.0,,,50,6,,,50,2,,,50,6,,,1,2187,0.12,0.04,0.12,0.2420528301886792,0.0,210,210,207
BDI,BI,717.0,6418.0,6418.0,munyinya i,,30.3088889,-3.3063889,1,school,mapping,2014.0,12.0,15.0,50,2,0.0,0.0,50,2,0.0,0.0,50,0,0.0,0.0,1,23615,0.04,0.04,0.0,0.0739622641509433,0.0,211,211,212
BDI,BI,710.0,6399.0,6399.0,munyinya i,10194.0,30.3088889,-3.3063889,1,,,2014.0,,,50,3,,,50,10,,,50,1,,,1,18614,0.06,0.2,0.02,0.2481509433962264,0.0,212,212,211
BDI,BI,710.0,6400.0,6400.0,munzenze,,30.1037,-2.557,1,school,mapping,2014.0,12.0,15.0,50,1,0.0,0.0,50,0,0.0,0.0,50,1,0.0,0.0,1,23464,0.02,0.0,0.02,0.0373584905660377,3214.448270995756,213,213,213
BDI,BI,715.0,6412.0,6412.0,murama,,29.77088889,-2.809,3,school,mapping,2014.0,13.0,14.0,50,3,0.0,0.0,50,11,0.0,0.06,50,1,0.0,0.0,1,23560,0.06,0.22,0.02,0.2655320754716981,0.0,214,214,215
BDI,BI,715.0,6412.0,6412.0,murama,,29.77088889,-2.809,3,school,mapping,2016.0,13.0,15.0,50,1,0.0,0.0,50,1,0.0,0.0,50,2,0.0,0.0,1,23561,0.02,0.02,0.04,0.0736,0.0,215,215,214
BDI,BI,717.0,6418.0,6418.0,muramba,,30.23444675,-3.616279083,3,school,mapping,2014.0,12.0,15.0,50,5,0.0,0.0,50,2,0.0,0.0,50,0,0.0,0.0,1,23616,0.1,0.04,0.0,0.1283018867924528,8399.014771269613,216,216,216
BDI,BI,712.0,6406.0,6406.0,muramvya iii,,29.6290353,-3.2679435,3,school,mapping,2014.0,12.0,16.0,50,5,0.0,0.0,50,3,0.0,0.0,50,0,0.0,0.0,1,23512,0.1,0.06,0.0,0.1452830188679245,6252.036437021245,217,217,217
BDI,BI,717.0,6418.0,6418.0,murangara,,30.51871,-3.502,1,school,mapping,2014.0,12.0,15.0,50,8,0.0,0.0,50,1,0.0,0.0,50,1,0.0,0.0,1,23617,0.16,0.02,0.02,0.1823245283018867,13849.263357702099,218,218,218
BDI,BI,704.0,6384.0,6384.0,murango,,29.667601,-3.74238,3,,,2007.0,10.0,16.0,60,3,,,60,3,,,60,2,,,1,31266,0.05,0.05,0.0333333333333333,0.1203616352201257,3310.906824676811,219,219,219
BDI,BI,717.0,6418.0,6418.0,mureba,,30.325,-3.5303,3,school,mapping,2014.0,12.0,15.0,50,2,0.0,0.0,50,0,0.0,0.0,50,0,0.0,0.0,1,23618,0.04,0.0,0.0,0.0377358490566037,8019.0449972448205,220,220,220
BDI,BI,705.0,6386.0,6386.0,murehe,,30.5327,-3.2948,3,school,mapping,2014.0,13.0,14.0,50,0,0.0,0.0,50,8,0.0,0.0,50,0,0.0,0.0,1,23367,0.0,0.16,0.0,0.1509433962264151,0.0,221,221,222
BDI,BI,705.0,6386.0,6386.0,murehe,10204.0,30.5327,-3.2948,3,,,2014.0,,,50,0,,,50,9,,,50,0,,,1,2179,0.0,0.18,0.0,0.1698113207547169,0.0,222,222,221
BDI,BI,715.0,6413.0,6413.0,murehe i,,30.02494444,-2.736333333,3,school,mapping,2016.0,13.0,15.0,50,3,0.0,0.0,50,7,0.0,0.0,50,1,0.0,0.0,1,23572,0.06,0.14,0.02,0.1960075471698112,6818.45749691009,223,223,223
BDI,BI,707.0,6390.0,6390.0,muremera,,29.9,-3.333333,2,school,mapping,2014.0,13.0,14.0,50,5,0.0,0.0,50,17,0.0,0.02,50,9,0.0,0.0,1,23401,0.1,0.34,0.18,0.48388679245283,0.0,224,224,225
BDI,BI,707.0,6390.0,6390.0,muremera,10231.0,29.9,-3.333333,2,,,2014.0,,,50,5,,,50,18,,,50,9,,,1,18568,0.1,0.36,0.18,0.4978113207547169,0.0,225,225,224
BDI,BI,701.0,6376.0,6376.0,murira,10299.0,29.3264765,-3.1817359,3,,,2014.0,,,50,0,,,50,2,,,50,0,,,1,2147,0.0,0.04,0.0,0.0377358490566037,2155.694224417043,226,226,226
BDI,BI,710.0,6402.0,6402.0,murungurira,50203.0,30.0961296,-2.5848378,1,,,2007.0,,,60,7,,,60,1,,,60,1,,,1,2131,0.1166666666666666,0.0166666666666666,0.0166666666666666,0.1376091893780573,3214.448270995756,227,227,227
BDI,BI,703.0,6382.0,6382.0,musaga ii,,29.3763463,-3.4128068,4,school,mapping,2014.0,12.0,14.0,50,0,0.0,0.0,50,0,0.0,0.0,50,2,0.0,0.0,1,23265,0.0,0.0,0.04,0.0377358490566037,0.0,228,228,229
BDI,BI,703.0,6382.0,6382.0,musaga ii,10184.0,29.3763463,-3.4128068,4,,,2014.0,,,50,0,,,50,0,,,50,0,,,1,18522,0.0,0.0,0.0,0.0,0.0,229,229,228
BDI,BI,713.0,6409.0,6409.0,musenga,,30.34222222,-2.921388889,3,school,mapping,2014.0,13.0,14.0,50,7,0.0,0.0,50,2,0.0,0.0,50,2,0.0,0.0,1,23531,0.14,0.04,0.04,0.1956830188679245,0.0,230,230,231
BDI,BI,713.0,6409.0,6409.0,musenga,,30.34222222,-2.921388889,3,school,sentinel site,2008.0,6.0,20.0,300,63,0.0,0.0,300,55,0.0,0.0,300,27,0.0,0.0,1,23528,0.21,0.1833333333333333,0.09,0.3895267295597484,0.0,231,231,230
BDI,BI,713.0,6409.0,6409.0,musenga,,30.34222222,-2.921388889,3,school,sentinel site,2011.0,6.0,18.0,437,72,0.0,0.0,437,28,0.0,0.0,437,19,0.0,0.0,1,23530,0.1647597254004576,0.0640732265446224,0.0434782608695652,0.2379851445508395,0.0,232,232,230
BDI,BI,713.0,6409.0,6409.0,musenga,,30.34222222,-2.921388889,3,school,sentinel site,2009.0,5.0,18.0,307,56,0.0,0.0,307,14,0.0,0.0,307,8,0.0,0.0,1,23529,0.1824104234527687,0.0456026058631921,0.0260586319218241,0.2264418196862576,0.0,233,233,230
BDI,BI,704.0,6383.0,6383.0,musenyi,,29.40444444,-3.195833333,4,school,mapping,2007.0,10.0,16.0,60,7,0.0,0.0,60,4,0.0,0.0,60,0,0.0,0.0,1,23283,0.1166666666666666,0.0666666666666666,0.0,0.1656184486373165,0.0,234,234,36
BDI,BI,701.0,6376.0,6376.0,musenyi,,29.40444444,-3.195833333,3,school,sentinel site,2009.0,6.0,18.0,385,22,0.0,0.0,385,25,0.0,0.0,385,0,0.0,0.0,1,23216,0.0571428571428571,0.0649350649350649,0.0,0.111667308432807,0.0,235,235,36
BDI,BI,701.0,6376.0,6376.0,musenyi,,29.40444444,-3.195833333,3,school,sentinel site,2007.0,5.0,19.0,300,67,0.0,0.0,300,14,0.0,0.0,299,3,0.0,0.0,1,23214,0.2233333333333333,0.0466666666666666,0.0100334448160535,0.2518931729104001,0.0,236,236,36
BDI,BI,701.0,6376.0,6376.0,musenyi,,29.40444444,-3.195833333,3,school,sentinel site,2011.0,4.0,17.0,370,32,0.0,0.0,370,4,0.0,0.0,370,4,0.0,0.0,1,23218,0.0864864864864864,0.0108108108108108,0.0108108108108108,0.1001239286614922,0.0,237,237,36
BDI,BI,701.0,6376.0,6376.0,musenyi,,29.40444444,-3.195833333,3,school,sentinel site,2008.0,6.0,18.0,243,35,0.0,0.0,243,2,0.0,0.0,243,3,0.0,0.0,1,23215,0.1440329218106996,0.0082304526748971,0.0123456790123456,0.1524136206280052,0.0,238,238,36
BDI,BI,701.0,6376.0,6376.0,musenyi,,29.40444444,-3.195833333,3,school,sentinel site,2010.0,6.0,20.0,387,40,0.0,0.0,387,3,0.0,0.0,387,9,0.0,0.0,1,23217,0.1033591731266149,0.0077519379844961,0.0232558139534883,0.1235852313044756,0.0,239,239,36
BDI,BI,705.0,6386.0,6386.0,musenyi,,30.02911,-2.949275,1,,,2007.0,10.0,16.0,60,7,,,60,4,,,60,0,,,1,31282,0.1166666666666666,0.0666666666666666,0.0,0.1656184486373165,3074.8277582063156,240,240,240
BDI,BI,701.0,6376.0,6376.0,musenyi i,,29.40444444,-3.195833333,3,school,mapping,2014.0,12.0,16.0,50,1,0.0,0.0,50,0,0.0,0.0,50,1,0.0,0.0,1,23219,0.02,0.0,0.02,0.0373584905660377,0.0,241,241,36
BDI,BI,715.0,6412.0,6412.0,mushitsi i,,29.80519444,-2.857916667,3,school,mapping,2016.0,12.0,15.0,50,0,0.0,0.0,50,5,0.0,0.0,50,9,0.0,0.0,1,23563,0.0,0.1,0.18,0.2471698113207547,4235.785864310621,242,242,242
BDI,BI,704.0,6384.0,6384.0,musho,,29.5528,-3.7267,3,school,mapping,2014.0,12.0,16.0,50,1,0.0,0.0,50,7,0.0,0.0,50,1,0.0,0.0,1,23328,0.02,0.14,0.02,0.1642037735849056,3838.3078047523563,243,243,243
BDI,BI,701.0,6375.0,6375.0,musigati i,,29.4614578,-3.0684445,1,school,mapping,2014.0,13.0,14.0,50,4,0.0,0.0,50,3,0.0,0.0,50,0,0.0,0.0,1,23204,0.08,0.06,0.0,0.1275471698113207,4530.6794564342445,244,244,244
BDI,BI,707.0,6390.0,6390.0,musinzira,10232.0,29.9334776,-3.4279647,3,,,2014.0,,,50,0,,,50,3,,,50,3,,,1,2191,0.0,0.06,0.06,0.1098113207547169,2842.4146262734203,245,245,245
BDI,BI,712.0,6405.0,6405.0,musongati,,29.6519444,-3.3733333,1,school,mapping,2014.0,12.0,16.0,50,0,0.0,0.0,50,11,0.0,0.0,50,0,0.0,0.0,1,23506,0.0,0.22,0.0,0.2075471698113207,3795.0823947951053,246,246,246
BDI,BI,703.0,6380.0,6380.0,mutanga  sud,10175.0,29.3915246,-3.380529,3,,,2014.0,,,50,4,,,50,0,,,50,3,,,1,18509,0.08,0.0,0.06,0.1275471698113207,2096.66768464805,247,247,247
BDI,BI,707.0,6392.0,6392.0,mutoyi i,,29.9786581,-3.2138714,3,school,mapping,2014.0,13.0,14.0,50,3,0.0,0.0,50,15,0.0,0.02,50,2,0.0,0.0,1,23416,0.06,0.3,0.04,0.3474716981132075,6852.409454899716,248,248,248
BDI,BI,716.0,6415.0,6415.0,mutwana,,30.1837,-3.672,1,school,mapping,2014.0,13.0,14.0,50,4,0.0,0.0,50,0,0.0,0.0,50,0,0.0,0.0,1,23593,0.08,0.0,0.0,0.0754716981132075,8399.014771269613,249,249,249
BDI,BI,711.0,6404.0,6404.0,mutwazi ii,,29.7409,-4.3168,3,school,mapping,2014.0,12.0,16.0,50,2,0.0,0.0,50,0,0.0,0.0,50,0,0.0,0.0,1,23499,0.04,0.0,0.0,0.0377358490566037,3256.905978465466,250,250,250
BDI,BI,716.0,6415.0,6415.0,muzye i,,30.115,-3.9669444,1,school,mapping,2014.0,13.0,14.0,50,10,0.0,0.0,50,2,0.0,0.0,50,1,0.0,0.0,1,23597,0.2,0.04,0.02,0.2333584905660377,0.0,251,251,252
BDI,BI,716.0,6415.0,6415.0,muzye i,10227.0,30.115,-3.9669444,1,,,2014.0,,,50,9,,,50,2,,,50,1,,,1,2242,0.18,0.04,0.02,0.2156075471698113,0.0,252,252,251
BDI,BI,711.0,6404.0,6404.0,mvugo,,29.5694893,-4.2932228,1,,,2007.0,10.0,16.0,54,8,,,54,0,,,54,0,,,1,31273,0.1481481481481481,0.0,0.0,0.1397624039133473,8588.552491929855,253,253,253
BDI,BI,705.0,6387.0,6387.0,mwiruzi,,30.7809066,-3.0624478,3,school,mapping,2014.0,13.0,14.0,50,6,0.0,0.0,50,1,0.0,0.0,50,0,0.0,0.0,1,23372,0.12,0.02,0.0,0.1298113207547169,6050.471538471678,254,254,254
BDI,BI,701.0,6376.0,6376.0,ndava busongo,,29.3458,-3.183,3,school,mapping,2014.0,12.0,14.0,50,6,0.0,0.0,50,2,0.0,0.0,50,0,0.0,0.0,1,23220,0.12,0.04,0.0,0.1464150943396226,0.0,255,255,256
BDI,BI,701.0,6376.0,6376.0,ndava busongo,10301.0,29.3458,-3.183,3,,,2014.0,,,50,0,,,50,2,,,50,6,,,1,2148,0.0,0.04,0.12,0.1464150943396226,0.0,256,256,255
BDI,BI,717.0,6417.0,6417.0,nkongwe,,30.1397522,-3.3519101,3,school,mapping,2014.0,12.0,15.0,50,0,0.0,0.0,50,25,0.0,0.02,50,5,0.0,0.0,1,23612,0.0,0.5,0.1,0.5188679245283018,4799.66160264073,257,257,257
BDI,BI,713.0,6408.0,6408.0,nonwe,,30.4131,-2.5082,3,school,mapping,2014.0,13.0,14.0,50,5,0.0,0.0,50,3,0.0,0.0,50,1,0.0,0.0,1,23521,0.1,0.06,0.02,0.1612452830188679,4199.7376474946495,258,258,258
BDI,BI,714.0,6411.0,6411.0,nyabihanga iii,,29.76836111,-3.459527778,3,school,mapping,2016.0,11.0,14.0,49,0,0.0,0.0,49,1,0.0,0.0,49,0,0.0,0.0,1,23550,0.0,0.0204081632653061,0.0,0.0192529842125529,0.0,259,259,163
BDI,BI,702.0,6379.0,6379.0,nyabisaka,,29.5726,-3.4279,3,school,mapping,2014.0,12.0,15.0,50,0,0.0,0.0,50,4,0.0,0.0,50,0,0.0,0.0,1,23242,0.0,0.08,0.0,0.0754716981132075,6487.102194208706,260,260,260
BDI,BI,717.0,6419.0,6419.0,nyagutoha,,30.35362,-3.44427,3,school,mapping,2014.0,12.0,16.0,50,2,0.0,0.0,50,5,0.0,0.02,50,1,0.0,0.0,1,23625,0.04,0.1,0.02,0.1446037735849056,0.0,261,261,262
BDI,BI,717.0,6419.0,6419.0,nyagutoha,10360.0,30.35362,-3.44427,3,,,2014.0,,,50,1,,,50,5,,,50,1,,,1,2255,0.02,0.1,0.02,0.1279622641509434,0.0,262,262,261
BDI,BI,714.0,6410.0,6410.0,nyakigwa,,29.59647222,-3.507277778,3,school,mapping,2016.0,12.0,14.0,50,0,0.0,0.0,50,8,0.0,0.02,50,0,0.0,0.0,1,23537,0.0,0.16,0.0,0.1509433962264151,7860.55828337451,263,263,263
BDI,BI,716.0,6415.0,6415.0,nyakuguma,,29.5280556,-4.1622222,1,school,mapping,2014.0,13.0,14.0,50,3,0.0,0.0,50,3,0.0,0.0,50,1,0.0,0.0,1,23598,0.06,0.06,0.02,0.1264830188679245,14139.739126041943,264,264,264
BDI,BI,705.0,6386.0,6386.0,nyamashishi,,30.6390558,-3.007784,3,school,mapping,2014.0,13.0,14.0,50,0,0.0,0.0,50,0,0.0,0.0,50,0,0.0,0.0,1,23368,0.0,0.0,0.0,0.0,0.0,265,265,266
BDI,BI,705.0,6386.0,6386.0,nyamashishi,10205.0,30.6390558,-3.007784,3,,,2014.0,,,50,1,,,50,0,,,50,1,,,1,2180,0.02,0.0,0.02,0.0373584905660377,0.0,266,266,265
BDI,BI,704.0,6385.0,6385.0,nyamibu,,29.3979,-3.894,3,school,mapping,2014.0,13.0,14.0,50,0,0.0,0.0,50,6,0.0,0.0,50,1,0.0,0.0,1,23359,0.0,0.12,0.02,0.1298113207547169,0.0,267,267,268
BDI,BI,704.0,6385.0,6385.0,nyamibu,10350.0,29.3979,-3.894,3,,,2014.0,,,50,0,,,50,7,,,50,1,,,1,18536,0.0,0.14,0.02,0.1483018867924528,0.0,268,268,267
BDI,BI,709.0,6397.0,6397.0,nyamisagara,,29.5293,-2.8604000000000003,3,school,mapping,2014.0,12.0,14.0,50,0,0.0,0.0,50,23,0.0,0.14,50,1,0.0,0.0,1,23444,0.0,0.46,0.02,0.4441509433962264,3608.6998922059524,269,269,269
BDI,BI,714.0,6410.0,6410.0,nyamiyaga,,29.65252778,-3.569972222,3,school,mapping,2016.0,11.0,14.0,50,0,0.0,0.0,50,9,0.0,0.02,50,5,0.0,0.0,1,23539,0.0,0.18,0.1,0.2471698113207547,3147.5723246758134,270,270,270
BDI,BI,708.0,6394.0,6394.0,nyamugari,,29.9994444,-3.5702778,1,school,mapping,2014.0,12.0,14.0,50,0,0.0,0.0,50,5,0.0,0.02,50,2,0.0,0.02,1,23427,0.0,0.1,0.04,0.1283018867924528,4292.862329486974,271,271,271
BDI,BI,715.0,6412.0,6412.0,nyamurenza ii,,29.86544444,-2.825444444,3,school,mapping,2016.0,12.0,15.0,50,0,0.0,0.0,50,3,0.0,0.0,50,9,0.0,0.0,1,23565,0.0,0.06,0.18,0.2162264150943396,3490.3048378452427,272,272,272
BDI,BI,717.0,6418.0,6418.0,nyamusasa,,30.39111111,-3.675555556,3,school,mapping,2014.0,12.0,16.0,50,0,0.0,0.0,50,2,0.0,0.0,50,0,0.0,0.0,1,23622,0.0,0.04,0.0,0.0377358490566037,0.0,273,273,38
BDI,BI,717.0,6418.0,6418.0,nyamusasa,,30.39111111,-3.675555556,3,school,sentinel site,2009.0,6.0,16.0,372,6,0.0,0.0,372,8,0.0,0.0,372,3,0.0,0.0,1,23620,0.0161290322580645,0.021505376344086,0.0080645161290322,0.0425012809364357,0.0,274,274,38
BDI,BI,717.0,6418.0,6418.0,nyamusasa,,30.39111111,-3.675555556,3,school,sentinel site,2011.0,5.0,18.0,466,76,0.0,0.0,466,8,0.0,0.0,467,15,0.0,0.0,1,23621,0.1630901287553648,0.0171673819742489,0.032119914346895,0.1923374236339026,0.0,275,275,38
BDI,BI,717.0,6418.0,6418.0,nyamusasa,,30.39111111,-3.675555556,3,school,sentinel site,2008.0,6.0,18.0,300,29,0.0,0.0,300,5,0.0,0.0,300,7,0.0,0.0,1,23619,0.0966666666666666,0.0166666666666666,0.0233333333333333,0.124951607267645,0.0,276,276,38
BDI,BI,715.0,6414.0,6414.0,nyaruntana,,29.85025,-2.943944444,3,school,mapping,2016.0,13.0,14.0,50,1,0.0,0.0,50,4,0.0,0.0,50,12,0.0,0.0,1,23589,0.02,0.08,0.24,0.296966037735849,3759.2827948311424,277,277,277
BDI,BI,709.0,6398.0,6398.0,nyarurama,,29.7223547,-3.1040813,3,school,mapping,2014.0,12.0,14.0,50,2,0.0,0.0,50,7,0.0,0.04,50,1,0.0,0.0,1,23456,0.04,0.14,0.02,0.1801056603773585,8369.017915665809,278,278,278
BDI,BI,704.0,6383.0,6383.0,nyundo,,29.6708,-3.9627,3,school,mapping,2014.0,10.0,14.0,50,0,0.0,0.0,50,6,0.0,0.0,50,1,0.0,0.0,1,23296,0.0,0.12,0.02,0.1298113207547169,15812.179139020991,279,279,279
BDI,BI,703.0,6381.0,6381.0,q2  1 ngagara,10181.0,29.3722343,-3.3540881,3,,,2014.0,,,50,0,,,50,0,,,50,0,,,1,18515,0.0,0.0,0.0,0.0,1417.9429591263918,280,280,280
BDI,BI,708.0,6395.0,6395.0,ramba,,30.0101,-3.139,1,school,mapping,2014.0,12.0,15.0,50,0,0.0,0.0,50,12,0.0,0.0,50,1,0.0,0.0,1,23437,0.0,0.24,0.02,0.240754716981132,0.0,281,281,282
BDI,BI,708.0,6395.0,6395.0,ramba,,30.0101,-3.139,1,school,sentinel site,2008.0,7.0,16.0,300,21,0.0,0.0,300,128,0.0033,0.0367,300,19,0.0,0.0,1,23434,0.07,0.4266666666666667,0.0633333333333333,0.4722352201257861,0.0,282,282,281
BDI,BI,708.0,6395.0,6395.0,ramba,,30.0101,-3.139,1,school,sentinel site,2009.0,6.0,14.0,340,3,0.0,0.0,340,75,0.0,0.0176,340,12,0.0,0.0,1,23435,0.0088235294117647,0.2205882352941176,0.0352941176470588,0.2403125708075225,0.0,283,283,281
BDI,BI,708.0,6395.0,6395.0,ramba,,30.0101,-3.139,1,school,sentinel site,2011.0,6.0,17.0,463,11,0.0,0.0,463,68,0.0,0.0108,463,9,0.0,0.0,1,23436,0.0237580993520518,0.1468682505399568,0.019438444924406,0.1729496228237179,0.0,284,284,281
BDI,BI,708.0,6395.0,6395.0,ramba,10338.0,30.0101,-3.139,1,,,2014.0,,,50,0,,,50,11,,,50,1,,,1,18590,0.0,0.22,0.02,0.2222641509433962,0.0,285,285,281
BDI,BI,714.0,6410.0,6410.0,raro,,29.66588889,-3.494361111,3,school,mapping,2016.0,12.0,14.0,50,0,0.0,0.0,50,2,0.0,0.0,50,2,0.0,0.0,1,23541,0.0,0.04,0.04,0.0739622641509433,7860.55828337451,286,286,286
BDI,BI,709.0,6397.0,6397.0,remera ii,,29.5844311,-2.978015,3,school,mapping,2014.0,12.0,14.0,50,0,0.0,0.0,50,22,0.0,0.0,50,4,0.0,0.0,1,23445,0.0,0.44,0.08,0.4573584905660377,1891.016908541867,287,287,287
BDI,BI,710.0,6400.0,6400.0,rubuga ii,,30.0408121,-2.3813142,3,school,mapping,2014.0,13.0,14.0,50,2,0.0,0.0,50,2,0.0,0.0,50,0,0.0,0.0,1,23465,0.04,0.04,0.0,0.0739622641509433,11293.408004749841,288,288,288
BDI,BI,712.0,6405.0,6405.0,rubumba,,29.6519,-3.3393,3,school,mapping,2014.0,12.0,15.0,50,0,0.0,0.0,50,11,0.0,0.02,50,0,0.0,0.0,1,23507,0.0,0.22,0.0,0.2075471698113207,3795.0823947951053,289,289,289
BDI,BI,710.0,6400.0,6400.0,rugasa i,,29.9949,-2.4717,3,school,mapping,2014.0,13.0,15.0,50,0,0.0,0.0,50,4,0.0,0.0,50,0,0.0,0.0,1,23466,0.0,0.08,0.0,0.0754716981132075,11293.408004749841,290,290,290
BDI,BI,701.0,6376.0,6376.0,rugazi i,,29.4092119,-3.2429276,3,school,mapping,2014.0,12.0,15.0,50,6,0.0,0.0,50,2,0.0,0.0,50,0,0.0,0.0,1,23221,0.12,0.04,0.0,0.1464150943396226,0.0,291,291,292
BDI,BI,701.0,6376.0,6376.0,rugazi i,10302.0,29.4092119,-3.2429276,3,,,2014.0,,,50,5,,,50,3,,,50,0,,,1,2146,0.1,0.06,0.0,0.1452830188679245,0.0,292,292,291
BDI,BI,701.0,6376.0,6376.0,rugenge,,30.3947222,-3.5122222,1,,,2007.0,10.0,16.0,60,31,,,60,5,,,60,1,,,1,31280,0.5166666666666667,0.0833333333333333,0.0166666666666666,0.5323855695317958,8019.0449972448205,293,293,293
BDI,BI,705.0,6387.0,6387.0,ruhehe,,30.783333,-3.116667,1,school,mapping,2014.0,13.0,14.0,50,7,0.0,0.0,50,0,0.0,0.0,50,0,0.0,0.0,1,23373,0.14,0.0,0.0,0.1320754716981132,6050.471538471678,294,294,294
BDI,BI,709.0,6397.0,6397.0,ruhinga,,29.5,-3.666667,1,school,mapping,2014.0,12.0,14.0,50,0,0.0,0.0,50,25,0.0,0.04,50,2,0.0,0.0,1,23446,0.0,0.5,0.04,0.490566037735849,8910.320730797412,295,295,295
BDI,BI,704.0,6385.0,6385.0,rukinga i,,29.44083333,-3.964166667,3,school,mapping,2014.0,12.0,14.0,50,3,0.0,0.0,50,3,0.0,0.0,50,3,0.0,0.0,1,23360,0.06,0.06,0.06,0.1598264150943396,0.0,296,296,39
BDI,BI,704.0,6385.0,6385.0,rukinga i,10351.0,29.44083333,-3.964166667,3,,,2014.0,,,50,0,,,50,0,,,50,0,,,1,18538,0.0,0.0,0.0,0.0,0.0,297,297,39
BDI,BI,704.0,6384.0,6384.0,ruko,,29.5925594,-3.618012,3,school,mapping,2014.0,12.0,14.0,50,1,0.0,0.02,50,7,0.0,0.02,50,0,0.0,0.0,1,23334,0.02,0.14,0.0,0.1483018867924528,0.0,298,298,299
BDI,BI,704.0,6384.0,6384.0,ruko,,29.5925594,-3.618012,3,school,sentinel site,2008.0,6.0,18.0,268,0,0.0,0.0,268,89,0.0,0.0784,268,10,0.0,0.0,1,23330,0.0,0.332089552238806,0.0373134328358208,0.3368033810110248,0.0,299,299,298
BDI,BI,704.0,6384.0,6384.0,ruko,,29.5925594,-3.618012,3,school,sentinel site,2007.0,6.0,19.0,299,2,0.0,0.0,299,68,0.0,0.0301,299,22,0.0,0.0,1,23329,0.0066889632107023,0.2274247491638795,0.0735785953177257,0.2726955133987485,0.0,300,300,298
BDI,BI,704.0,6384.0,6384.0,ruko,,29.5925594,-3.618012,3,school,sentinel site,2009.0,5.0,20.0,360,9,0.0,0.0,360,73,0.0,0.0028,360,10,0.0,0.0,1,23331,0.025,0.2027777777777777,0.0277777777777777,0.2304714797344514,0.0,301,301,298
BDI,BI,704.0,6384.0,6384.0,ruko,,29.5925594,-3.618012,3,school,sentinel site,2010.0,5.0,18.0,360,3,0.0,0.0,360,73,0.0,0.0389,360,1,0.0,0.0,1,23332,0.0083333333333333,0.2027777777777777,0.0027777777777777,0.1996390077839894,0.0,302,302,298
BDI,BI,704.0,6384.0,6384.0,ruko,,29.5925594,-3.618012,3,school,sentinel site,2011.0,6.0,17.0,331,0,0.0,0.0,331,57,0.0,0.003,331,2,0.0,0.0,1,23333,0.0,0.1722054380664652,0.0060422960725075,0.1671766206574333,0.0,303,303,298
BDI,BI,706.0,6389.0,6389.0,rurinzi,,29.1230716,-2.8878427,2,school,mapping,2014.0,13.0,14.0,50,1,0.0,0.0,50,20,0.0,0.0,50,0,0.0,0.0,1,23398,0.02,0.4,0.0,0.3886792452830188,0.0,304,304,82
BDI,BI,710.0,6401.0,6401.0,rusara,,30.3991,-2.4732,3,school,mapping,2014.0,13.0,14.0,50,5,0.0,0.0,50,1,0.0,0.0,50,7,0.0,0.0,1,23475,0.1,0.02,0.14,0.2278113207547169,0.0,305,305,306
BDI,BI,710.0,6401.0,6401.0,rusara,10308.0,30.3991,-2.4732,3,,,2014.0,,,50,5,,,50,1,,,50,6,,,1,18625,0.1,0.02,0.12,0.2111698113207547,0.0,306,306,305
BDI,BI,706.0,6388.0,6388.0,rusororo,,29.1230716,-2.8878427,2,school,mapping,2014.0,13.0,14.0,50,6,0.0,0.0,50,5,0.0,0.0,50,0,0.0,0.0,1,23393,0.12,0.1,0.0,0.1962264150943396,0.0,307,307,82
BDI,BI,706.0,6388.0,6388.0,rusororo,10213.0,29.1230716,-2.8878427,2,,,2014.0,,,50,5,,,50,5,,,50,0,,,1,2188,0.1,0.1,0.0,0.1792452830188679,0.0,308,308,82
BDI,BI,714.0,6411.0,6411.0,rutega,,29.67741667,-3.608694444,3,school,mapping,2016.0,11.0,14.0,48,0,0.0,0.0,48,0,0.0,0.0,48,0,0.0,0.0,1,23552,0.0,0.0,0.0,0.0,5131.293897015556,309,309,309
BDI,BI,705.0,6386.0,6386.0,rutoke i,10206.0,30.6469444,-3.1752778,1,,,2014.0,,,50,7,,,50,9,,,50,0,,,1,18542,0.14,0.18,0.0,0.2781132075471698,5764.404876483404,310,310,310
BDI,BI,717.0,6419.0,6419.0,ruvyagira,,29.7105556,-4.3113889,1,school,mapping,2014.0,12.0,15.0,50,6,0.0,0.0,50,16,0.02,0.04,50,9,0.0,0.0,1,23626,0.12,0.32,0.18,0.4804830188679244,3431.5110904061094,311,311,311
BDI,BI,717.0,6419.0,6419.0,ruyigi i,,30.2483881,-3.4750027,3,school,mapping,2014.0,12.0,16.0,50,0,0.0,0.0,50,2,0.0,0.0,50,0,0.0,0.0,1,23627,0.0,0.04,0.0,0.0377358490566037,0.0,312,312,102
BDI,BI,715.0,6413.0,6413.0,ruyumpu,,29.94705,-2.79925,3,,,2007.0,10.0,16.0,60,12,,,60,2,,,60,13,,,1,31279,0.2,0.0333333333333333,0.2166666666666666,0.3719077568134172,0.0,313,313,314
BDI,BI,715.0,6413.0,6413.0,ruyumpu,,29.94705,-2.79925,3,school,mapping,2014.0,13.0,14.0,50,7,0.0,0.0,50,17,0.0,0.02,50,11,0.0,0.0,1,23574,0.14,0.34,0.22,0.5257283018867925,0.0,314,314,313
BDI,BI,701.0,6375.0,6375.0,ruzibira,,29.41805556,-2.9847222220000003,3,school,mapping,2014.0,12.0,15.0,50,6,0.0,0.0,50,2,0.0,0.0,50,2,0.0,0.0,1,23210,0.12,0.04,0.04,0.1782943396226415,0.0,315,315,40
BDI,BI,701.0,6375.0,6375.0,ruzibira,,29.41805556,-2.9847222220000003,3,school,sentinel site,2009.0,6.0,18.0,466,73,0.0,0.0,466,85,0.0,0.0021,465,55,0.0,0.0,1,23207,0.1566523605150214,0.1824034334763948,0.1182795698924731,0.3698469565514926,0.0,316,316,40
BDI,BI,701.0,6375.0,6375.0,ruzibira,,29.41805556,-2.9847222220000003,3,school,sentinel site,2011.0,6.0,19.0,400,38,0.0,0.0,400,34,0.0,0.0025,400,13,0.0,0.0,1,23209,0.095,0.085,0.0325,0.1875824882075471,0.0,317,317,40
BDI,BI,701.0,6375.0,6375.0,ruzibira,,29.41805556,-2.9847222220000003,3,school,sentinel site,2008.0,6.0,21.0,281,58,0.0,0.0,281,23,0.0,0.0036,281,4,0.0,0.0,1,23206,0.2064056939501779,0.0818505338078291,0.0142348754448398,0.265786684324975,0.0,318,318,40
BDI,BI,701.0,6375.0,6375.0,ruzibira,,29.41805556,-2.9847222220000003,3,school,sentinel site,2010.0,7.0,18.0,454,50,0.0,0.0,454,18,0.0,0.0,454,4,0.0,0.0,1,23208,0.1101321585903083,0.039647577092511,0.0088105726872246,0.1442855292486814,0.0,319,319,40
BDI,BI,701.0,6375.0,6375.0,ruzibira,,29.41805556,-2.9847222220000003,3,school,sentinel site,2007.0,6.0,17.0,296,90,0.0,0.0,295,10,0.0,0.0,296,1,0.0,0.0,1,23205,0.304054054054054,0.0338983050847457,0.0033783783783783,0.3112423680692421,0.0,320,320,40
BDI,BI,711.0,6403.0,6403.0,rweza,,29.8677778,-2.905,1,school,mapping,2014.0,12.0,16.0,50,5,0.0,0.0,50,0,0.0,0.0,50,2,0.0,0.0,1,23490,0.1,0.0,0.04,0.1283018867924528,0.0,321,321,322
BDI,BI,711.0,6403.0,6403.0,rweza,10290.0,29.8677778,-2.905,1,,,2014.0,,,50,4,,,50,0,,,50,2,,,1,2221,0.08,0.0,0.04,0.110188679245283,0.0,322,322,321
BDI,BI,715.0,6413.0,6413.0,rwimbogo,,30.01280556,-2.802666667,3,school,mapping,2016.0,13.0,14.0,50,2,0.0,0.0,50,14,0.0,0.0,50,6,0.0,0.0,1,23575,0.04,0.28,0.12,0.3695698113207546,5427.6856533871,323,323,323
BDI,BI,709.0,6396.0,6396.0,sakinyinya,,29.7569,-3.0094,3,school,mapping,2014.0,12.0,14.0,50,0,0.0,0.0,50,15,0.0,0.0,50,1,0.0,0.0,1,23442,0.0,0.3,0.02,0.2962264150943396,7271.966750934735,324,324,324
BDI,BI,711.0,6404.0,6404.0,vugizo,,29.70861111,-4.173888889,3,school,sentinel site,2008.0,6.0,16.0,300,37,0.0,0.0,300,35,0.0,0.0067,300,23,0.0,0.0,1,23500,0.1233333333333333,0.1166666666666666,0.0766666666666666,0.268849930118798,0.0,325,325,326
BDI,BI,711.0,6404.0,6404.0,vugizo,,29.70861111,-4.173888889,3,school,sentinel site,2011.0,5.0,20.0,502,17,0.0,0.0,502,28,0.0,0.0,502,9,0.0,0.0,1,23502,0.0338645418326693,0.0557768924302788,0.0179282868525896,0.0982147253448127,0.0,326,326,325
BDI,BI,711.0,6404.0,6404.0,vugizo,,29.70861111,-4.173888889,3,school,sentinel site,2009.0,5.0,16.0,329,30,0.0,0.0,329,16,0.0,0.0,329,16,0.0,0.0,1,23501,0.0911854103343465,0.0486322188449848,0.0486322188449848,0.1673880373604253,0.0,327,327,325
BDI,BI,713.0,6408.0,6408.0,vumasi,,30.4070345,-2.4125486,3,school,mapping,2014.0,13.0,14.0,50,4,0.0,0.0,50,0,0.0,0.0,50,5,0.0,0.02,1,23522,0.08,0.0,0.1,0.1622641509433962,0.0,328,328,329
BDI,BI,713.0,6408.0,6408.0,vumasi,10239.0,30.4070345,-2.4125486,3,,,2014.0,,,50,4,,,50,0,,,50,6,,,1,2235,0.08,0.0,0.12,0.1796226415094339,0.0,329,329,328
BDI,BI,710.0,6400.0,6400.0,yaranda,,30.11166667,-2.517222222,3,school,mapping,2014.0,12.0,14.0,50,19,0.0,0.0,50,0,0.0,0.0,50,0,0.0,0.0,1,23470,0.38,0.0,0.0,0.3584905660377358,0.0,330,330,331
BDI,BI,710.0,6400.0,6400.0,yaranda,,30.11166667,-2.517222222,3,school,sentinel site,2011.0,6.0,19.0,398,34,0.0,0.0,398,9,0.0,0.0,398,9,0.0,0.0,1,23469,0.0854271356783919,0.0226130653266331,0.0226130653266331,0.1191717547512257,0.0,331,331,330
BDI,BI,710.0,6400.0,6400.0,yaranda,,30.11166667,-2.517222222,3,school,sentinel site,2008.0,6.0,19.0,300,54,0.0,0.0,300,6,0.0,0.0033,299,17,0.0,0.0,1,23467,0.18,0.02,0.0568561872909698,0.2283864453839842,0.0,332,332,330
BDI,BI,710.0,6400.0,6400.0,yaranda,,30.11166667,-2.517222222,3,school,sentinel site,2009.0,6.0,20.0,273,28,0.0,0.0,273,0,0.0,0.0,273,10,0.0,0.0,1,23468,0.1025641025641025,0.0,0.0366300366300366,0.1277709550568767,0.0,333,333,330
