iso3,iso2,admin1_id,admin2_id,iu_id,location,site_id,longitude,latitude,georeliability,location_type,survey_type,year,age_start,age_end,hk_examined,hk_positive,hk_perc_highinfection,hk_perc_moderateinfection,asc_examined,asc_positive,asc_perc_highinfection,asc_perc_moderateinfection,tt_examined,tt_positive,tt_perc_highinfection,tt_perc_moderateinfection,quality,sn,shortest,id,src,dst
BDI,BI,706.0,6389.0,6389.0,bitare,,29.333333,-2.883333,1,school,mapping,2014.0,12.0,14.0,50,2,0.0,0.0,50,3,0.0,0.0,50,0,0.0,0.0,1,23394,10367.615774115517,0,0,0
BDI,BI,715.0,6414.0,6414.0,buhiga ii,,29.7915,-2.906027778,3,school,mapping,2016.0,13.0,14.0,50,0,0.0,0.0,50,9,0.0,0.02,50,24,0.0,0.04,1,23577,5574.965279097866,1,1,1
BDI,BI,702.0,6378.0,6378.0,buhina,10243.0,29.438,-3.4523,1,,,2014.0,,,47,0,,,47,12,,,47,9,,,1,18499,8154.867369618726,2,2,2
BDI,BI,717.0,6418.0,6418.0,buhonga,,30.333333,-3.65,1,school,mapping,2014.0,12.0,16.0,50,1,0.0,0.0,50,1,0.0,0.0,50,0,0.0,0.0,1,23613,7035.244498480952,3,3,3
BDI,BI,710.0,6402.0,6402.0,burarana,,30.0882,-2.6908000000000003,1,school,mapping,2014.0,12.0,15.0,50,1,0.0,0.0,50,2,0.0,0.0,50,0,0.0,0.0,1,23476,0.0,4,4,5
BDI,BI,710.0,6402.0,6402.0,burarana,10373.0,30.0882,-2.6908000000000003,1,,,2014.0,,,50,1,,,50,1,,,50,0,,,1,18630,0.0,5,5,4
BDI,BI,709.0,6396.0,6396.0,bushoka,,29.808,-3.0943,3,school,mapping,2014.0,13.0,14.0,50,2,0.0,0.0,50,4,0.0,0.0,50,0,0.0,0.0,1,23438,7883.542588803293,6,6,6
BDI,BI,717.0,6419.0,6419.0,busoro,,30.4327029,-3.2515663,1,school,mapping,2014.0,12.0,16.0,50,2,0.0,0.0,50,3,0.0,0.0,50,0,0.0,0.0,1,23623,7487.927948228562,7,7,7
BDI,BI,705.0,6387.0,6387.0,busumanyi,,30.6339,-3.0634,3,school,mapping,2014.0,12.0,15.0,50,7,0.0,0.0,50,0,0.0,0.0,50,0,0.0,0.0,1,23371,0.0,8,8,9
BDI,BI,705.0,6387.0,6387.0,busumanyi,10314.0,30.6339,-3.0634,3,,,2014.0,,,50,6,,,50,0,,,50,0,,,1,2185,0.0,9,9,8
BDI,BI,717.0,6417.0,6417.0,butezi,,30.182022,-3.3603962,1,school,mapping,2014.0,12.0,15.0,50,1,0.0,0.0,50,28,0.0,0.02,50,7,0.0,0.0,1,23610,4799.66160264073,10,10,10
BDI,BI,710.0,6401.0,6401.0,butihinda,,30.1857,-2.6413,1,school,mapping,2014.0,12.0,15.0,50,3,0.0,0.0,50,5,0.0,0.0,50,4,0.0,0.0,1,23472,0.0,11,11,12
BDI,BI,710.0,6401.0,6401.0,butihinda,10305.0,30.1857,-2.6413,1,,,2014.0,,,50,3,,,50,5,,,50,3,,,1,18623,0.0,12,12,11
BDI,BI,709.0,6397.0,6397.0,buziraguhindwa,10254.0,29.5733,-2.9652000000000003,3,,,2014.0,,,50,0,,,50,0,,,50,0,,,1,2207,1891.016908541867,13,13,13
BDI,BI,715.0,6414.0,6414.0,bwiza bweranka,,29.884,-2.945111111,3,school,mapping,2016.0,13.0,14.0,50,0,0.0,0.0,50,7,0.0,0.0,50,11,0.0,0.02,1,23579,3759.2827948311424,14,14,14
BDI,BI,702.0,6377.0,6377.0,bwumba,,29.5145,-3.4234,3,school,mapping,2014.0,12.0,16.0,50,2,0.0,0.0,50,26,0.0,0.16,50,14,0.0,0.0,1,23225,0.0,15,15,16
BDI,BI,702.0,6377.0,6377.0,bwumba,10240.0,29.5145,-3.4234,3,,,2014.0,,,50,2,,,50,25,,,50,12,,,1,2149,0.0,16,16,15
BDI,BI,703.0,6381.0,6381.0,cibitoke ii,,29.3769066,-3.3422586,3,school,mapping,2014.0,12.0,16.0,50,0,0.0,0.0,50,0,0.0,0.0,50,5,0.0,0.0,1,23256,979.0527906235462,17,17,17
BDI,BI,704.0,6384.0,6384.0,condi,,29.8279,-3.8073,3,school,mapping,2014.0,12.0,15.0,50,0,0.0,0.0,50,19,0.0,0.04,50,1,0.0,0.0,1,23312,0.0,18,18,19
BDI,BI,704.0,6384.0,6384.0,condi,,29.8279,-3.8073,3,school,sentinel site,2009.0,6.0,16.0,389,3,0.0,0.0,389,182,0.0,0.0026,389,38,0.0,0.0,1,23309,0.0,19,19,18
BDI,BI,704.0,6384.0,6384.0,condi,,29.8279,-3.8073,3,school,sentinel site,2007.0,6.0,20.0,300,4,0.0,0.0,300,93,0.0,0.06,300,39,0.0,0.0,1,23307,0.0,20,20,18
BDI,BI,704.0,6384.0,6384.0,condi,,29.8279,-3.8073,3,school,sentinel site,2010.0,5.0,17.0,424,3,0.0,0.0024,424,129,0.0,0.033,424,27,0.0,0.0,1,23310,0.0,21,21,18
BDI,BI,704.0,6384.0,6384.0,condi,,29.8279,-3.8073,3,school,sentinel site,2011.0,6.0,18.0,410,1,0.0,0.0,410,113,0.0,0.0293,410,22,0.0,0.0,1,23311,0.0,22,22,18
BDI,BI,714.0,6410.0,6410.0,ecofo kibimba i,,29.62705556,-3.582222222,3,school,mapping,2016.0,10.0,14.0,48,1,0.0,0.0,48,9,0.0,0.0208,48,3,0.0,0.0,1,23532,3147.5723246758134,23,23,23
BDI,BI,714.0,6411.0,6411.0,ecofo kibumbu ii,,29.74636111,-3.532416667,3,school,mapping,2016.0,11.0,13.0,50,0,0.0,0.0,50,7,0.0,0.04,50,2,0.0,0.0,1,23542,8489.977464022097,24,24,24
BDI,BI,715.0,6413.0,6413.0,ep kidasha,,30.05902778,-2.787166667,3,school,mapping,2016.0,12.0,14.0,50,0,0.0,0.0,50,4,0.0,0.0,50,7,0.0,0.0,1,23566,5427.6856533871,25,25,25
BDI,BI,715.0,6413.0,6413.0,ep kigomero,,30.02330556,-2.922305556,3,school,mapping,2016.0,12.0,14.0,50,1,0.0,0.0,50,6,0.0,0.02,50,4,0.0,0.0,1,23567,3074.8277582063156,26,26,26
BDI,BI,715.0,6413.0,6413.0,ep myando,,29.99461111,-2.939888889,3,school,mapping,2016.0,12.0,14.0,50,1,0.0,0.0,50,9,0.0,0.0,50,8,0.0,0.0,1,23568,3747.609312633924,27,27,27
BDI,BI,704.0,6385.0,6385.0,ep kizuga,,29.54527778,-3.760277778,3,school,sentinel site,2017.0,6.0,15.0,120,0,0.0,0.0,120,16,0.0,0.0,120,0,0.0,0.0,1,23340,0.0,28,28,134
BDI,BI,702.0,6377.0,6377.0,ep maramvya,,29.34833333,-3.296666667,3,school,sentinel site,2017.0,6.0,15.0,120,2,0.0,0.0,120,1,0.0,0.0,120,4,0.0,0.0,1,23226,5183.685601905491,29,29,29
BDI,BI,706.0,6388.0,6388.0,ep mirombero,,29.30416667,-2.971666667,3,school,sentinel site,2017.0,6.0,15.0,120,0,0.0,0.0,120,1,0.0,0.0,120,1,0.0,0.0,1,23376,5404.173381260157,30,30,30
BDI,BI,704.0,6385.0,6385.0,ep mudende,,29.51333333,-3.891388889,3,school,sentinel site,2017.0,6.0,15.0,120,0,0.0,0.0,120,2,0.0,0.0,120,1,0.0,0.0,1,23341,0.0,31,31,175
BDI,BI,711.0,6403.0,6403.0,ep mugeni,,30.05777778,-4.119166667,3,school,sentinel site,2017.0,6.0,14.0,120,1,0.0,0.0,120,3,0.0,0.0,120,0,0.0,0.0,1,23482,420.5040320855479,32,32,32
BDI,BI,706.0,6388.0,6388.0,ep munyika,,29.12083333,-2.831111111,3,school,sentinel site,2017.0,6.0,15.0,120,0,0.0,0.0,120,0,0.0,0.0,120,0,0.0,0.0,1,23377,6328.112121390441,33,33,33
BDI,BI,701.0,6376.0,6376.0,ep musenyi,,29.40444444,-3.195833333,3,school,sentinel site,2017.0,6.0,14.0,120,0,0.0,0.0,120,0,0.0,0.0,120,0,0.0,0.0,1,23211,0.0,34,34,226
BDI,BI,704.0,6385.0,6385.0,ep nyamibu,,29.39722222,-3.896944444,3,school,sentinel site,2017.0,5.0,15.0,120,6,0.0,0.0,120,2,0.0,0.0,120,1,0.0,0.0,1,23342,337.0855603194401,35,35,35
BDI,BI,717.0,6418.0,6418.0,ep nyamusasa,,30.39111111,-3.675555556,3,school,sentinel site,2017.0,5.0,14.0,120,5,0.0,0.0,120,3,0.0,0.0,120,2,0.0,0.0,1,23614,0.0,36,36,264
BDI,BI,704.0,6385.0,6385.0,ep rukinga i,,29.44083333,-3.964166667,3,school,sentinel site,2017.0,6.0,15.0,120,4,0.0,0.0,120,5,0.0,0.0,120,2,0.0,0.0,1,23343,0.0,37,37,286
BDI,BI,701.0,6375.0,6375.0,ep ruzibira,,29.41805556,-2.9847222220000003,3,school,sentinel site,2017.0,6.0,17.0,120,0,0.0,0.0,120,5,0.0,0.0,120,0,0.0,0.0,1,23199,0.0,38,38,305
BDI,BI,707.0,6393.0,6393.0,gahe,,29.8497,-3.5867,3,school,mapping,2014.0,13.0,14.0,50,0,0.0,0.0,50,25,0.0,0.02,50,2,0.0,0.0,1,23418,11528.309768067173,39,39,39
BDI,BI,713.0,6409.0,6409.0,gahemba i,,30.2794444,-3.4186111,1,school,mapping,2014.0,11.0,14.0,50,9,0.0,0.0,50,3,0.0,0.02,50,3,0.0,0.0,1,23523,0.0,40,40,41
BDI,BI,713.0,6409.0,6409.0,gahemba i,10328.0,30.2794444,-3.4186111,1,,,2014.0,,,50,7,,,50,3,,,50,3,,,1,18663,0.0,41,41,40
BDI,BI,716.0,6415.0,6415.0,gakungu,,30.3211533,-3.7509575,3,school,mapping,2014.0,13.0,14.0,50,9,0.0,0.0,50,3,0.0,0.0,50,0,0.0,0.0,1,23590,9557.30056995558,42,42,42
BDI,BI,706.0,6388.0,6388.0,gasenyi,,29.2,-2.966667,1,school,mapping,2014.0,12.0,15.0,50,2,0.0,0.0,50,0,0.0,0.0,50,0,0.0,0.0,1,23378,11609.165429610406,43,43,43
BDI,BI,713.0,6407.0,6407.0,gasorwe ii,,30.2209801,-2.8521841,1,school,mapping,2014.0,12.0,14.0,50,1,0.0,0.0,50,21,0.0,0.04,50,16,0.0,0.0,1,23513,0.0,44,44,45
BDI,BI,713.0,6407.0,6407.0,gasorwe ii,10219.0,30.2209801,-2.8521841,1,,,2014.0,,,50,1,,,50,21,,,50,15,,,1,2234,0.0,45,45,44
BDI,BI,713.0,6407.0,6407.0,gasorwe iii,,30.2209801,-2.8521841,1,school,mapping,2014.0,13.0,14.0,50,2,0.0,0.0,50,13,0.0,0.0,50,6,0.0,0.0,1,23514,0.0,46,46,44
BDI,BI,710.0,6402.0,6402.0,gatanga,,29.7929048,-4.3495219,1,school,mapping,2014.0,12.0,15.0,50,6,0.0,0.0,50,0,0.0,0.0,50,0,0.0,0.0,1,23477,6845.351759426404,47,47,47
BDI,BI,708.0,6395.0,6395.0,gatonde,10334.0,30.1773,-3.2562,3,,,2014.0,,,50,0,,,50,4,,,50,0,,,1,2202,5395.943688668257,48,48,48
BDI,BI,704.0,6384.0,6384.0,gatwe,,29.4858333,-3.5577778,1,school,mapping,2014.0,12.0,15.0,50,3,0.0,0.0,50,11,0.0,0.1,50,4,0.0,0.0,1,23318,0.0,49,49,50
BDI,BI,704.0,6384.0,6384.0,gatwe,,29.4858333,-3.5577778,1,school,sentinel site,2009.0,6.0,18.0,456,23,0.0,0.0,456,103,0.0,0.011,456,13,0.0,0.0,1,23315,0.0,50,50,49
BDI,BI,704.0,6384.0,6384.0,gatwe,,29.4858333,-3.5577778,1,school,sentinel site,2010.0,5.0,20.0,431,4,0.0,0.0,431,68,0.0,0.0162,431,9,0.0,0.0,1,23316,0.0,51,51,49
BDI,BI,704.0,6384.0,6384.0,gatwe,,29.4858333,-3.5577778,1,school,sentinel site,2011.0,6.0,18.0,359,0,0.0,0.0,359,55,0.0,0.0251,359,4,0.0,0.0,1,23317,0.0,52,52,49
BDI,BI,704.0,6384.0,6384.0,gatwe,,29.4858333,-3.5577778,1,school,sentinel site,2007.0,5.0,18.0,300,3,0.0,0.0,300,38,0.0,0.0033,300,9,0.0,0.0,1,23313,0.0,53,53,49
BDI,BI,704.0,6384.0,6384.0,gatwe,10292.0,29.4858333,-3.5577778,1,,,2014.0,,,50,3,,,50,10,,,50,4,,,1,18530,0.0,54,54,49
BDI,BI,716.0,6415.0,6415.0,giharo,,30.2382911,-3.7733787,1,school,mapping,2014.0,13.0,14.0,50,4,0.0,0.0,50,1,0.0,0.0,50,0,0.0,0.0,1,23591,9557.30056995558,55,55,55
BDI,BI,708.0,6395.0,6395.0,gihogazi ii,50198.0,29.9971769,-3.1552575,1,,,2007.0,,,60,4,,,60,24,,,60,4,,,1,2128,2314.031690229943,56,56,56
BDI,BI,708.0,6395.0,6395.0,gikombe,10335.0,29.7630556,-4.0944444,1,,,2014.0,,,50,1,,,50,12,,,50,3,,,1,18593,8239.3890796118,57,57,57
BDI,BI,707.0,6390.0,6390.0,gisebuzi,,29.8428,-3.3707000000000003,3,school,mapping,2014.0,13.0,14.0,50,10,0.0,0.0,50,21,0.0,0.0,50,18,0.0,0.0,1,23399,0.0,58,58,59
BDI,BI,707.0,6390.0,6390.0,gisebuzi,10229.0,29.8428,-3.3707000000000003,3,,,2014.0,,,50,10,,,50,20,,,50,18,,,1,2192,0.0,59,59,58
BDI,BI,708.0,6394.0,6394.0,gisenyi,,30.2032,-3.0966,1,school,mapping,2014.0,12.0,16.0,50,1,0.0,0.0,50,8,0.0,0.0,50,0,0.0,0.0,1,23423,14038.701295041272,60,60,60
BDI,BI,716.0,6416.0,6416.0,gisuriro,,30.068,-3.7458,3,school,mapping,2014.0,12.0,14.0,50,2,0.0,0.0,50,17,0.0,0.02,50,4,0.0,0.0,1,23602,0.0,61,61,62
BDI,BI,716.0,6416.0,6416.0,gisuriro,,30.068,-3.7458,3,school,sentinel site,2008.0,6.0,16.0,300,25,0.0,0.0,300,82,0.0,0.03,300,68,0.0,0.0,1,23599,0.0,62,62,61
BDI,BI,716.0,6416.0,6416.0,gisuriro,,30.068,-3.7458,3,school,sentinel site,2011.0,2.0,18.0,503,9,0.0,0.0,503,101,0.0,0.0199,503,54,0.0,0.0,1,23601,0.0,63,63,61
BDI,BI,713.0,6409.0,6409.0,gitaramuka,,30.1358346,-2.9757159,1,school,mapping,2014.0,13.0,14.0,50,7,0.0,0.0,50,1,0.0,0.0,50,3,0.0,0.0,1,23524,0.0,64,64,65
BDI,BI,713.0,6409.0,6409.0,gitaramuka,10329.0,30.1358346,-2.9757159,1,,,2014.0,,,50,8,,,50,2,,,50,3,,,1,2239,0.0,65,65,64
BDI,BI,702.0,6378.0,6378.0,gitaza ii,,29.3460869,-3.617381,1,school,mapping,2014.0,12.0,15.0,50,0,0.0,0.0,50,1,0.0,0.0,50,7,0.0,0.0,1,23233,0.0,66,66,67
BDI,BI,702.0,6378.0,6378.0,gitaza ii,10244.0,29.3460869,-3.617381,1,,,2014.0,,,50,1,,,50,1,,,50,5,,,1,2151,0.0,67,67,66
BDI,BI,713.0,6408.0,6408.0,gitega,,30.2713,-2.7141,1,school,mapping,2014.0,12.0,14.0,50,4,0.0,0.0,50,13,0.0,0.04,50,14,0.0,0.0,1,23518,12514.802892771906,68,68,68
BDI,BI,702.0,6378.0,6378.0,gitenga,,29.3942,-3.5302,3,school,mapping,2014.0,13.0,14.0,50,17,0.0,0.0,50,1,0.0,0.0,50,1,0.0,0.0,1,23234,0.0,69,69,70
BDI,BI,702.0,6378.0,6378.0,gitenga,10245.0,29.3942,-3.5302,3,,,2014.0,,,50,17,,,50,1,,,50,2,,,1,2155,0.0,70,70,69
BDI,BI,704.0,6384.0,6384.0,gitobo,,29.8235,-3.9825,3,school,mapping,2014.0,12.0,15.0,50,0,0.0,0.0,50,9,0.0,0.08,50,1,0.0,0.0,1,23325,0.0,71,71,72
BDI,BI,704.0,6384.0,6384.0,gitobo,,29.8235,-3.9825,3,school,sentinel site,2009.0,5.0,19.0,465,2,0.0,0.0,465,117,0.0,0.0258,465,3,0.0,0.0,1,23322,0.0,72,72,71
BDI,BI,704.0,6384.0,6384.0,gitobo,,29.8235,-3.9825,3,school,sentinel site,2010.0,6.0,19.0,444,1,0.0,0.0,444,109,0.0,0.0383,444,6,0.0,0.0,1,23323,0.0,73,73,71
BDI,BI,704.0,6384.0,6384.0,gitobo,,29.8235,-3.9825,3,school,sentinel site,2011.0,5.0,18.0,490,0,0.0,0.0,490,112,0.0,0.0388,490,6,0.0,0.0,1,23324,0.0,74,74,71
BDI,BI,704.0,6384.0,6384.0,gitobo,,29.8235,-3.9825,3,school,sentinel site,2008.0,6.0,17.0,331,2,0.0,0.0,331,66,0.003,0.0151,331,3,0.0,0.0,1,23321,0.0,75,75,71
BDI,BI,704.0,6384.0,6384.0,gitobo,10294.0,29.8235,-3.9825,3,,,2014.0,,,50,0,,,50,8,,,50,1,,,1,2172,0.0,76,76,71
BDI,BI,706.0,6389.0,6389.0,gitukura,,29.1230716,-2.8878427,2,school,mapping,2014.0,12.0,14.0,50,2,0.0,0.0,50,4,0.0,0.02,50,0,0.0,0.0,1,23395,0.0,77,77,78
BDI,BI,706.0,6389.0,6389.0,gitukura,10281.0,29.1230716,-2.8878427,2,,,2014.0,,,50,2,,,50,3,,,50,0,,,1,2190,0.0,78,78,77
BDI,BI,710.0,6401.0,6401.0,kabirizi i,,30.3167,-2.6033,3,school,mapping,2014.0,13.0,15.0,50,3,0.0,0.0,50,2,0.0,0.0,50,2,0.0,0.0,1,23473,12457.182681311182,79,79,79
BDI,BI,711.0,6404.0,6404.0,kabo,,29.64638889,-4.299444444,3,school,mapping,2014.0,13.0,14.0,50,6,0.0,0.0,50,2,0.0,0.0,50,2,0.0,0.0,1,23491,0.0,80,80,81
BDI,BI,711.0,6404.0,6404.0,kabo,,29.64638889,-4.299444444,3,school,sentinel site,2009.0,6.0,17.0,308,65,0.0,0.0,308,40,0.0,0.0,308,37,0.0,0.0,1,23493,0.0,81,81,80
BDI,BI,711.0,6404.0,6404.0,kabo,,29.64638889,-4.299444444,3,school,sentinel site,2008.0,5.0,17.0,300,50,0.0,0.0,300,12,0.0,0.0,300,15,0.0,0.0,1,23492,0.0,82,82,80
BDI,BI,711.0,6404.0,6404.0,kabo,,29.64638889,-4.299444444,3,school,sentinel site,2011.0,6.0,17.0,450,14,0.0,0.0,450,3,0.0,0.0,450,4,0.0,0.0,1,23494,0.0,83,83,80
BDI,BI,711.0,6404.0,6404.0,kabo,10340.0,29.64638889,-4.299444444,3,,,2014.0,,,50,6,,,50,1,,,50,2,,,1,18641,0.0,84,84,80
BDI,BI,710.0,6402.0,6402.0,kabuye,,30.1309,-2.7153,1,school,mapping,2014.0,12.0,15.0,50,2,0.0,0.0,50,17,0.0,0.0,50,10,0.0,0.0,1,23478,0.0,85,85,86
BDI,BI,710.0,6402.0,6402.0,kabuye,10375.0,30.1309,-2.7153,1,,,2014.0,,,50,2,,,50,19,,,50,8,,,1,18629,0.0,86,86,85
BDI,BI,715.0,6412.0,6412.0,kagoma,,29.841,-2.845055556,3,school,mapping,2016.0,13.0,14.0,50,0,0.0,0.0,50,3,0.0,0.0,50,1,0.0,0.0,1,23559,3490.3048378452427,87,87,87
BDI,BI,704.0,6385.0,6385.0,kagongo,,29.3766,-3.8445,3,school,mapping,2014.0,13.0,14.0,50,1,0.0,0.0,50,3,0.0,0.0,50,2,0.0,0.0,1,23345,6010.374740428442,88,88,88
BDI,BI,703.0,6381.0,6381.0,kamenge iii,,29.3863122,-3.3455361,3,school,mapping,2014.0,12.0,14.0,50,0,0.0,0.0,50,1,0.0,0.0,50,1,0.0,0.0,1,23258,1108.9789892866995,89,89,89
BDI,BI,701.0,6375.0,6375.0,kanazi,,29.4938889,-3.0438889,1,school,mapping,2014.0,12.0,16.0,50,1,0.0,0.0,50,8,0.0,0.0,50,0,0.0,0.0,1,23201,1436.4519916863017,90,90,90
BDI,BI,709.0,6398.0,6398.0,karehe,,29.73793,-3.1775199,3,school,mapping,2014.0,12.0,15.0,50,3,0.0,0.0,50,12,0.0,0.0,50,1,0.0,0.0,1,23453,0.0,91,91,92
BDI,BI,709.0,6398.0,6398.0,karehe,,29.73793,-3.1775199,3,school,sentinel site,2008.0,6.0,19.0,300,14,0.0,0.0,300,133,0.0,0.13,300,22,0.0,0.0,1,23450,0.0,92,92,91
BDI,BI,709.0,6398.0,6398.0,karehe,,29.73793,-3.1775199,3,school,sentinel site,2011.0,6.0,18.0,453,4,0.0,0.0,453,99,0.0,0.0132,453,21,0.0,0.0,1,23452,0.0,93,93,91
BDI,BI,709.0,6398.0,6398.0,karehe,,29.73793,-3.1775199,3,school,sentinel site,2009.0,6.0,14.0,301,23,0.0,0.0,301,35,0.0,0.0166,301,50,0.0,0.0,1,23451,0.0,94,94,91
BDI,BI,707.0,6392.0,6392.0,karemba,,30.0076,-3.7068,1,school,mapping,2014.0,13.0,14.0,50,4,0.0,0.0,50,23,0.0,0.02,50,5,0.0,0.0,1,23414,8008.51606502314,95,95,95
BDI,BI,716.0,6416.0,6416.0,karinzi,,29.85430625,-3.0373625,4,school,mapping,2014.0,13.0,14.0,50,2,0.0,0.0,50,5,0.0,0.0,50,2,0.0,0.0,1,23603,2634.489353416913,96,96,96
BDI,BI,717.0,6419.0,6419.0,karuyigi,,30.2483881,-3.4750027,3,school,mapping,2014.0,12.0,16.0,50,0,0.0,0.0,50,1,0.0,0.0,50,0,0.0,0.0,1,23624,0.0,97,97,302
BDI,BI,709.0,6397.0,6397.0,kayanza ii,,29.6321188,-2.9297132,3,school,mapping,2014.0,12.0,16.0,50,0,0.0,0.0,50,6,0.0,0.04,50,1,0.0,0.0,1,23443,4866.373995566624,98,98,98
BDI,BI,713.0,6409.0,6409.0,kayenzi,,30.3589,-2.89833,3,,,2007.0,10.0,16.0,60,11,,,60,4,,,60,3,,,1,31272,3170.621647052767,99,99,99
BDI,BI,712.0,6405.0,6405.0,kibogoye,10264.0,29.6041,-3.2177,1,,,2014.0,,,50,0,,,50,13,,,50,0,,,1,18647,6252.036437021245,100,100,100
BDI,BI,710.0,6399.0,6399.0,kibonde,,30.1602,-2.4725,3,school,mapping,2014.0,12.0,15.0,50,5,0.0,0.0,50,2,0.0,0.0,50,2,0.0,0.0,1,23459,0.0,101,101,102
BDI,BI,710.0,6399.0,6399.0,kibonde,10193.0,30.1602,-2.4725,3,,,2014.0,,,50,4,,,50,1,,,50,2,,,1,2213,0.0,102,102,101
BDI,BI,712.0,6405.0,6405.0,kibumbu,,29.7583,-3.2179,1,school,mapping,2014.0,12.0,16.0,50,2,0.0,0.0,50,19,0.0,0.02,50,1,0.0,0.0,1,23503,0.0,103,103,104
BDI,BI,712.0,6405.0,6405.0,kibumbu,10265.0,29.7583,-3.2179,1,,,2014.0,,,50,2,,,50,18,,,50,1,,,1,18645,0.0,104,104,103
BDI,BI,711.0,6404.0,6404.0,kiderege,,29.6725,-4.2695,3,school,mapping,2014.0,12.0,16.0,50,4,0.0,0.0,50,1,0.0,0.0,50,0,0.0,0.0,1,23496,0.0,105,105,106
BDI,BI,711.0,6404.0,6404.0,kiderege,10342.0,29.6725,-4.2695,3,,,2014.0,,,50,1,,,50,1,,,50,0,,,1,18643,0.0,106,106,105
BDI,BI,708.0,6394.0,6394.0,kigarama ii,,29.716667,-2.933333,1,school,mapping,2014.0,12.0,14.0,50,0,0.0,0.0,50,7,0.0,0.0,50,0,0.0,0.0,1,23424,0.0,107,107,108
BDI,BI,708.0,6394.0,6394.0,kigarama ii,10166.0,29.716667,-2.933333,1,,,2014.0,,,50,0,,,50,7,,,50,1,,,1,18584,0.0,108,108,107
BDI,BI,710.0,6402.0,6402.0,kigobe,,30.1231,-2.6833,1,school,mapping,2014.0,13.0,14.0,50,2,0.0,0.0,50,14,0.0,0.0,50,6,0.0,0.0,1,23479,0.0,109,109,110
BDI,BI,710.0,6402.0,6402.0,kigobe,10376.0,30.1231,-2.6833,1,,,2014.0,,,50,2,,,50,14,,,50,5,,,1,18628,0.0,110,110,109
BDI,BI,713.0,6407.0,6407.0,kigoganya,,30.2941,-2.8373,3,school,mapping,2014.0,12.0,14.0,50,9,0.0,0.0,50,7,0.0,0.0,50,4,0.0,0.0,1,23515,0.0,111,111,112
BDI,BI,713.0,6407.0,6407.0,kigoganya,10221.0,30.2941,-2.8373,3,,,2014.0,,,50,10,,,50,7,,,50,4,,,1,2232,0.0,112,112,111
BDI,BI,703.0,6381.0,6381.0,kinama iii,,29.3767699,-3.3334796,3,school,mapping,2014.0,12.0,14.0,50,0,0.0,0.0,50,1,0.0,0.0,50,1,0.0,0.0,1,23259,979.0527906235462,113,113,113
BDI,BI,706.0,6389.0,6389.0,kinga,,29.1230716,-2.8878427,2,school,mapping,2014.0,12.0,14.0,50,1,0.0,0.0,50,11,0.0,0.0,50,5,0.0,0.0,1,23396,0.0,114,114,77
BDI,BI,706.0,6389.0,6389.0,kinga,10282.0,29.1230716,-2.8878427,2,,,2014.0,,,50,1,,,50,11,,,50,2,,,1,18560,0.0,115,115,77
BDI,BI,702.0,6378.0,6378.0,kinonko,,29.4716,-3.5377,3,school,mapping,2014.0,12.0,16.0,50,1,0.0,0.0,50,27,0.0,0.18,50,4,0.0,0.0,1,23236,2743.194198534268,116,116,116
BDI,BI,707.0,6391.0,6391.0,kirambi,,29.7553,-3.6292,1,school,mapping,2014.0,13.0,14.0,50,4,0.0,0.02,50,19,0.0,0.02,50,3,0.0,0.0,1,23408,8966.55722417779,117,117,117
BDI,BI,707.0,6393.0,6393.0,kiranzira,,29.90945,-3.41934,1,school,mapping,2014.0,13.0,14.0,50,2,0.0,0.0,50,15,0.0,0.0,50,1,0.0,0.0,1,23419,1337.0154500076803,118,118,118
BDI,BI,716.0,6416.0,6416.0,kireka,,30.0876,-3.677,3,school,mapping,2014.0,13.0,14.0,50,2,0.0,0.0,50,20,0.0,0.0,50,1,0.0,0.0,1,23604,0.0,119,119,120
BDI,BI,716.0,6416.0,6416.0,kireka,10354.0,30.0876,-3.677,3,,,2014.0,,,50,2,,,50,21,,,50,1,,,1,2247,0.0,120,120,119
BDI,BI,702.0,6378.0,6378.0,kirombwe iii,10249.0,29.3675,-3.6227,3,,,2014.0,,,50,2,,,50,19,,,50,18,,,1,2150,2456.420016378846,121,121,121
BDI,BI,702.0,6378.0,6378.0,kirundo,,29.3563904,-3.3846521,1,school,mapping,2014.0,12.0,15.0,50,2,0.0,0.0,50,7,0.0,0.0,50,0,0.0,0.0,1,23237,1554.5418829731132,122,122,122
BDI,BI,717.0,6417.0,6417.0,kivumu,,30.1166667,-3.3983333,1,school,mapping,2014.0,11.0,15.0,50,2,0.0,0.0,50,11,0.0,0.0,50,0,0.0,0.0,1,23611,5779.56128162445,123,123,123
BDI,BI,709.0,6398.0,6398.0,kivumu i,,29.5175,-2.8905556,1,school,mapping,2014.0,12.0,16.0,50,1,0.0,0.0,50,33,0.0,0.02,50,5,0.0,0.0,1,23454,0.0,124,124,125
BDI,BI,709.0,6398.0,6398.0,kivumu i,10321.0,29.5175,-2.8905556,1,,,2014.0,,,50,1,,,50,32,,,50,5,,,1,18607,0.0,125,125,124
BDI,BI,709.0,6396.0,6396.0,kivuruga,,29.6492,-2.9699,1,school,mapping,2014.0,12.0,14.0,50,3,0.0,0.0,50,29,0.0,0.04,50,5,0.0,0.0,1,23439,0.0,126,126,127
BDI,BI,709.0,6396.0,6396.0,kivuruga,10215.0,29.6492,-2.9699,1,,,2014.0,,,50,3,,,50,29,,,50,4,,,1,18595,0.0,127,127,126
BDI,BI,701.0,6375.0,6375.0,kivyuka ii,,29.4509403,-3.0288458,1,school,mapping,2014.0,12.0,15.0,50,5,0.0,0.0,50,6,0.0,0.0,50,0,0.0,0.0,1,23202,0.0,128,128,129
BDI,BI,701.0,6375.0,6375.0,kivyuka ii,10162.0,29.4509403,-3.0288458,1,,,2014.0,,,50,5,,,50,5,,,50,0,,,1,2141,0.0,129,129,128
BDI,BI,711.0,6403.0,6403.0,kiyange ii,,29.1288889,-2.7158333,1,school,mapping,2014.0,12.0,15.0,50,6,0.0,0.0,50,1,0.0,0.0,50,0,0.0,0.0,1,23484,4841.436415920354,130,130,130
BDI,BI,710.0,6400.0,6400.0,kiyanza,,30.1460157,-2.5051722,3,school,mapping,2014.0,13.0,14.0,50,7,0.0,0.0,50,5,0.0,0.02,50,2,0.0,0.0,1,23463,0.0,131,131,132
BDI,BI,710.0,6400.0,6400.0,kiyanza,10276.0,30.1460157,-2.5051722,3,,,2014.0,,,50,6,,,50,5,,,50,2,,,1,2217,0.0,132,132,131
BDI,BI,709.0,6398.0,6398.0,kiziba,,29.4922222,-3.0311111,2,school,mapping,2014.0,13.0,14.0,50,2,0.0,0.0,50,35,0.0,0.22,50,8,0.0,0.0,1,23455,1436.4519916863017,133,133,133
BDI,BI,704.0,6385.0,6385.0,kizuga,,29.54527778,-3.760277778,3,school,mapping,2014.0,12.0,16.0,50,1,0.0,0.0,50,4,0.0,0.0,50,0,0.0,0.0,1,23346,0.0,134,134,28
BDI,BI,704.0,6385.0,6385.0,kizuga/nkizi,,29.54527778,-3.760277778,3,school,sentinel site,2007.0,6.0,19.0,300,51,0.0,0.0033,300,143,0.0033,0.08,300,12,0.0,0.0,1,23347,0.0,135,135,28
BDI,BI,704.0,6385.0,6385.0,kizuga/nkizi,,29.54527778,-3.760277778,3,school,sentinel site,2009.0,6.0,18.0,446,19,0.0,0.0,446,201,0.0,0.0157,446,19,0.0,0.0,1,23349,0.0,136,136,28
BDI,BI,704.0,6385.0,6385.0,kizuga/nkizi,,29.54527778,-3.760277778,3,school,sentinel site,2011.0,6.0,19.0,350,5,0.0,0.0,350,88,0.0,0.0514,350,9,0.0,0.0,1,23351,0.0,137,137,28
BDI,BI,704.0,6385.0,6385.0,kizuga/nkizi,,29.54527778,-3.760277778,3,school,sentinel site,2010.0,5.0,18.0,454,3,0.0,0.0,454,87,0.0,0.011,454,7,0.0,0.0,1,23350,0.0,138,138,28
BDI,BI,704.0,6385.0,6385.0,kizuga/nkizi,,29.54527778,-3.760277778,3,school,sentinel site,2008.0,6.0,18.0,343,10,0.0,0.0,343,54,0.0029,0.0087,343,7,0.0,0.0,1,23348,0.0,139,139,28
BDI,BI,713.0,6408.0,6408.0,kobero,,30.4103505,-2.664491,1,school,mapping,2014.0,13.0,14.0,50,2,0.0,0.0,50,1,0.0,0.0,50,4,0.0,0.0,1,23519,12457.182681311182,140,140,140
BDI,BI,707.0,6390.0,6390.0,kwibuka,,29.9093794,-3.4073509,3,school,mapping,2014.0,13.0,14.0,50,3,0.0,0.0,50,11,0.0,0.02,50,6,0.0,0.0,1,23400,1337.0154500076803,141,141,141
BDI,BI,703.0,6380.0,6380.0,lumiere kinindo,10172.0,29.3513824,-3.4120317,3,,,2014.0,,,50,0,,,50,0,,,50,0,,,1,18510,2780.3125786644227,142,142,142
BDI,BI,702.0,6378.0,6378.0,magara ii,,29.317042,-3.7249768,1,school,mapping,2014.0,12.0,15.0,50,0,0.0,0.0,50,3,0.0,0.02,50,0,0.0,0.0,1,23238,0.0,143,143,144
BDI,BI,702.0,6378.0,6378.0,magara ii,10251.0,29.317042,-3.7249768,1,,,2014.0,,,50,1,,,50,4,,,50,1,,,1,2153,0.0,144,144,143
BDI,BI,715.0,6414.0,6414.0,makaba,,29.82047222,-2.994388889,3,school,mapping,2016.0,13.0,14.0,50,5,0.0,0.0,50,2,0.0,0.0,50,0,0.0,0.0,1,23581,3979.910960990413,145,145,145
BDI,BI,707.0,6391.0,6391.0,maramvya,,29.966667,-3.55,1,school,mapping,2014.0,13.0,14.0,50,1,0.0,0.0,50,12,0.0,0.0,50,0,0.0,0.0,1,23410,4292.862329486974,146,146,146
BDI,BI,702.0,6377.0,6377.0,maramvya i,,29.3771856,-3.3927199,2,school,mapping,2014.0,12.0,13.0,50,0,0.0,0.0,50,0,0.0,0.0,50,2,0.0,0.0,1,23231,0.0,147,147,148
BDI,BI,702.0,6377.0,6377.0,maramvya i,,29.3771856,-3.3927199,2,school,sentinel site,2008.0,6.0,18.0,300,39,0.0,0.0,300,39,0.0,0.0,300,16,0.0,0.0,1,23228,0.0,148,148,147
BDI,BI,702.0,6377.0,6377.0,maramvya i,,29.3771856,-3.3927199,2,school,sentinel site,2009.0,6.0,14.0,331,31,0.0,0.0,331,8,0.0,0.0,331,34,0.0,0.0,1,23229,0.0,149,149,147
BDI,BI,702.0,6377.0,6377.0,maramvya i,,29.3771856,-3.3927199,2,school,sentinel site,2011.0,6.0,19.0,495,13,0.0,0.0,495,4,0.0,0.0,495,1,0.0,0.0,1,23230,0.0,150,150,147
BDI,BI,708.0,6394.0,6394.0,masabo,,30.066667,-3.133333,1,school,mapping,2014.0,12.0,15.0,50,0,0.0,0.0,50,7,0.0,0.0,50,0,0.0,0.0,1,23425,6328.624946978919,151,151,151
BDI,BI,704.0,6384.0,6384.0,matana,,29.6832329,-3.7676289,1,school,mapping,2014.0,12.0,15.0,50,0,0.0,0.0,50,12,0.0,0.06,50,2,0.0,0.0,1,23327,3310.906824676811,152,152,152
BDI,BI,702.0,6379.0,6379.0,mayuyu,,29.5176,-3.5791,3,school,mapping,2014.0,12.0,15.0,50,0,0.0,0.0,50,5,0.0,0.0,50,0,0.0,0.0,1,23240,4261.555998913676,153,153,153
BDI,BI,704.0,6383.0,6383.0,mbiga,,29.6391667,-4.1008333,1,school,mapping,2014.0,12.0,15.0,50,2,0.0,0.0,50,7,0.0,0.0,50,0,0.0,0.0,1,23276,0.0,154,154,155
BDI,BI,704.0,6383.0,6383.0,mbiga,10187.0,29.6391667,-4.1008333,1,,,2014.0,,,50,0,,,50,0,,,50,0,,,1,2168,0.0,155,155,154
BDI,BI,711.0,6404.0,6404.0,mbizi ii,50199.0,29.7163889,-4.41,1,,,2007.0,,,60,12,,,60,2,,,60,0,,,1,2133,10756.947546963775,156,156,156
BDI,BI,714.0,6411.0,6411.0,mbogora ii,,29.77188889,-3.386833333,3,school,mapping,2016.0,11.0,14.0,50,0,0.0,0.0,50,3,0.0,0.0,50,0,0.0,0.0,1,23546,4778.33496534637,157,157,157
BDI,BI,714.0,6411.0,6411.0,mbogora iii,,29.76836111,-3.459527778,3,school,mapping,2016.0,12.0,14.0,50,0,0.0,0.0,50,9,0.0,0.0,50,2,0.0,0.0,1,23548,0.0,158,158,250
BDI,BI,716.0,6416.0,6416.0,mbuza,,30.04374,-3.77378,3,school,mapping,2014.0,13.0,14.0,50,2,0.0,0.0,50,16,0.0,0.04,50,9,0.0,0.0,1,23606,4127.550280739387,159,159,159
BDI,BI,703.0,6380.0,6380.0,michel archange,,29.3677213,-3.376504,3,school,mapping,2014.0,12.0,14.0,50,0,0.0,0.0,50,0,0.0,0.0,50,0,0.0,0.0,1,23250,1554.5418829731132,160,160,160
BDI,BI,712.0,6405.0,6405.0,migezi,,29.7438889,-4.2877778,1,school,mapping,2014.0,12.0,16.0,50,1,0.0,0.0,50,5,0.0,0.0,50,1,0.0,0.0,1,23504,3256.905978465466,161,161,161
BDI,BI,709.0,6396.0,6396.0,mikoni,,29.7216,-2.9533,1,school,mapping,2014.0,13.0,15.0,50,0,0.0,0.0,50,13,0.0,0.04,50,3,0.0,0.0,1,23440,2292.396544370146,162,162,162
BDI,BI,708.0,6395.0,6395.0,mikore,,30.1309,-3.2422,1,school,mapping,2014.0,12.0,16.0,50,0,0.0,0.0,50,10,0.0,0.0,50,0,0.0,0.0,1,23432,5395.943688668257,163,163,163
BDI,BI,705.0,6386.0,6386.0,minyare,,30.4910928,-3.2182245,3,school,mapping,2014.0,12.0,14.0,50,4,0.0,0.0,50,2,0.0,0.0,50,0,0.0,0.0,1,23362,0.0,164,164,165
BDI,BI,705.0,6386.0,6386.0,minyare,10202.0,30.4910928,-3.2182245,3,,,2014.0,,,50,3,,,50,2,,,50,0,,,1,2182,0.0,165,165,164
BDI,BI,706.0,6388.0,6388.0,mirombero,,29.1230716,-2.8878427,2,school,mapping,2014.0,12.0,14.0,50,1,0.0,0.0,50,6,0.0,0.0,50,2,0.0,0.0,1,23384,0.0,166,166,77
BDI,BI,706.0,6388.0,6388.0,mirombero,,29.1230716,-2.8878427,2,school,sentinel site,2007.0,5.0,23.0,300,118,0.0,0.0,300,13,0.0,0.0,300,7,0.0,0.0,1,23379,0.0,167,167,77
BDI,BI,706.0,6388.0,6388.0,mirombero,,29.1230716,-2.8878427,2,school,sentinel site,2011.0,6.0,17.0,412,17,0.0,0.0,412,15,0.0,0.0,412,8,0.0,0.0,1,23383,0.0,168,168,77
BDI,BI,706.0,6388.0,6388.0,mirombero,,29.1230716,-2.8878427,2,school,sentinel site,2010.0,5.0,19.0,441,22,0.0,0.0,441,4,0.0,0.0,441,7,0.0,0.0,1,23382,0.0,169,169,77
BDI,BI,706.0,6388.0,6388.0,mirombero,,29.1230716,-2.8878427,2,school,sentinel site,2008.0,6.0,18.0,305,26,0.0,0.0,305,2,0.0,0.0033,305,3,0.0,0.0,1,23380,0.0,170,170,77
BDI,BI,714.0,6410.0,6410.0,mpanuka,,29.79391667,-3.350055556,3,school,mapping,2016.0,12.0,14.0,48,1,0.0,0.0,48,9,0.0,0.0,48,4,0.0,0.0,1,23535,4778.33496534637,171,171,171
BDI,BI,706.0,6388.0,6388.0,mparambo,,29.1230716,-2.8878427,2,school,mapping,2014.0,12.0,14.0,50,4,0.0,0.0,50,2,0.0,0.0,50,0,0.0,0.0,1,23385,0.0,172,172,77
BDI,BI,706.0,6388.0,6388.0,mparambo,10210.0,29.1230716,-2.8878427,2,,,2014.0,,,50,5,,,50,2,,,50,0,,,1,18556,0.0,173,173,77
BDI,BI,715.0,6414.0,6414.0,mpondogoto,,29.71866667,-2.906222222,3,school,mapping,2016.0,13.0,14.0,50,0,0.0,0.0,50,13,0.0,0.06,50,6,0.0,0.0,1,23587,3030.068669057451,174,174,174
BDI,BI,704.0,6385.0,6385.0,mudende,,29.51333333,-3.891388889,3,school,sentinel site,2007.0,5.0,18.0,300,82,0.0,0.0,300,17,0.0,0.0,300,6,0.0,0.0,1,23353,0.0,175,175,31
BDI,BI,704.0,6385.0,6385.0,mudende,,29.51333333,-3.891388889,3,school,sentinel site,2011.0,5.0,21.0,424,46,0.0,0.0,424,19,0.0,0.0,424,8,0.0,0.0,1,23357,0.0,176,176,31
BDI,BI,704.0,6385.0,6385.0,mudende,,29.51333333,-3.891388889,3,school,sentinel site,2009.0,5.0,17.0,392,68,0.0,0.0,392,11,0.0,0.0,392,6,0.0,0.0,1,23355,0.0,177,177,31
BDI,BI,704.0,6385.0,6385.0,mudende,,29.51333333,-3.891388889,3,school,sentinel site,2010.0,5.0,20.0,413,76,0.0,0.0024,413,11,0.0,0.0,413,3,0.0,0.0,1,23356,0.0,178,178,31
BDI,BI,704.0,6385.0,6385.0,mudende,,29.51333333,-3.891388889,3,school,sentinel site,2008.0,6.0,18.0,319,60,0.0,0.0,319,2,0.0,0.0,319,1,0.0,0.0,1,23354,0.0,179,179,31
BDI,BI,704.0,6385.0,6385.0,mudende ii,10349.0,29.5171845,-3.8906651,3,,,2014.0,,,50,3,,,50,5,,,50,0,,,1,18540,436.25033851024386,180,180,180
BDI,BI,708.0,6394.0,6394.0,mugende,,30.09676,-3.02906,3,school,mapping,2014.0,12.0,15.0,50,0,0.0,0.0,50,22,0.0,0.02,50,0,0.0,0.0,1,23426,7367.505117840313,181,181,181
BDI,BI,702.0,6379.0,6379.0,mugendo,,29.3428,-3.6911,1,school,mapping,2014.0,11.0,15.0,50,3,0.0,0.0,50,22,0.0,0.08,50,9,0.0,0.0,1,23241,0.0,182,182,183
BDI,BI,702.0,6379.0,6379.0,mugendo,10365.0,29.3428,-3.6911,1,,,2014.0,,,50,3,,,50,20,,,50,6,,,1,18504,0.0,183,183,182
BDI,BI,711.0,6403.0,6403.0,mugeni,,30.0544625,-4.1173608,3,school,mapping,2014.0,12.0,14.0,50,2,0.0,0.0,50,0,0.0,0.0,50,0,0.0,0.0,1,23488,0.0,184,184,185
BDI,BI,711.0,6403.0,6403.0,mugeni,,30.0544625,-4.1173608,3,school,sentinel site,2011.0,6.0,17.0,474,10,0.0,0.0,474,14,0.0,0.0,474,3,0.0,0.0,1,23487,0.0,185,185,184
BDI,BI,711.0,6403.0,6403.0,mugeni,,30.0544625,-4.1173608,3,school,sentinel site,2008.0,6.0,17.0,300,25,0.0,0.0,300,1,0.0,0.0033,300,5,0.0,0.0,1,23485,0.0,186,186,184
BDI,BI,711.0,6403.0,6403.0,mugeni,10288.0,30.0544625,-4.1173608,3,,,2014.0,,,50,1,,,50,1,,,50,0,,,1,2222,0.0,187,187,184
BDI,BI,706.0,6389.0,6389.0,mugina,,29.1085314,-2.7542222,1,school,mapping,2014.0,13.0,14.0,50,9,0.0,0.0,50,1,0.0,0.0,50,0,0.0,0.0,1,23397,4841.436415920354,188,188,188
BDI,BI,711.0,6404.0,6404.0,mugu,,29.6887,-4.1662,3,school,mapping,2014.0,12.0,14.0,50,1,0.0,0.0,50,2,0.0,0.0,50,1,0.0,0.0,1,23497,2376.835580017149,189,189,189
BDI,BI,707.0,6393.0,6393.0,muhagaze,,29.5094444,-3.2197222,1,school,mapping,2014.0,13.0,14.0,50,0,0.0,0.0,50,25,0.0,0.02,50,8,0.0,0.0,1,23420,0.0,190,190,191
BDI,BI,707.0,6393.0,6393.0,muhagaze,10370.0,29.5094444,-3.2197222,1,,,2014.0,,,50,0,,,50,29,,,50,8,,,1,2199,0.0,191,191,190
BDI,BI,709.0,6396.0,6396.0,muhanga iii,,29.8325852,-3.0279801,3,school,mapping,2014.0,12.0,16.0,50,6,0.0,0.0,50,21,0.0,0.1,50,6,0.0,0.0,1,23441,0.0,192,192,193
BDI,BI,709.0,6396.0,6396.0,muhanga iii,10217.0,29.8325852,-3.0279801,3,,,2014.0,,,50,6,,,50,21,,,50,7,,,1,18598,0.0,193,193,192
BDI,BI,701.0,6375.0,6375.0,muhanza,,29.3063,-3.0201,3,school,mapping,2014.0,13.0,16.0,50,1,0.0,0.0,50,2,0.0,0.0,50,0,0.0,0.0,1,23203,5404.173381260157,194,194,194
BDI,BI,705.0,6386.0,6386.0,muhweza,,30.616667,-3.133333,1,school,mapping,2014.0,13.0,14.0,50,5,0.0,0.0,50,0,0.0,0.0,50,0,0.0,0.0,1,23366,0.0,195,195,196
BDI,BI,705.0,6386.0,6386.0,muhweza,,30.616667,-3.133333,1,school,sentinel site,2008.0,6.0,18.0,300,67,0.0,0.0,300,26,0.0,0.0,300,4,0.0,0.0,1,23363,0.0,196,196,195
BDI,BI,705.0,6386.0,6386.0,muhweza,,30.616667,-3.133333,1,school,sentinel site,2009.0,6.0,18.0,362,21,0.0,0.0,362,8,0.0,0.0,362,3,0.0,0.0,1,23364,0.0,197,197,195
BDI,BI,707.0,6390.0,6390.0,mungwa,,29.8818,-3.45176,3,,,2007.0,10.0,16.0,60,20,,,60,36,,,60,25,,,1,31275,4748.2258111090805,198,198,198
BDI,BI,706.0,6388.0,6388.0,munyika i,,29.8041667,-4.1558333,1,school,mapping,2014.0,13.0,14.0,50,4,0.0,0.0,50,1,0.0,0.0,50,0,0.0,0.0,1,23391,0.0,199,199,200
BDI,BI,706.0,6388.0,6388.0,munyika i,10211.0,29.8041667,-4.1558333,1,,,2014.0,,,47,4,,,47,1,,,47,0,,,1,18553,0.0,200,200,199
BDI,BI,706.0,6388.0,6388.0,munyika ii,,29.8041667,-4.1558333,1,school,mapping,2014.0,13.0,14.0,50,5,0.0,0.0,50,2,0.0,0.04,50,6,0.0,0.0,1,23392,0.0,201,201,199
BDI,BI,706.0,6388.0,6388.0,munyika ii,10212.0,29.8041667,-4.1558333,1,,,2014.0,,,50,6,,,50,2,,,50,6,,,1,2187,0.0,202,202,199
BDI,BI,717.0,6418.0,6418.0,munyinya i,,30.3088889,-3.3063889,1,school,mapping,2014.0,12.0,15.0,50,2,0.0,0.0,50,2,0.0,0.0,50,0,0.0,0.0,1,23615,0.0,203,203,204
BDI,BI,710.0,6399.0,6399.0,munyinya i,10194.0,30.3088889,-3.3063889,1,,,2014.0,,,50,3,,,50,10,,,50,1,,,1,18614,0.0,204,204,203
BDI,BI,710.0,6400.0,6400.0,munzenze,,30.1037,-2.557,1,school,mapping,2014.0,12.0,15.0,50,1,0.0,0.0,50,0,0.0,0.0,50,1,0.0,0.0,1,23464,3214.448270995756,205,205,205
BDI,BI,715.0,6412.0,6412.0,murama,,29.77088889,-2.809,3,school,mapping,2014.0,13.0,14.0,50,3,0.0,0.0,50,11,0.0,0.06,50,1,0.0,0.0,1,23560,0.0,206,206,207
BDI,BI,715.0,6412.0,6412.0,murama,,29.77088889,-2.809,3,school,mapping,2016.0,13.0,15.0,50,1,0.0,0.0,50,1,0.0,0.0,50,2,0.0,0.0,1,23561,0.0,207,207,206
BDI,BI,717.0,6418.0,6418.0,muramba,,30.23444675,-3.616279083,3,school,mapping,2014.0,12.0,15.0,50,5,0.0,0.0,50,2,0.0,0.0,50,0,0.0,0.0,1,23616,8399.014771269613,208,208,208
BDI,BI,712.0,6406.0,6406.0,muramvya iii,,29.6290353,-3.2679435,3,school,mapping,2014.0,12.0,16.0,50,5,0.0,0.0,50,3,0.0,0.0,50,0,0.0,0.0,1,23512,6252.036437021245,209,209,209
BDI,BI,717.0,6418.0,6418.0,murangara,,30.51871,-3.502,1,school,mapping,2014.0,12.0,15.0,50,8,0.0,0.0,50,1,0.0,0.0,50,1,0.0,0.0,1,23617,13849.263357702099,210,210,210
BDI,BI,704.0,6384.0,6384.0,murango,,29.667601,-3.74238,3,,,2007.0,10.0,16.0,60,3,,,60,3,,,60,2,,,1,31266,3310.906824676811,211,211,211
BDI,BI,717.0,6418.0,6418.0,mureba,,30.325,-3.5303,3,school,mapping,2014.0,12.0,15.0,50,2,0.0,0.0,50,0,0.0,0.0,50,0,0.0,0.0,1,23618,8019.0449972448205,212,212,212
BDI,BI,705.0,6386.0,6386.0,murehe,,30.5327,-3.2948,3,school,mapping,2014.0,13.0,14.0,50,0,0.0,0.0,50,8,0.0,0.0,50,0,0.0,0.0,1,23367,0.0,213,213,214
BDI,BI,705.0,6386.0,6386.0,murehe,10204.0,30.5327,-3.2948,3,,,2014.0,,,50,0,,,50,9,,,50,0,,,1,2179,0.0,214,214,213
BDI,BI,715.0,6413.0,6413.0,murehe i,,30.02494444,-2.736333333,3,school,mapping,2016.0,13.0,15.0,50,3,0.0,0.0,50,7,0.0,0.0,50,1,0.0,0.0,1,23572,6818.45749691009,215,215,215
BDI,BI,707.0,6390.0,6390.0,muremera,,29.9,-3.333333,2,school,mapping,2014.0,13.0,14.0,50,5,0.0,0.0,50,17,0.0,0.02,50,9,0.0,0.0,1,23401,0.0,216,216,217
BDI,BI,707.0,6390.0,6390.0,muremera,10231.0,29.9,-3.333333,2,,,2014.0,,,50,5,,,50,18,,,50,9,,,1,18568,0.0,217,217,216
BDI,BI,701.0,6376.0,6376.0,murira,10299.0,29.3264765,-3.1817359,3,,,2014.0,,,50,0,,,50,2,,,50,0,,,1,2147,2155.694224417043,218,218,218
BDI,BI,710.0,6402.0,6402.0,murungurira,50203.0,30.0961296,-2.5848378,1,,,2007.0,,,60,7,,,60,1,,,60,1,,,1,2131,3214.448270995756,219,219,219
BDI,BI,703.0,6382.0,6382.0,musaga ii,,29.3763463,-3.4128068,4,school,mapping,2014.0,12.0,14.0,50,0,0.0,0.0,50,0,0.0,0.0,50,2,0.0,0.0,1,23265,0.0,220,220,221
BDI,BI,703.0,6382.0,6382.0,musaga ii,10184.0,29.3763463,-3.4128068,4,,,2014.0,,,50,0,,,50,0,,,50,0,,,1,18522,0.0,221,221,220
BDI,BI,713.0,6409.0,6409.0,musenga,,30.34222222,-2.921388889,3,school,mapping,2014.0,13.0,14.0,50,7,0.0,0.0,50,2,0.0,0.0,50,2,0.0,0.0,1,23531,0.0,222,222,223
BDI,BI,713.0,6409.0,6409.0,musenga,,30.34222222,-2.921388889,3,school,sentinel site,2008.0,6.0,20.0,300,63,0.0,0.0,300,55,0.0,0.0,300,27,0.0,0.0,1,23528,0.0,223,223,222
BDI,BI,713.0,6409.0,6409.0,musenga,,30.34222222,-2.921388889,3,school,sentinel site,2011.0,6.0,18.0,437,72,0.0,0.0,437,28,0.0,0.0,437,19,0.0,0.0,1,23530,0.0,224,224,222
BDI,BI,713.0,6409.0,6409.0,musenga,,30.34222222,-2.921388889,3,school,sentinel site,2009.0,5.0,18.0,307,56,0.0,0.0,307,14,0.0,0.0,307,8,0.0,0.0,1,23529,0.0,225,225,222
BDI,BI,704.0,6383.0,6383.0,musenyi,,29.40444444,-3.195833333,4,school,mapping,2007.0,10.0,16.0,60,7,0.0,0.0,60,4,0.0,0.0,60,0,0.0,0.0,1,23283,0.0,226,226,34
BDI,BI,701.0,6376.0,6376.0,musenyi,,29.40444444,-3.195833333,3,school,sentinel site,2009.0,6.0,18.0,385,22,0.0,0.0,385,25,0.0,0.0,385,0,0.0,0.0,1,23216,0.0,227,227,34
BDI,BI,701.0,6376.0,6376.0,musenyi,,29.40444444,-3.195833333,3,school,sentinel site,2011.0,4.0,17.0,370,32,0.0,0.0,370,4,0.0,0.0,370,4,0.0,0.0,1,23218,0.0,228,228,34
BDI,BI,701.0,6376.0,6376.0,musenyi,,29.40444444,-3.195833333,3,school,sentinel site,2008.0,6.0,18.0,243,35,0.0,0.0,243,2,0.0,0.0,243,3,0.0,0.0,1,23215,0.0,229,229,34
BDI,BI,701.0,6376.0,6376.0,musenyi,,29.40444444,-3.195833333,3,school,sentinel site,2010.0,6.0,20.0,387,40,0.0,0.0,387,3,0.0,0.0,387,9,0.0,0.0,1,23217,0.0,230,230,34
BDI,BI,705.0,6386.0,6386.0,musenyi,,30.02911,-2.949275,1,,,2007.0,10.0,16.0,60,7,,,60,4,,,60,0,,,1,31282,3074.8277582063156,231,231,231
BDI,BI,701.0,6376.0,6376.0,musenyi i,,29.40444444,-3.195833333,3,school,mapping,2014.0,12.0,16.0,50,1,0.0,0.0,50,0,0.0,0.0,50,1,0.0,0.0,1,23219,0.0,232,232,34
BDI,BI,715.0,6412.0,6412.0,mushitsi i,,29.80519444,-2.857916667,3,school,mapping,2016.0,12.0,15.0,50,0,0.0,0.0,50,5,0.0,0.0,50,9,0.0,0.0,1,23563,4235.785864310621,233,233,233
BDI,BI,704.0,6384.0,6384.0,musho,,29.5528,-3.7267,3,school,mapping,2014.0,12.0,16.0,50,1,0.0,0.0,50,7,0.0,0.0,50,1,0.0,0.0,1,23328,3838.3078047523563,234,234,234
BDI,BI,701.0,6375.0,6375.0,musigati i,,29.4614578,-3.0684445,1,school,mapping,2014.0,13.0,14.0,50,4,0.0,0.0,50,3,0.0,0.0,50,0,0.0,0.0,1,23204,4530.6794564342445,235,235,235
BDI,BI,707.0,6390.0,6390.0,musinzira,10232.0,29.9334776,-3.4279647,3,,,2014.0,,,50,0,,,50,3,,,50,3,,,1,2191,2842.4146262734203,236,236,236
BDI,BI,712.0,6405.0,6405.0,musongati,,29.6519444,-3.3733333,1,school,mapping,2014.0,12.0,16.0,50,0,0.0,0.0,50,11,0.0,0.0,50,0,0.0,0.0,1,23506,3795.0823947951053,237,237,237
BDI,BI,703.0,6380.0,6380.0,mutanga  sud,10175.0,29.3915246,-3.380529,3,,,2014.0,,,50,4,,,50,0,,,50,3,,,1,18509,2096.66768464805,238,238,238
BDI,BI,707.0,6392.0,6392.0,mutoyi i,,29.9786581,-3.2138714,3,school,mapping,2014.0,13.0,14.0,50,3,0.0,0.0,50,15,0.0,0.02,50,2,0.0,0.0,1,23416,6852.409454899716,239,239,239
BDI,BI,716.0,6415.0,6415.0,mutwana,,30.1837,-3.672,1,school,mapping,2014.0,13.0,14.0,50,4,0.0,0.0,50,0,0.0,0.0,50,0,0.0,0.0,1,23593,8399.014771269613,240,240,240
BDI,BI,711.0,6404.0,6404.0,mutwazi ii,,29.7409,-4.3168,3,school,mapping,2014.0,12.0,16.0,50,2,0.0,0.0,50,0,0.0,0.0,50,0,0.0,0.0,1,23499,3256.905978465466,241,241,241
BDI,BI,716.0,6415.0,6415.0,muzye i,,30.115,-3.9669444,1,school,mapping,2014.0,13.0,14.0,50,10,0.0,0.0,50,2,0.0,0.0,50,1,0.0,0.0,1,23597,0.0,242,242,243
BDI,BI,716.0,6415.0,6415.0,muzye i,10227.0,30.115,-3.9669444,1,,,2014.0,,,50,9,,,50,2,,,50,1,,,1,2242,0.0,243,243,242
BDI,BI,711.0,6404.0,6404.0,mvugo,,29.5694893,-4.2932228,1,,,2007.0,10.0,16.0,54,8,,,54,0,,,54,0,,,1,31273,8588.552491929855,244,244,244
BDI,BI,705.0,6387.0,6387.0,mwiruzi,,30.7809066,-3.0624478,3,school,mapping,2014.0,13.0,14.0,50,6,0.0,0.0,50,1,0.0,0.0,50,0,0.0,0.0,1,23372,6050.471538471678,245,245,245
BDI,BI,701.0,6376.0,6376.0,ndava busongo,,29.3458,-3.183,3,school,mapping,2014.0,12.0,14.0,50,6,0.0,0.0,50,2,0.0,0.0,50,0,0.0,0.0,1,23220,0.0,246,246,247
BDI,BI,701.0,6376.0,6376.0,ndava busongo,10301.0,29.3458,-3.183,3,,,2014.0,,,50,0,,,50,2,,,50,6,,,1,2148,0.0,247,247,246
BDI,BI,717.0,6417.0,6417.0,nkongwe,,30.1397522,-3.3519101,3,school,mapping,2014.0,12.0,15.0,50,0,0.0,0.0,50,25,0.0,0.02,50,5,0.0,0.0,1,23612,4799.66160264073,248,248,248
BDI,BI,713.0,6408.0,6408.0,nonwe,,30.4131,-2.5082,3,school,mapping,2014.0,13.0,14.0,50,5,0.0,0.0,50,3,0.0,0.0,50,1,0.0,0.0,1,23521,4199.7376474946495,249,249,249
BDI,BI,714.0,6411.0,6411.0,nyabihanga iii,,29.76836111,-3.459527778,3,school,mapping,2016.0,11.0,14.0,49,0,0.0,0.0,49,1,0.0,0.0,49,0,0.0,0.0,1,23550,0.0,250,250,158
BDI,BI,702.0,6379.0,6379.0,nyabisaka,,29.5726,-3.4279,3,school,mapping,2014.0,12.0,15.0,50,0,0.0,0.0,50,4,0.0,0.0,50,0,0.0,0.0,1,23242,6487.102194208706,251,251,251
BDI,BI,717.0,6419.0,6419.0,nyagutoha,,30.35362,-3.44427,3,school,mapping,2014.0,12.0,16.0,50,2,0.0,0.0,50,5,0.0,0.02,50,1,0.0,0.0,1,23625,0.0,252,252,253
BDI,BI,717.0,6419.0,6419.0,nyagutoha,10360.0,30.35362,-3.44427,3,,,2014.0,,,50,1,,,50,5,,,50,1,,,1,2255,0.0,253,253,252
BDI,BI,714.0,6410.0,6410.0,nyakigwa,,29.59647222,-3.507277778,3,school,mapping,2016.0,12.0,14.0,50,0,0.0,0.0,50,8,0.0,0.02,50,0,0.0,0.0,1,23537,7860.55828337451,254,254,254
BDI,BI,716.0,6415.0,6415.0,nyakuguma,,29.5280556,-4.1622222,1,school,mapping,2014.0,13.0,14.0,50,3,0.0,0.0,50,3,0.0,0.0,50,1,0.0,0.0,1,23598,14139.739126041943,255,255,255
BDI,BI,705.0,6386.0,6386.0,nyamashishi,,30.6390558,-3.007784,3,school,mapping,2014.0,13.0,14.0,50,0,0.0,0.0,50,0,0.0,0.0,50,0,0.0,0.0,1,23368,0.0,256,256,257
BDI,BI,705.0,6386.0,6386.0,nyamashishi,10205.0,30.6390558,-3.007784,3,,,2014.0,,,50,1,,,50,0,,,50,1,,,1,2180,0.0,257,257,256
BDI,BI,704.0,6385.0,6385.0,nyamibu,,29.3979,-3.894,3,school,mapping,2014.0,13.0,14.0,50,0,0.0,0.0,50,6,0.0,0.0,50,1,0.0,0.0,1,23359,0.0,258,258,259
BDI,BI,704.0,6385.0,6385.0,nyamibu,10350.0,29.3979,-3.894,3,,,2014.0,,,50,0,,,50,7,,,50,1,,,1,18536,0.0,259,259,258
BDI,BI,709.0,6397.0,6397.0,nyamisagara,,29.5293,-2.8604000000000003,3,school,mapping,2014.0,12.0,14.0,50,0,0.0,0.0,50,23,0.0,0.14,50,1,0.0,0.0,1,23444,3608.6998922059524,260,260,260
BDI,BI,714.0,6410.0,6410.0,nyamiyaga,,29.65252778,-3.569972222,3,school,mapping,2016.0,11.0,14.0,50,0,0.0,0.0,50,9,0.0,0.02,50,5,0.0,0.0,1,23539,3147.5723246758134,261,261,261
BDI,BI,708.0,6394.0,6394.0,nyamugari,,29.9994444,-3.5702778,1,school,mapping,2014.0,12.0,14.0,50,0,0.0,0.0,50,5,0.0,0.02,50,2,0.0,0.02,1,23427,4292.862329486974,262,262,262
BDI,BI,715.0,6412.0,6412.0,nyamurenza ii,,29.86544444,-2.825444444,3,school,mapping,2016.0,12.0,15.0,50,0,0.0,0.0,50,3,0.0,0.0,50,9,0.0,0.0,1,23565,3490.3048378452427,263,263,263
BDI,BI,717.0,6418.0,6418.0,nyamusasa,,30.39111111,-3.675555556,3,school,mapping,2014.0,12.0,16.0,50,0,0.0,0.0,50,2,0.0,0.0,50,0,0.0,0.0,1,23622,0.0,264,264,36
BDI,BI,717.0,6418.0,6418.0,nyamusasa,,30.39111111,-3.675555556,3,school,sentinel site,2009.0,6.0,16.0,372,6,0.0,0.0,372,8,0.0,0.0,372,3,0.0,0.0,1,23620,0.0,265,265,36
BDI,BI,717.0,6418.0,6418.0,nyamusasa,,30.39111111,-3.675555556,3,school,sentinel site,2008.0,6.0,18.0,300,29,0.0,0.0,300,5,0.0,0.0,300,7,0.0,0.0,1,23619,0.0,266,266,36
BDI,BI,715.0,6414.0,6414.0,nyaruntana,,29.85025,-2.943944444,3,school,mapping,2016.0,13.0,14.0,50,1,0.0,0.0,50,4,0.0,0.0,50,12,0.0,0.0,1,23589,3759.2827948311424,267,267,267
BDI,BI,709.0,6398.0,6398.0,nyarurama,,29.7223547,-3.1040813,3,school,mapping,2014.0,12.0,14.0,50,2,0.0,0.0,50,7,0.0,0.04,50,1,0.0,0.0,1,23456,8369.017915665809,268,268,268
BDI,BI,704.0,6383.0,6383.0,nyundo,,29.6708,-3.9627,3,school,mapping,2014.0,10.0,14.0,50,0,0.0,0.0,50,6,0.0,0.0,50,1,0.0,0.0,1,23296,15812.179139020991,269,269,269
BDI,BI,703.0,6381.0,6381.0,q2  1 ngagara,10181.0,29.3722343,-3.3540881,3,,,2014.0,,,50,0,,,50,0,,,50,0,,,1,18515,1417.9429591263918,270,270,270
BDI,BI,708.0,6395.0,6395.0,ramba,,30.0101,-3.139,1,school,mapping,2014.0,12.0,15.0,50,0,0.0,0.0,50,12,0.0,0.0,50,1,0.0,0.0,1,23437,0.0,271,271,272
BDI,BI,708.0,6395.0,6395.0,ramba,,30.0101,-3.139,1,school,sentinel site,2008.0,7.0,16.0,300,21,0.0,0.0,300,128,0.0033,0.0367,300,19,0.0,0.0,1,23434,0.0,272,272,271
BDI,BI,708.0,6395.0,6395.0,ramba,,30.0101,-3.139,1,school,sentinel site,2009.0,6.0,14.0,340,3,0.0,0.0,340,75,0.0,0.0176,340,12,0.0,0.0,1,23435,0.0,273,273,271
BDI,BI,708.0,6395.0,6395.0,ramba,,30.0101,-3.139,1,school,sentinel site,2011.0,6.0,17.0,463,11,0.0,0.0,463,68,0.0,0.0108,463,9,0.0,0.0,1,23436,0.0,274,274,271
BDI,BI,708.0,6395.0,6395.0,ramba,10338.0,30.0101,-3.139,1,,,2014.0,,,50,0,,,50,11,,,50,1,,,1,18590,0.0,275,275,271
BDI,BI,714.0,6410.0,6410.0,raro,,29.66588889,-3.494361111,3,school,mapping,2016.0,12.0,14.0,50,0,0.0,0.0,50,2,0.0,0.0,50,2,0.0,0.0,1,23541,7860.55828337451,276,276,276
BDI,BI,709.0,6397.0,6397.0,remera ii,,29.5844311,-2.978015,3,school,mapping,2014.0,12.0,14.0,50,0,0.0,0.0,50,22,0.0,0.0,50,4,0.0,0.0,1,23445,1891.016908541867,277,277,277
BDI,BI,710.0,6400.0,6400.0,rubuga ii,,30.0408121,-2.3813142,3,school,mapping,2014.0,13.0,14.0,50,2,0.0,0.0,50,2,0.0,0.0,50,0,0.0,0.0,1,23465,11293.408004749841,278,278,278
BDI,BI,712.0,6405.0,6405.0,rubumba,,29.6519,-3.3393,3,school,mapping,2014.0,12.0,15.0,50,0,0.0,0.0,50,11,0.0,0.02,50,0,0.0,0.0,1,23507,3795.0823947951053,279,279,279
BDI,BI,710.0,6400.0,6400.0,rugasa i,,29.9949,-2.4717,3,school,mapping,2014.0,13.0,15.0,50,0,0.0,0.0,50,4,0.0,0.0,50,0,0.0,0.0,1,23466,11293.408004749841,280,280,280
BDI,BI,701.0,6376.0,6376.0,rugazi i,,29.4092119,-3.2429276,3,school,mapping,2014.0,12.0,15.0,50,6,0.0,0.0,50,2,0.0,0.0,50,0,0.0,0.0,1,23221,0.0,281,281,282
BDI,BI,701.0,6376.0,6376.0,rugazi i,10302.0,29.4092119,-3.2429276,3,,,2014.0,,,50,5,,,50,3,,,50,0,,,1,2146,0.0,282,282,281
BDI,BI,701.0,6376.0,6376.0,rugenge,,30.3947222,-3.5122222,1,,,2007.0,10.0,16.0,60,31,,,60,5,,,60,1,,,1,31280,8019.0449972448205,283,283,283
BDI,BI,705.0,6387.0,6387.0,ruhehe,,30.783333,-3.116667,1,school,mapping,2014.0,13.0,14.0,50,7,0.0,0.0,50,0,0.0,0.0,50,0,0.0,0.0,1,23373,6050.471538471678,284,284,284
BDI,BI,709.0,6397.0,6397.0,ruhinga,,29.5,-3.666667,1,school,mapping,2014.0,12.0,14.0,50,0,0.0,0.0,50,25,0.0,0.04,50,2,0.0,0.0,1,23446,8910.320730797412,285,285,285
BDI,BI,704.0,6385.0,6385.0,rukinga i,,29.44083333,-3.964166667,3,school,mapping,2014.0,12.0,14.0,50,3,0.0,0.0,50,3,0.0,0.0,50,3,0.0,0.0,1,23360,0.0,286,286,37
BDI,BI,704.0,6385.0,6385.0,rukinga i,10351.0,29.44083333,-3.964166667,3,,,2014.0,,,50,0,,,50,0,,,50,0,,,1,18538,0.0,287,287,37
BDI,BI,704.0,6384.0,6384.0,ruko,,29.5925594,-3.618012,3,school,mapping,2014.0,12.0,14.0,50,1,0.0,0.02,50,7,0.0,0.02,50,0,0.0,0.0,1,23334,0.0,288,288,289
BDI,BI,704.0,6384.0,6384.0,ruko,,29.5925594,-3.618012,3,school,sentinel site,2008.0,6.0,18.0,268,0,0.0,0.0,268,89,0.0,0.0784,268,10,0.0,0.0,1,23330,0.0,289,289,288
BDI,BI,704.0,6384.0,6384.0,ruko,,29.5925594,-3.618012,3,school,sentinel site,2007.0,6.0,19.0,299,2,0.0,0.0,299,68,0.0,0.0301,299,22,0.0,0.0,1,23329,0.0,290,290,288
BDI,BI,704.0,6384.0,6384.0,ruko,,29.5925594,-3.618012,3,school,sentinel site,2009.0,5.0,20.0,360,9,0.0,0.0,360,73,0.0,0.0028,360,10,0.0,0.0,1,23331,0.0,291,291,288
BDI,BI,704.0,6384.0,6384.0,ruko,,29.5925594,-3.618012,3,school,sentinel site,2010.0,5.0,18.0,360,3,0.0,0.0,360,73,0.0,0.0389,360,1,0.0,0.0,1,23332,0.0,292,292,288
BDI,BI,704.0,6384.0,6384.0,ruko,,29.5925594,-3.618012,3,school,sentinel site,2011.0,6.0,17.0,331,0,0.0,0.0,331,57,0.0,0.003,331,2,0.0,0.0,1,23333,0.0,293,293,288
BDI,BI,706.0,6389.0,6389.0,rurinzi,,29.1230716,-2.8878427,2,school,mapping,2014.0,13.0,14.0,50,1,0.0,0.0,50,20,0.0,0.0,50,0,0.0,0.0,1,23398,0.0,294,294,77
BDI,BI,710.0,6401.0,6401.0,rusara,,30.3991,-2.4732,3,school,mapping,2014.0,13.0,14.0,50,5,0.0,0.0,50,1,0.0,0.0,50,7,0.0,0.0,1,23475,0.0,295,295,296
BDI,BI,710.0,6401.0,6401.0,rusara,10308.0,30.3991,-2.4732,3,,,2014.0,,,50,5,,,50,1,,,50,6,,,1,18625,0.0,296,296,295
BDI,BI,706.0,6388.0,6388.0,rusororo,,29.1230716,-2.8878427,2,school,mapping,2014.0,13.0,14.0,50,6,0.0,0.0,50,5,0.0,0.0,50,0,0.0,0.0,1,23393,0.0,297,297,77
BDI,BI,706.0,6388.0,6388.0,rusororo,10213.0,29.1230716,-2.8878427,2,,,2014.0,,,50,5,,,50,5,,,50,0,,,1,2188,0.0,298,298,77
BDI,BI,714.0,6411.0,6411.0,rutega,,29.67741667,-3.608694444,3,school,mapping,2016.0,11.0,14.0,48,0,0.0,0.0,48,0,0.0,0.0,48,0,0.0,0.0,1,23552,5131.293897015556,299,299,299
BDI,BI,705.0,6386.0,6386.0,rutoke i,10206.0,30.6469444,-3.1752778,1,,,2014.0,,,50,7,,,50,9,,,50,0,,,1,18542,5764.404876483404,300,300,300
BDI,BI,717.0,6419.0,6419.0,ruvyagira,,29.7105556,-4.3113889,1,school,mapping,2014.0,12.0,15.0,50,6,0.0,0.0,50,16,0.02,0.04,50,9,0.0,0.0,1,23626,3431.5110904061094,301,301,301
BDI,BI,717.0,6419.0,6419.0,ruyigi i,,30.2483881,-3.4750027,3,school,mapping,2014.0,12.0,16.0,50,0,0.0,0.0,50,2,0.0,0.0,50,0,0.0,0.0,1,23627,0.0,302,302,97
BDI,BI,715.0,6413.0,6413.0,ruyumpu,,29.94705,-2.79925,3,,,2007.0,10.0,16.0,60,12,,,60,2,,,60,13,,,1,31279,0.0,303,303,304
BDI,BI,715.0,6413.0,6413.0,ruyumpu,,29.94705,-2.79925,3,school,mapping,2014.0,13.0,14.0,50,7,0.0,0.0,50,17,0.0,0.02,50,11,0.0,0.0,1,23574,0.0,304,304,303
BDI,BI,701.0,6375.0,6375.0,ruzibira,,29.41805556,-2.9847222220000003,3,school,mapping,2014.0,12.0,15.0,50,6,0.0,0.0,50,2,0.0,0.0,50,2,0.0,0.0,1,23210,0.0,305,305,38
BDI,BI,701.0,6375.0,6375.0,ruzibira,,29.41805556,-2.9847222220000003,3,school,sentinel site,2011.0,6.0,19.0,400,38,0.0,0.0,400,34,0.0,0.0025,400,13,0.0,0.0,1,23209,0.0,306,306,38
BDI,BI,701.0,6375.0,6375.0,ruzibira,,29.41805556,-2.9847222220000003,3,school,sentinel site,2008.0,6.0,21.0,281,58,0.0,0.0,281,23,0.0,0.0036,281,4,0.0,0.0,1,23206,0.0,307,307,38
BDI,BI,701.0,6375.0,6375.0,ruzibira,,29.41805556,-2.9847222220000003,3,school,sentinel site,2010.0,7.0,18.0,454,50,0.0,0.0,454,18,0.0,0.0,454,4,0.0,0.0,1,23208,0.0,308,308,38
BDI,BI,711.0,6403.0,6403.0,rweza,,29.8677778,-2.905,1,school,mapping,2014.0,12.0,16.0,50,5,0.0,0.0,50,0,0.0,0.0,50,2,0.0,0.0,1,23490,0.0,309,309,310
BDI,BI,711.0,6403.0,6403.0,rweza,10290.0,29.8677778,-2.905,1,,,2014.0,,,50,4,,,50,0,,,50,2,,,1,2221,0.0,310,310,309
BDI,BI,715.0,6413.0,6413.0,rwimbogo,,30.01280556,-2.802666667,3,school,mapping,2016.0,13.0,14.0,50,2,0.0,0.0,50,14,0.0,0.0,50,6,0.0,0.0,1,23575,5427.6856533871,311,311,311
BDI,BI,709.0,6396.0,6396.0,sakinyinya,,29.7569,-3.0094,3,school,mapping,2014.0,12.0,14.0,50,0,0.0,0.0,50,15,0.0,0.0,50,1,0.0,0.0,1,23442,7271.966750934735,312,312,312
BDI,BI,711.0,6404.0,6404.0,vugizo,,29.70861111,-4.173888889,3,school,sentinel site,2008.0,6.0,16.0,300,37,0.0,0.0,300,35,0.0,0.0067,300,23,0.0,0.0,1,23500,0.0,313,313,314
BDI,BI,711.0,6404.0,6404.0,vugizo,,29.70861111,-4.173888889,3,school,sentinel site,2011.0,5.0,20.0,502,17,0.0,0.0,502,28,0.0,0.0,502,9,0.0,0.0,1,23502,0.0,314,314,313
BDI,BI,711.0,6404.0,6404.0,vugizo,,29.70861111,-4.173888889,3,school,sentinel site,2009.0,5.0,16.0,329,30,0.0,0.0,329,16,0.0,0.0,329,16,0.0,0.0,1,23501,0.0,315,315,313
BDI,BI,713.0,6408.0,6408.0,vumasi,,30.4070345,-2.4125486,3,school,mapping,2014.0,13.0,14.0,50,4,0.0,0.0,50,0,0.0,0.0,50,5,0.0,0.02,1,23522,0.0,316,316,317
BDI,BI,713.0,6408.0,6408.0,vumasi,10239.0,30.4070345,-2.4125486,3,,,2014.0,,,50,4,,,50,0,,,50,6,,,1,2235,0.0,317,317,316
BDI,BI,710.0,6400.0,6400.0,yaranda,,30.11166667,-2.517222222,3,school,mapping,2014.0,12.0,14.0,50,19,0.0,0.0,50,0,0.0,0.0,50,0,0.0,0.0,1,23470,0.0,318,318,319
BDI,BI,710.0,6400.0,6400.0,yaranda,,30.11166667,-2.517222222,3,school,sentinel site,2011.0,6.0,19.0,398,34,0.0,0.0,398,9,0.0,0.0,398,9,0.0,0.0,1,23469,0.0,319,319,318
BDI,BI,710.0,6400.0,6400.0,yaranda,,30.11166667,-2.517222222,3,school,sentinel site,2009.0,6.0,20.0,273,28,0.0,0.0,273,0,0.0,0.0,273,10,0.0,0.0,1,23468,0.0,320,320,318
