iso3,iso2,admin1_id,admin2_id,iu_id,location,site_id,longitude,latitude,georeliability,location_type,survey_type,year,age_start,age_end,hk_examined,hk_positive,hk_perc_highinfection,hk_perc_moderateinfection,asc_examined,asc_positive,asc_perc_highinfection,asc_perc_moderateinfection,tt_examined,tt_positive,tt_perc_highinfection,tt_perc_moderateinfection,quality,sn,shortest,id,src,dst
SWZ,SZ,4682,45411,45411,all saints,16586,31.093943,-26.378803,3,,,2015.0,,,60,0,,,60,54,,,60,0,,,1,14008,5342.100284377746,0,0,0
SWZ,SZ,4684,45440,45440,antioch,16581,31.516004,-26.2694818,1,,,2015.0,,,51,0,,,51,7,,,51,0,,,1,14154,5856.291091998981,1,1,1
SWZ,SZ,4682,45412,45412,ararat,16591,31.2602,-26.2273,3,,,2015.0,,,43,0,,,43,18,,,43,4,,,1,14013,5852.2164443133215,2,2,2
SWZ,SZ,4682,45409,45409,bahai,16554,31.1565,-26.3644,3,,,2015.0,,,27,0,,,27,0,,,27,0,,,1,13996,3085.2953329562993,3,3,3
SWZ,SZ,4685,45456,45456,beersheba,16682,31.415359,-27.286119,3,,,2015.0,,,50,0,,,50,1,,,50,0,,,1,14227,4447.523553701952,4,4,4
SWZ,SZ,4684,45459,45459,bethany,16697,31.2681553,-26.4987338,1,,,2015.0,,,45,0,,,45,2,,,45,0,,,1,14091,4767.565179144596,5,5,5
SWZ,SZ,4685,45445,45445,bethel lutheran,16436,30.990077,-26.979555,3,,,2015.0,,,50,0,,,50,0,,,50,0,,,1,14178,1190.6114817121054,6,6,6
SWZ,SZ,4682,45406,45406,bhalekane nazarene,16500,31.5515621,-26.0833301,1,,,2015.0,,,49,1,,,49,0,,,49,0,,,1,13978,5762.0111075103105,7,7,7
SWZ,SZ,4685,45446,45446,bhejisa,16450,31.554413,-27.218813,3,,,2015.0,,,50,0,,,50,0,,,50,0,,,1,14181,3997.0942493288735,8,8,8
SWZ,SZ,4682,45411,45411,bhekephi,16587,31.085558,-26.421126,3,,,2015.0,,,50,0,,,50,1,,,50,0,,,1,14007,5342.100284377746,9,9,9
SWZ,SZ,4684,45430,45430,bhekinkhosi nazarene,16431,31.4229575,-26.3333437,1,,,2015.0,,,48,0,,,48,0,,,48,0,,,1,14105,2963.3809538206456,10,10,10
SWZ,SZ,4683,45426,45426,bholi methodist,16642,31.927981,-26.827367,3,,,2015.0,,,50,2,,,50,7,,,50,0,,,1,14082,5256.591298513259,11,11,11
SWZ,SZ,4684,45439,45439,bhunya,16565,30.9962356,-26.5380011,1,,,2015.0,,,50,0,,,50,0,,,50,0,,,1,14149,3859.4521941941416,12,12,12
SWZ,SZ,4684,45441,45441,bugeleni,16607,31.4158016,-26.5465245,1,,,2015.0,,,50,0,,,50,0,,,50,0,,,1,14157,4145.9154886867045,13,13,13
SWZ,SZ,4682,45406,45406,buhlebuyeza/mabhibha,16501,31.601476,-26.095638,3,,,2015.0,,,49,0,,,49,1,,,49,0,,,1,13982,5762.0111075103105,14,14,14
SWZ,SZ,4684,45441,45441,bulunga,16608,31.553988,-26.617029,3,,,2015.0,,,50,0,,,50,0,,,50,0,,,1,14156,5900.2568977795,15,15,15
SWZ,SZ,4684,45442,45442,cana,16627,31.0026074,-26.7515205,1,,,2015.0,,,50,0,,,50,0,,,50,0,,,1,14165,691.1661058965951,16,16,16
SWZ,SZ,4682,45413,45413,cetjwayo,16617,31.435674,-26.007904,3,,,2015.0,,,50,0,,,50,2,,,50,0,,,1,14017,4606.523565834013,17,17,17
SWZ,SZ,4685,45458,45458,chibidze ame,16717,31.274138,-27.225917,3,,,2015.0,,,50,0,,,50,0,,,50,0,,,1,14237,3892.250812605512,18,18,18
SWZ,SZ,4684,45439,45439,dingizwe,16566,30.862597,-26.480796,3,,,2015.0,,,48,0,,,48,0,,,48,0,,,1,14147,4969.843521109234,19,19,19
SWZ,SZ,4683,45421,45421,dlakadla,16485,31.8598,-26.9658,3,,,2015.0,,,48,3,,,48,6,,,48,0,,,1,14057,7178.975675829941,20,20,20
SWZ,SZ,4682,45404,45404,dlangeni,16441,31.238,-26.3368,3,,,2015.0,,,52,1,,,52,1,,,52,1,,,1,13971,4337.316394060166,21,21,21
SWZ,SZ,4683,45426,45426,dumisa,16643,31.900448,-26.861596,3,,,2015.0,,,50,0,,,50,0,,,50,0,,,1,14081,3998.058939231866,22,22,22
SWZ,SZ,4683,45423,45423,dvumane,16534,32.090798,-26.586231,3,,,2015.0,,,56,1,,,56,10,,,56,0,,,1,14065,6578.236394290485,23,23,23
SWZ,SZ,4684,45436,45436,dwalile,16515,30.796599,-26.6614854,1,,,2015.0,,,50,0,,,50,0,,,50,0,,,1,14133,14514.135173904175,24,24,24
SWZ,SZ,4684,45435,45435,dzanyana community,16510,31.0958,-26.7453,3,,,2015.0,,,50,0,,,50,0,,,50,0,,,1,14131,9791.196832988178,25,25,25
SWZ,SZ,4685,45452,45452,ebenezer,16612,31.3769842,-26.9521579,1,,,2015.0,,,50,0,,,50,0,,,50,0,,,1,14213,4589.225456861174,26,26,26
SWZ,SZ,4685,45455,45455,edzakasini,16667,31.475721,-27.074323,3,,,2015.0,,,50,0,,,50,2,,,50,0,,,1,14222,5523.374709448413,27,27,27
SWZ,SZ,4682,45414,45414,ejubukweni community,16637,31.2026,-26.1868,3,,,2015.0,,,54,0,,,54,5,,,54,0,,,1,14022,7286.463495299989,28,28,28
SWZ,SZ,4684,45430,45430,ekukhanyeni,16432,31.399982,-26.35825,3,,,2015.0,,,50,0,,,50,0,,,50,0,,,1,14108,4014.192083637103,29,29,29
SWZ,SZ,4684,45435,45435,ekuphakameni,16511,31.2759955,-26.822422,3,,,2015.0,,,50,0,,,50,1,,,50,0,,,1,14129,1830.332401838989,30,30,30
SWZ,SZ,4685,45447,45447,ekuphakameni,16455,31.3986337,-26.839621,1,,,2015.0,,,50,0,,,50,0,,,50,0,,,1,14186,5550.2548154643655,31,31,31
SWZ,SZ,4685,45458,45458,ekuthuleni,16718,31.301585,-27.140007,3,,,2015.0,,,50,0,,,50,0,,,50,0,,,1,14236,5212.594719963891,32,32,32
SWZ,SZ,4682,45405,45405,elangeni,16470,31.2107668,-26.4252458,1,,,2015.0,,,49,0,,,49,0,,,49,0,,,1,13974,3203.012092556356,33,33,33
SWZ,SZ,4683,45420,45420,emafusini nazarene,16480,32.001922,-25.998192,3,,,2015.0,,,51,0,,,51,7,,,51,0,,,1,14052,5452.807938604001,34,34,34
SWZ,SZ,4682,45417,45417,emvembili central,16712,31.40629,-25.761238,3,,,2015.0,,,50,0,,,50,0,,,50,0,,,1,14035,3625.5445608522673,35,35,35
SWZ,SZ,4682,45417,45417,endlalambi nazarene,16714,31.4586,-25.8052,3,,,2015.0,,,50,0,,,50,2,,,50,0,,,1,14033,6918.81476453003,36,36,36
SWZ,SZ,4682,45413,45413,endzingeni nazarene,16618,31.364961,-26.014341,3,,,2015.0,,,48,1,,,48,2,,,48,0,,,1,14014,3308.337632070793,37,37,37
SWZ,SZ,4685,45453,45453,engudzeni,16623,31.5501206,-27.033,1,,,2015.0,,,51,0,,,51,0,,,51,0,,,1,14215,3811.011512597762,38,38,38
SWZ,SZ,4684,45432,45432,engwenyameni,16465,31.1312,-26.552862,3,,,2015.0,,,49,0,,,49,0,,,49,0,,,1,14116,5313.346421104536,39,39,39
SWZ,SZ,4685,45455,45455,enhletjeni,16668,31.3950788,-27.0430733,1,,,2015.0,,,49,0,,,49,0,,,49,0,,,1,14224,4267.566507958543,40,40,40
SWZ,SZ,4684,45438,45438,enjabulweni,16525,31.5851,-26.4928,3,,,2015.0,,,49,0,,,49,0,,,49,0,,,1,14143,4104.297658283426,41,41,41
SWZ,SZ,4685,45451,45451,ensongweni,16677,31.222378,-27.077149,3,,,2015.0,,,50,0,,,50,0,,,50,0,,,1,14207,6052.471350495301,42,42,42
SWZ,SZ,4682,45415,45415,entfonjeni,16652,31.3392343,-25.8397129,1,,,2015.0,,,50,0,,,50,4,,,50,0,,,1,14025,3297.672647676424,43,43,43
SWZ,SZ,4682,45404,45404,entfubeni,16442,31.2272,-26.2849,3,,,2015.0,,,51,0,,,51,3,,,51,0,,,1,13972,6556.358940613944,44,44,44
SWZ,SZ,4685,45453,45453,entjanini,16624,31.565045,-27.075989,3,,,2015.0,,,48,0,,,48,0,,,48,0,,,1,14214,4875.441465672,45,45,45
SWZ,SZ,4682,45410,45410,entsinini,16571,31.584769,-25.885741,3,,,2015.0,,,51,1,,,51,1,,,51,0,,,1,14001,1699.991298775554,46,46,46
SWZ,SZ,4682,45408,45408,entuthukweni,16549,31.120478,-26.314397,3,,,2015.0,,,56,0,,,56,0,,,56,0,,,1,13991,1388.6205308905617,47,47,47
SWZ,SZ,4685,45458,45458,eqinisweni,16719,31.2667,-27.1678,3,,,2015.0,,,50,0,,,50,1,,,50,0,,,1,14235,2666.1992794545613,48,48,48
SWZ,SZ,4685,45445,45445,eric rosenberg,16437,30.996774,-26.997727,3,,,2015.0,,,50,0,,,50,0,,,50,0,,,1,14179,2389.4003552432414,49,49,49
SWZ,SZ,4685,45455,45455,esandleni,16669,31.430453,-27.056233,3,,,2015.0,,,51,0,,,51,0,,,51,0,,,1,14221,4267.566507958543,50,50,50
SWZ,SZ,4682,45411,45411,esigangeni,16588,30.99359,-26.355837,3,,,2015.0,,,50,0,,,50,2,,,50,0,,,1,14004,6537.208454587895,51,51,51
SWZ,SZ,4682,45405,45405,esitjeni,16471,31.200168,-26.475914,3,,,2015.0,,,50,0,,,50,1,,,50,0,,,1,13977,2769.870946443155,52,52,52
SWZ,SZ,4684,45441,45441,ethembeni,16609,31.4829,-26.5972,3,,,2015.0,,,50,0,,,50,0,,,50,0,,,1,14159,5705.426301088338,53,53,53
SWZ,SZ,4685,45448,45448,etjeni,16707,31.832536,-27.139309,3,,,2015.0,,,50,0,,,50,0,,,50,0,,,1,14191,3664.259482689946,54,54,54
SWZ,SZ,4685,45448,45448,ezindwendweni,16708,31.8120976,-27.1163449,1,,,2015.0,,,49,0,,,49,0,,,49,0,,,1,14194,3664.259482689946,55,55,55
SWZ,SZ,4682,45405,45405,ezulwini community,16472,31.1895025,-26.4009947,1,,,2015.0,,,53,0,,,53,1,,,53,0,,,1,13973,3832.64927900105,56,56,56
SWZ,SZ,4682,45414,45414,forbes reef,16638,31.107941,-26.1667,1,,,2015.0,,,51,0,,,51,2,,,51,0,,,1,14020,6224.187840681043,57,57,57
SWZ,SZ,4685,45456,45456,franson christian,16683,31.393937,-27.185185,3,,,2015.0,,,50,0,,,50,0,,,50,0,,,1,14226,5654.359968503269,58,58,58
SWZ,SZ,4685,45445,45445,gege methodist,16438,30.9991032,-26.9744417,1,,,2015.0,,,50,0,,,50,0,,,50,0,,,1,14180,1190.6114817121054,59,59,59
SWZ,SZ,4682,45407,45407,gijimani,16544,31.479524,-25.87808,3,,,2015.0,,,50,0,,,50,0,,,50,0,,,1,13985,3080.5140065742494,60,60,60
SWZ,SZ,4683,45422,45422,good sheperd,16495,31.9606734,-26.4692189,1,,,2015.0,,,57,0,,,57,0,,,57,0,,,1,14059,6054.003744573217,61,61,61
SWZ,SZ,4683,45429,45429,gucuka/st lorretta,16702,31.6630714,-26.8034577,1,,,2015.0,,,51,2,,,51,6,,,51,0,,,1,14101,10310.651366827451,62,62,62
SWZ,SZ,4684,45441,45441,gundvwini,16610,31.4474315,-26.5641128,1,,,2015.0,,,50,0,,,50,0,,,50,0,,,1,14160,4145.9154886867045,63,63,63
SWZ,SZ,4682,45415,45415,hhelehhele nazarene,16653,31.31349,-25.826522,3,,,2015.0,,,50,0,,,50,0,,,50,0,,,1,14024,3297.672647676424,64,64,64
SWZ,SZ,4682,45415,45415,hhohho ame,16654,31.347381,-25.813761,3,,,2015.0,,,50,0,,,50,1,,,50,0,,,1,14026,3335.199732819372,65,65,65
SWZ,SZ,4683,45419,45419,hlane/dlalisile,16445,31.718447,-26.252119,3,,,2015.0,,,49,0,,,49,6,,,49,0,,,1,14043,3712.931649647021,66,66,66
SWZ,SZ,4685,45457,45457,hlushwana/mpakeni,16687,31.636994,-27.200758,3,,,2015.0,,,50,0,,,50,0,,,50,0,,,1,14232,4167.256540833468,67,67,67
SWZ,SZ,4683,45427,45427,hlutse,16692,31.68333,-26.6773812,1,,,2015.0,,,50,0,,,50,0,,,50,0,,,1,14088,0.0,68,68,209
SWZ,SZ,4685,45446,45446,hosea,16451,31.508463,-27.159536,3,,,2015.0,,,50,0,,,50,0,,,50,0,,,1,14184,5707.272001463606,69,69,69
SWZ,SZ,4685,45449,45449,joppa,16529,31.135099,-27.129616,3,,,2015.0,,,50,0,,,50,0,,,50,0,,,1,14199,1514.154237137271,70,70,70
SWZ,SZ,4684,45439,45439,ka zondwako,16567,30.9618,-26.5344,3,,,2015.0,,,47,0,,,47,0,,,47,0,,,1,14150,3859.4521941941416,71,71,71
SWZ,SZ,4684,45434,45434,kabhudla,16505,31.594158,-26.460809,3,,,2015.0,,,49,0,,,49,6,,,49,0,,,1,14126,3467.0111969504983,72,72,72
SWZ,SZ,4684,45432,45432,kaluhleko,16466,31.0785,-26.5267,3,,,2015.0,,,50,0,,,50,3,,,50,0,,,1,14118,4790.813294244298,73,73,73
SWZ,SZ,4685,45447,45447,kambhoke/st anthony's,16456,31.502987,-26.923718,3,,,2015.0,,,50,0,,,50,0,,,50,0,,,1,14189,10055.476312451463,74,74,74
SWZ,SZ,4685,45455,45455,kamzila/kambhebha,16670,31.5190679,-27.0458383,1,,,2015.0,,,50,0,,,50,0,,,50,0,,,1,14225,3811.011512597762,75,75,75
SWZ,SZ,4682,45408,45408,kaschiele/mbabane lutheran,16550,31.1366715,-26.3054482,1,,,2015.0,,,49,0,,,49,12,,,49,0,,,1,13990,0.0,76,76,143
SWZ,SZ,4684,45444,45444,khalangilile,16658,31.18463,-26.599973,3,,,2015.0,,,50,0,,,50,8,,,50,0,,,1,14173,2884.2127971863124,77,77,77
SWZ,SZ,4682,45412,45412,kuhlahla,16593,31.277821,-26.125641,3,,,2015.0,,,49,0,,,49,0,,,49,5,,,1,14012,11298.122254736381,78,78,78
SWZ,SZ,4683,45429,45429,kukhanyeni,16703,31.565697,-26.834997,3,,,2015.0,,,50,1,,,50,9,,,50,0,,,1,14102,6504.525410078393,79,79,79
SWZ,SZ,4684,45432,45432,kuthokozeni,16467,31.045805,-26.612061,3,,,2015.0,,,50,0,,,50,1,,,50,0,,,1,14119,5304.676502645809,80,80,80
SWZ,SZ,4684,45431,45431,kwaluseni infant,16460,31.3484448,-26.4820262,1,,,2015.0,,,50,0,,,50,5,,,50,0,,,1,14113,0.0,81,81,147
SWZ,SZ,4685,45447,45447,lamdladla,16457,31.482195,-26.796099,3,,,2015.0,,,49,0,,,49,0,,,49,0,,,1,14190,5575.842564249985,82,82,82
SWZ,SZ,4682,45404,45404,lamgabhi/siliya,16444,31.2337,-26.3715,3,,,2015.0,,,50,0,,,50,8,,,50,0,,,1,13970,4337.316394060166,83,83,83
SWZ,SZ,4685,45447,45447,latsamela,16458,31.47937,-26.840729,3,,,2015.0,,,50,0,,,50,1,,,50,0,,,1,14187,5575.842564249985,84,84,84
SWZ,SZ,4685,45448,45448,lavumisa,16709,31.8875679,-27.3102566,1,,,2015.0,,,50,0,,,50,0,,,50,0,,,1,14193,491.15272532915697,85,85,85
SWZ,SZ,4682,45405,45405,lobamba national,16473,31.2046807,-26.4540087,1,,,2015.0,,,60,0,,,60,9,,,60,9,,,1,13976,562.8665549660119,86,86,86
SWZ,SZ,4684,45437,45437,lomadvokola,16520,31.360571,-26.449918,3,,,2015.0,,,50,0,,,50,0,,,50,0,,,1,14140,4214.723662961149,87,87,87
SWZ,SZ,4684,45433,45433,lomngeletjane,16490,31.342252,-26.388233,3,,,2015.0,,,50,0,,,50,0,,,50,0,,,1,14122,7428.220712464401,88,88,88
SWZ,SZ,4684,45441,45441,lomveshe,16611,31.516789,-26.650779,3,,,2015.0,,,50,0,,,50,3,,,50,0,,,1,14158,5900.2568977795,89,89,89
SWZ,SZ,4683,45423,45423,loyiwe,16535,31.987713,-26.614683,3,,,2015.0,,,58,2,,,58,3,,,58,0,,,1,14066,7686.892312309736,90,90,90
SWZ,SZ,4683,45421,45421,lubulini catholic,16486,31.905496,-27.01827,3,,,2015.0,,,51,0,,,51,2,,,51,0,,,1,14055,8297.211582037631,91,91,91
SWZ,SZ,4684,45433,45433,ludzeludze,16491,31.2996304,-26.460205,1,,,2015.0,,,47,0,,,47,0,,,47,0,,,1,14120,3058.836545512595,92,92,92
SWZ,SZ,4682,45407,45407,lugongoglwane,16545,31.466,-25.8998,3,,,2015.0,,,50,0,,,50,4,,,50,0,,,1,13986,3080.5140065742494,93,93,93
SWZ,SZ,4682,45416,45416,luhhumaneni,16662,31.1606,-26.0384,3,,,2015.0,,,50,0,,,50,1,,,50,0,,,1,14029,4633.326523281839,94,94,94
SWZ,SZ,4682,45416,45416,luhlangotsini,16663,31.2271,-26.0284,3,,,2015.0,,,50,1,,,50,3,,,50,0,,,1,14028,4602.86977228242,95,95,95
SWZ,SZ,4684,45434,45434,luhlokohla,16506,31.4819,-26.4954,3,,,2015.0,,,50,0,,,50,0,,,50,0,,,1,14127,4535.1981685335095,96,96,96
SWZ,SZ,4685,45457,45457,lulakeni,16689,31.635,-27.069,3,,,2015.0,,,50,0,,,50,0,,,50,0,,,1,14231,5166.586941728633,97,97,97
SWZ,SZ,4684,45439,45439,lundzi,16568,30.895774,-26.360542,3,,,2015.0,,,50,0,,,50,0,,,50,0,,,1,14152,10623.404593859557,98,98,98
SWZ,SZ,4683,45424,45424,lusoti,16576,31.9245388,-26.2066805,1,,,2015.0,,,52,0,,,52,0,,,52,0,,,1,14069,10231.697205453718,99,99,99
SWZ,SZ,4683,45418,45418,mabondvweni,16427,31.66824,-26.537636,3,,,2015.0,,,51,0,,,51,13,,,51,0,,,1,14042,6528.1929528102855,100,100,100
SWZ,SZ,4683,45427,45427,madlenya,16693,31.714316,-26.731607,3,,,2015.0,,,51,0,,,51,3,,,51,0,,,1,14085,7586.619599861326,101,101,101
SWZ,SZ,4683,45429,45429,madubeni,16704,31.674811,-26.885432,3,,,2015.0,,,48,0,,,48,0,,,48,0,,,1,14104,7806.96004603694,102,102,102
SWZ,SZ,4685,45451,45451,madulini,16561,31.2166667,-27.0166667,1,,,2015.0,,,50,0,,,50,4,,,50,0,,,1,14208,7586.308690964158,103,103,103
SWZ,SZ,4683,45424,45424,mafucula/nokwane,16577,31.9362,-26.0672,3,,,2015.0,,,50,1,,,50,2,,,50,0,,,1,14072,6147.941678781378,104,104,104
SWZ,SZ,4684,45434,45434,mafutseni nazarene,16507,31.58391,-26.417015,3,,,2015.0,,,49,0,,,49,1,,,49,0,,,1,14125,137.3252286761279,105,105,105
SWZ,SZ,4684,45434,45434,mafutseni roman catholic,16508,31.5835581,-26.4159561,1,,,2015.0,,,50,0,,,50,0,,,50,0,,,1,14123,0.0,106,106,107
SWZ,SZ,4684,45436,45436,mafutseni west,16516,31.5835581,-26.4159561,1,,,2015.0,,,52,0,,,52,0,,,52,0,,,1,14134,0.0,107,107,106
SWZ,SZ,4684,45435,45435,magojela,16512,31.0781,-26.8683,4,,,2015.0,,,50,0,,,50,1,,,50,0,,,1,14130,5809.914858218221,108,108,108
SWZ,SZ,4685,45445,45445,magubheleni,16439,30.9918891,-26.8733052,1,,,2015.0,,,54,0,,,54,1,,,54,0,,,1,14177,9617.25861858882,109,109,109
SWZ,SZ,4685,45449,45449,mahamba,16530,31.083333,-27.1,1,,,2015.0,,,50,0,,,50,0,,,50,0,,,1,14196,5622.794777276438,110,110,110
SWZ,SZ,4685,45453,45453,mahhoshe,16625,31.571362,-26.976336,3,,,2015.0,,,50,0,,,50,0,,,50,0,,,1,14217,7464.152616649994,111,111,111
SWZ,SZ,4685,45449,45449,mahlandle,16531,31.1214984,-27.12945,1,,,2015.0,,,51,0,,,51,0,,,51,0,,,1,14200,1514.154237137271,112,112,112
SWZ,SZ,4684,45459,45459,mahlanya community,16698,31.2260266,-26.4918367,1,,,2015.0,,,35,0,,,35,4,,,35,0,,,1,14093,3493.9689107293943,113,113,113
SWZ,SZ,4683,45420,45420,majembeni,16481,32.04432,-26.113353,3,,,2015.0,,,50,0,,,50,0,,,50,0,,,1,14050,1987.487422065735,114,114,114
SWZ,SZ,4683,45426,45426,majombe,16644,31.957484,-26.723112,3,,,2015.0,,,49,3,,,49,9,,,49,1,,,1,14080,10389.581392064141,115,115,115
SWZ,SZ,4685,45449,45449,makhonza,16532,31.253171,-27.185382,3,,,2015.0,,,50,0,,,50,1,,,50,0,,,1,14198,2666.1992794545613,116,116,116
SWZ,SZ,4684,45444,45444,makhungutja,16659,31.261566,-26.634735,3,,,2015.0,,,50,0,,,50,1,,,50,0,,,1,14175,9596.117862916213,117,117,117
SWZ,SZ,4684,45430,45430,maliyaduma,16433,31.4090522,-26.4464587,1,,,2015.0,,,50,0,,,50,0,,,50,0,,,1,14109,5414.013790390925,118,118,118
SWZ,SZ,4683,45429,45429,maloyi central,16705,31.6011748,-26.8821805,1,,,2015.0,,,50,0,,,50,0,,,50,0,,,1,14103,6626.769858625089,119,119,119
SWZ,SZ,4683,45423,45423,mambane,16536,32.040408,-26.76136,3,,,2015.0,,,50,0,,,50,0,,,50,0,,,1,14067,10389.581392064141,120,120,120
SWZ,SZ,4685,45454,45454,mandulo,16647,31.290613,-26.82914,3,,,2015.0,,,51,0,,,51,1,,,51,0,,,1,14219,1830.332401838989,121,121,121
SWZ,SZ,4684,45436,45436,mangcongco,16517,30.8713136,-26.5659546,1,,,2015.0,,,50,0,,,50,0,,,50,0,,,1,14135,10639.24363637256,122,122,122
SWZ,SZ,4682,45409,45409,mangwaneni community,16555,31.650852,-25.926203,3,,,2015.0,,,50,0,,,50,6,,,50,2,,,1,13994,4086.412756885022,123,123,123
SWZ,SZ,4685,45456,45456,mantambe,16684,31.4374,-27.2565,3,,,2015.0,,,50,0,,,50,0,,,50,0,,,1,14230,3238.292566266987,124,124,124
SWZ,SZ,4685,45456,45456,manyandeni,16685,31.460766,-27.271903,3,,,2015.0,,,50,0,,,50,0,,,50,0,,,1,14228,3238.292566266987,125,125,125
SWZ,SZ,4683,45418,45418,manyeveni nazarene,16428,31.7612541,-26.4473506,1,,,2015.0,,,50,0,,,50,0,,,50,0,,,1,14041,10393.185324558177,126,126,126
SWZ,SZ,4683,45426,45426,manyonyaneni,16645,31.926957,-26.883211,3,,,2015.0,,,50,0,,,50,0,,,50,0,,,1,14084,3998.058939231866,127,127,127
SWZ,SZ,4682,45406,45406,manzana nazarene,16502,31.652031,-26.134015,3,,,2015.0,,,60,0,,,60,11,,,60,7,,,1,13979,3375.1763485712318,128,128,128
SWZ,SZ,4684,45437,45437,manzini central,16521,31.3771113,-26.4873638,1,,,2015.0,,,50,0,,,50,4,,,50,0,,,1,14141,171.90513362180505,129,129,129
SWZ,SZ,4684,45438,45438,manzini nazarene,16526,31.3713164,-26.5081999,1,,,2015.0,,,50,0,,,50,0,,,50,0,,,1,14145,0.0,130,130,139
SWZ,SZ,4684,45437,45437,manzini practising,16522,31.3761028,-26.4884105,1,,,2015.0,,,50,0,,,50,0,,,50,0,,,1,14138,171.90513362180505,131,131,131
SWZ,SZ,4682,45412,45412,maphalaleni anglican,16595,31.3116,-26.2174,3,,,2015.0,,,50,0,,,50,10,,,50,0,,,1,14011,5852.2164443133215,132,132,132
SWZ,SZ,4685,45445,45445,mashobeni,16440,31.0935396,-27.0118549,1,,,2015.0,,,50,0,,,50,0,,,50,0,,,1,14176,10915.566666459474,133,133,133
SWZ,SZ,4682,45417,45417,mashobeni north,16715,31.436784,-25.743577,3,,,2015.0,,,50,0,,,50,6,,,50,35,,,1,14034,4035.8159944189806,134,134,134
SWZ,SZ,4684,45443,45443,masundvwini,16632,31.3486364,-26.5522981,1,,,2015.0,,,50,0,,,50,0,,,50,0,,,1,14166,3242.138676172291,135,135,135
SWZ,SZ,4685,45447,45447,matjana,16459,31.534438,-26.790938,3,,,2015.0,,,50,0,,,50,0,,,50,0,,,1,14188,5851.170627831451,136,136,136
SWZ,SZ,4685,45450,45450,matsanjeni,16539,31.7497544,-27.2544817,1,,,2015.0,,,50,0,,,50,10,,,50,0,,,1,14203,5577.437723755381,137,137,137
SWZ,SZ,4684,45431,45431,matsapha government,16461,31.3103857,-26.5086345,1,,,2015.0,,,50,0,,,50,0,,,50,0,,,1,14112,3246.4071665942574,138,138,138
SWZ,SZ,4684,45439,45439,matseni community,16569,31.3713164,-26.5081999,1,,,2015.0,,,50,0,,,50,2,,,50,1,,,1,14151,0.0,139,139,130
SWZ,SZ,4682,45410,45410,mavula central,16572,31.6442877,-25.9586808,1,,,2015.0,,,50,0,,,50,2,,,50,6,,,1,13999,4086.412756885022,140,140,140
SWZ,SZ,4682,45407,45407,mavula pisgah,16546,31.5181,-25.8522,3,,,2015.0,,,50,0,,,50,1,,,50,0,,,1,13987,2640.8799045139267,141,141,141
SWZ,SZ,4682,45407,45407,mayiwane nazarene,16547,31.5084511,-25.871702,1,,,2015.0,,,52,0,,,52,4,,,52,17,,,1,13984,2640.8799045139267,142,142,142
SWZ,SZ,4682,45408,45408,mbabane sagm,16551,31.1366715,-26.3054482,1,,,2015.0,,,60,4,,,60,2,,,60,0,,,1,13992,0.0,143,143,76
SWZ,SZ,4682,45415,45415,mbasheni,16655,31.3913253,-25.8282974,1,,,2015.0,,,52,0,,,52,0,,,52,0,,,1,14023,4834.601960413674,144,144,144
SWZ,SZ,4685,45457,45457,mbava,16690,31.676522,-27.1133344,1,,,2015.0,,,49,0,,,49,0,,,49,0,,,1,14234,7217.6995479618345,145,145,145
SWZ,SZ,4684,45442,45442,mbeka,16628,30.954794,-26.679328,3,,,2015.0,,,50,0,,,50,0,,,50,0,,,1,14162,6633.196324929735,146,146,146
SWZ,SZ,4684,45431,45431,mbikwakhe,16462,31.3484448,-26.4820262,1,,,2015.0,,,49,0,,,49,0,,,49,0,,,1,14110,0.0,147,147,81
SWZ,SZ,4683,45420,45420,mbokojweni,16482,31.980764,-26.037893,3,,,2015.0,,,51,0,,,51,0,,,51,0,,,1,14049,5452.807938604001,148,148,148
SWZ,SZ,4685,45448,45448,mgampondo,16710,31.790134,-27.282617,3,,,2015.0,,,50,0,,,50,0,,,50,0,,,1,14192,5711.481682776521,149,149,149
SWZ,SZ,4683,45426,45426,mhlabaneni,16646,31.96369,-26.86107,3,,,2015.0,,,50,0,,,50,1,,,50,0,,,1,14083,4935.1189133167045,150,150,150
SWZ,SZ,4682,45410,45410,mhlangatane nazarene,16573,31.5971198,-25.8938212,1,,,2015.0,,,50,0,,,50,2,,,50,0,,,1,14002,1699.991298775554,151,151,151
SWZ,SZ,4684,45432,45432,mhlangeni,16468,31.062228,-26.562342,3,,,2015.0,,,50,0,,,50,0,,,50,0,,,1,14115,2693.6853276569614,152,152,152
SWZ,SZ,4683,45424,45424,mhlume,16578,31.8135556,-26.043518,1,,,2015.0,,,50,1,,,50,0,,,50,1,,,1,14071,7978.98988860803,153,153,153
SWZ,SZ,4683,45422,45422,mhlumeni nazarene,16496,32.0163,-26.2908,3,,,2015.0,,,50,4,,,50,3,,,50,1,,,1,14061,13165.060294636698,154,154,154
SWZ,SZ,4685,45451,45451,mkhondvo,109768,31.3070154,-26.8042689,1,,,2015.0,10.0,0.0,50,0,,,50,13,,,50,0,,,1,1695,3599.7280710258956,155,155,155
SWZ,SZ,4682,45407,45407,mkhuzweni,16548,31.512487,-25.903324,3,,,2015.0,,,52,0,,,52,2,,,52,0,,,1,13983,3938.489906911922,156,156,156
SWZ,SZ,4685,45448,45448,mlindazwe,16711,31.89198,-27.3102566,1,,,2015.0,,,50,0,,,50,3,,,50,0,,,1,14195,491.15272532915697,157,157,157
SWZ,SZ,4684,45440,45440,mnjoli,16582,31.6596805,-26.1603515,1,,,2015.0,,,50,0,,,50,0,,,50,0,,,1,14153,3375.1763485712318,158,158,158
SWZ,SZ,4682,45411,45411,mothsane,16589,31.042425,-26.250504,3,,,2015.0,,,48,0,,,48,1,,,48,0,,,1,14006,7639.525111350809,159,159,159
SWZ,SZ,4685,45450,45450,mpandesane,16540,31.6904,-27.224389,3,,,2015.0,,,51,0,,,51,0,,,51,0,,,1,14202,5465.282980686296,160,160,160
SWZ,SZ,4685,45452,45452,mpatheni,16614,31.3541631,-26.9827577,1,,,2015.0,,,49,0,,,49,0,,,49,0,,,1,14212,4589.225456861174,161,161,161
SWZ,SZ,4684,45459,45459,mphetseni,16699,31.5835581,-26.4159561,1,,,2015.0,,,51,0,,,51,18,,,51,0,,,1,14090,0.0,162,162,106
SWZ,SZ,4682,45410,45410,mpofu methodist,16574,31.564218,-25.948798,3,,,2015.0,,,50,1,,,50,1,,,50,0,,,1,14003,7727.662745508414,163,163,163
SWZ,SZ,4682,45409,45409,mpolonjeni community,16556,31.0770124,-26.3047132,1,,,2015.0,,,54,1,,,54,5,,,54,0,,,1,13995,3946.290348627515,164,164,164
SWZ,SZ,4684,45439,45439,mpuluzi anglican,16570,30.863025,-26.44083,3,,,2015.0,,,50,0,,,50,0,,,50,0,,,1,14148,4969.843521109234,165,165,165
SWZ,SZ,4682,45412,45412,mpumalanga,16596,31.452159,-26.117262,3,,,2015.0,,,50,0,,,50,0,,,50,0,,,1,14010,7046.698550778099,166,166,166
SWZ,SZ,4682,45408,45408,mqolo,16552,31.1555803,-26.3395781,1,,,2015.0,,,52,0,,,52,10,,,52,0,,,1,13988,2216.446106818612,167,167,167
SWZ,SZ,4683,45421,45421,mqonqwane,16487,31.756413,-26.987641,3,,,2015.0,,,50,0,,,50,0,,,50,0,,,1,14053,8943.120926330728,168,168,168
SWZ,SZ,4684,45443,45443,mthonjeni,16633,31.3324,-26.5848,3,,,2015.0,,,50,0,,,50,0,,,50,0,,,1,14170,3618.1310155100846,169,169,169
SWZ,SZ,4682,45413,45413,mvuma,16619,31.387094,-25.977463,3,,,2015.0,,,50,0,,,50,0,,,50,0,,,1,14015,4418.228586440599,170,170,170
SWZ,SZ,4683,45423,45423,ndlalane,16537,32.03917,-26.560518,3,,,2015.0,,,50,0,,,50,0,,,50,0,,,1,14063,6578.236394290485,171,171,171
SWZ,SZ,4683,45425,45425,ndzangu,16597,31.836744,-26.525166,3,,,2015.0,,,50,0,,,50,0,,,50,0,,,1,14076,4840.937905747215,172,172,172
SWZ,SZ,4682,45411,45411,new hebron,16590,31.018528,-26.308187,3,,,2015.0,,,50,1,,,50,10,,,50,0,,,1,14005,6524.729274592884,173,173,173
SWZ,SZ,4683,45418,45418,new thulwane,16429,31.6197333,-26.4767194,1,,,2015.0,,,50,0,,,50,0,,,50,0,,,1,14038,3467.0111969504983,174,174,174
SWZ,SZ,4683,45425,45425,ngcina,16598,31.92347,-26.567433,3,,,2015.0,,,60,1,,,60,2,,,60,0,,,1,14078,4860.486200375898,175,175,175
SWZ,SZ,4684,45442,45442,ngcoseni,16630,31.0003276,-26.7566774,1,,,2015.0,,,50,0,,,50,0,,,50,0,,,1,14161,691.1661058965951,176,176,176
SWZ,SZ,4682,45416,45416,nginamadvolo,16664,31.2909303,-26.0233168,1,,,2015.0,,,50,0,,,50,8,,,50,0,,,1,14030,7019.17706332329,177,177,177
SWZ,SZ,4683,45419,45419,ngomane,16446,31.9842786,-26.143993,2,,,2015.0,,,51,0,,,51,0,,,51,0,,,1,14044,7688.029161321873,178,178,178
SWZ,SZ,4682,45417,45417,ngonini estate,16716,31.3988501,-25.7897909,1,,,2015.0,,,48,0,,,48,2,,,48,0,,,1,14036,3625.5445608522673,179,179,179
SWZ,SZ,4685,45446,45446,ngozi,16452,31.4888,-27.1174,3,,,2015.0,,,50,0,,,50,0,,,50,0,,,1,14185,5579.801287557838,180,180,180
SWZ,SZ,4685,45458,45458,ngwane central,16720,31.3091024,-27.2257917,1,,,2015.0,,,50,0,,,50,1,,,50,0,,,1,14239,3892.250812605512,181,181,181
SWZ,SZ,4684,45438,45438,ngwane park,16527,31.3700882,-26.5238663,1,,,2015.0,,,50,0,,,50,1,,,50,0,,,1,14142,1953.7807810093886,182,182,182
SWZ,SZ,4685,45451,45451,ngwane practising,16563,31.1995,-27.1353,3,,,2015.0,,,50,0,,,50,0,,,50,0,,,1,14206,1772.8317241291043,183,183,183
SWZ,SZ,4684,45442,45442,ngwempisana,16631,31.002944,-26.710689,3,,,2015.0,,,49,0,,,49,0,,,49,0,,,1,14163,5089.38084731154,184,184,184
SWZ,SZ,4683,45425,45425,nhlabeni,16599,31.876,-26.6008,3,,,2015.0,,,50,2,,,50,7,,,50,0,,,1,14074,4868.529565167775,185,185,185
SWZ,SZ,4684,45443,45443,nhlambeni,16634,31.4272,-26.6061,3,,,2015.0,,,51,0,,,51,0,,,51,0,,,1,14169,3306.2261523247016,186,186,186
SWZ,SZ,4684,45443,45443,nhlambeni nazarene,16635,31.362986,-26.574967,3,,,2015.0,,,50,0,,,50,0,,,50,0,,,1,14167,3242.138676172291,187,187,187
SWZ,SZ,4685,45451,45451,nhlanagano central,16564,31.1996708,-27.1211272,1,,,2015.0,,,50,0,,,50,0,,,50,0,,,1,14209,1772.8317241291043,188,188,188
SWZ,SZ,4682,45410,45410,nhlanguyavuka,16575,31.683993,-25.909356,3,,,2015.0,,,49,0,,,49,1,,,49,12,,,1,14000,4237.710977687713,189,189,189
SWZ,SZ,4683,45419,45419,njojane,16447,31.699464,-26.277264,3,,,2015.0,,,51,0,,,51,0,,,51,0,,,1,14047,61.80427604480966,190,190,190
SWZ,SZ,4683,45420,45420,nkalashane,16483,31.9434804,-25.9914025,1,,,2015.0,,,52,4,,,52,6,,,52,1,,,1,14048,6559.806100852556,191,191,191
SWZ,SZ,4682,45414,45414,nkhaba,16640,31.1577931,-26.1439743,1,,,2015.0,,,50,0,,,50,0,,,50,0,,,1,14019,6224.187840681043,192,192,192
SWZ,SZ,4683,45421,45421,nkhanini,16488,31.876,-26.910151,3,,,2015.0,,,50,0,,,50,0,,,50,0,,,1,14056,6594.329122896321,193,193,193
SWZ,SZ,4685,45455,45455,nkhungwini,16671,31.404919,-27.123086,3,,,2015.0,,,50,0,,,50,0,,,50,0,,,1,14223,6287.600533150922,194,194,194
SWZ,SZ,4684,45430,45430,nkilitji,16434,31.4050794,-26.3156654,1,,,2015.0,,,50,0,,,50,7,,,50,0,,,1,14106,2963.3809538206456,195,195,195
SWZ,SZ,4683,45429,45429,nkonjwa,16706,31.6260722,-26.9303997,1,,,2015.0,,,50,0,,,50,0,,,50,0,,,1,14100,6626.769858625089,196,196,196
SWZ,SZ,4682,45409,45409,nkwalini,16557,31.1180517,-26.3351009,1,,,2015.0,,,50,0,,,50,3,,,50,0,,,1,13998,2585.5625450879493,197,197,197
SWZ,SZ,4685,45454,45454,nkwene,16649,31.3111099,-26.8566346,1,,,2015.0,,,50,0,,,50,0,,,50,0,,,1,14220,4119.852200152583,198,198,198
SWZ,SZ,4683,45419,45419,nsulutane/embalenhle,16448,31.749512,-26.364392,3,,,2015.0,,,51,0,,,51,0,,,51,0,,,1,14045,10393.185324558177,199,199,199
SWZ,SZ,4684,45444,45444,ntontozi rc,16660,31.1666667,-26.6166667,1,,,2015.0,,,51,0,,,51,0,,,51,0,,,1,14172,2884.2127971863124,200,200,200
SWZ,SZ,4683,45421,45421,ntuthwakazi,16489,31.814999,-27.036615,3,,,2015.0,,,50,0,,,50,0,,,50,0,,,1,14054,8943.120926330728,201,201,201
SWZ,SZ,4685,45449,45449,nyamane,16533,31.2266321,-27.1769405,1,,,2015.0,,,53,0,,,53,0,,,53,0,,,1,14197,3137.478023519996,202,202,202
SWZ,SZ,4685,45454,45454,nyanyali,16650,31.358325,-26.797137,3,,,2015.0,,,50,0,,,50,0,,,50,0,,,1,14218,4914.034602811894,203,203,203
SWZ,SZ,4685,45453,45453,nyatsini/maloma,16626,31.6015,-27.0976,3,,,2015.0,,,50,0,,,50,0,,,50,0,,,1,14216,4875.441465672,204,204,204
SWZ,SZ,4685,45450,45450,osabeni,16541,31.757411,-27.126964,3,,,2015.0,,,50,0,,,50,0,,,50,0,,,1,14205,6230.882822851775,205,205,205
SWZ,SZ,4685,45450,45450,oslo,16542,31.642433,-27.233695,3,,,2015.0,,,50,0,,,50,0,,,50,0,,,1,14204,4167.256540833468,206,206,206
SWZ,SZ,4685,45458,45458,othandweni,16721,31.348975,-26.83563933,3,,,2015.0,,,50,0,,,50,3,,,50,0,,,1,14238,0.0,207,207,208
SWZ,SZ,4684,45432,45432,othandweni,16469,31.348975,-26.83563933,4,,,2015.0,,,50,0,,,50,2,,,50,0,,,1,14117,0.0,208,208,207
SWZ,SZ,4683,45427,45427,othandweni,16694,31.68333,-26.6773812,1,,,2015.0,,,50,0,,,50,7,,,50,0,,,1,14087,0.0,209,209,68
SWZ,SZ,4685,45456,45456,our lady of sorrows,16686,31.5232,-27.2606,3,,,2015.0,,,50,0,,,50,0,,,50,0,,,1,14229,6280.610312893243,210,210,210
SWZ,SZ,4685,45446,45446,patmos,16453,31.4385,-27.1635,3,,,2015.0,,,50,0,,,50,0,,,50,0,,,1,14182,5654.359968503269,211,211,211
SWZ,SZ,4682,45416,45416,peak central,16665,31.24261,-25.965416,1,,,2015.0,,,45,0,,,45,6,,,45,1,,,1,14032,3399.255873740492,212,212,212
SWZ,SZ,4684,45431,45431,phocweni,16463,31.3378141,-26.5175002,1,,,2015.0,,,50,0,,,50,0,,,50,0,,,1,14114,3246.4071665942574,213,213,213
SWZ,SZ,4683,45427,45427,phonjwane,16695,31.6392731,-26.5944597,1,,,2015.0,,,50,0,,,50,0,,,50,0,,,1,14086,7772.714037199599,214,214,214
SWZ,SZ,4682,45415,45415,phophonyane,16656,31.301111,-25.893023,3,,,2015.0,,,49,0,,,49,1,,,49,1,,,1,14027,7842.64403622271,215,215,215
SWZ,SZ,4685,45450,45450,phumelela,16543,31.7252,-27.2933,3,,,2015.0,,,50,0,,,50,0,,,50,0,,,1,14201,5577.437723755381,216,216,216
SWZ,SZ,4682,45413,45413,princess monile,16620,31.394609,-26.012492,3,,,2015.0,,,50,0,,,50,0,,,50,0,,,1,14016,3308.337632070793,217,217,217
SWZ,SZ,4682,45409,45409,qedusizi,16558,31.1132,-26.301,3,,,2015.0,,,57,2,,,57,0,,,57,0,,,1,13997,607.6787107737366,218,218,218
SWZ,SZ,4682,45416,45416,rosenberg,16666,31.237979,-25.992549,3,,,2015.0,,,46,0,,,46,9,,,46,22,,,1,14031,3399.255873740492,219,219,219
SWZ,SZ,4685,45452,45452,salem,16615,31.3382204,-26.9370635,1,,,2015.0,,,50,0,,,50,0,,,50,0,,,1,14211,4708.882936900362,220,220,220
SWZ,SZ,4684,45430,45430,salukazi,16435,31.4415,-26.3993,3,,,2015.0,,,50,0,,,50,0,,,50,0,,,1,14107,6883.212141632564,221,221,221
SWZ,SZ,4683,45420,45420,shewula/ekuthuleni,16484,32.0391191,-26.0980158,1,,,2015.0,,,54,0,,,54,0,,,54,0,,,1,14051,1987.487422065735,222,222,222
SWZ,SZ,4684,45435,45435,sibovu,16513,31.0758642,-26.821776,1,,,2015.0,,,51,0,,,51,0,,,51,0,,,1,14128,5809.914858218221,223,223,223
SWZ,SZ,4684,45440,45440,sidvokodvo nazarene,16584,31.5493,-26.306,3,,,2015.0,,,48,0,,,48,0,,,48,0,,,1,14155,5856.291091998981,224,224,224
SWZ,SZ,4684,45443,45443,sidvokodvo railway,16636,31.4213323,-26.6321289,1,,,2015.0,,,48,0,,,48,0,,,48,0,,,1,14168,3306.2261523247016,225,225,225
SWZ,SZ,4683,45418,45418,sigcaweni nazarene,16430,31.7268038,-26.5403747,1,,,2015.0,,,50,0,,,50,0,,,50,0,,,1,14040,6528.1929528102855,226,226,226
SWZ,SZ,4684,45435,45435,sigcineni catholic,16514,31.3031188,-26.7246892,1,,,2015.0,,,50,0,,,50,11,,,50,0,,,1,14132,9931.213661804619,227,227,227
SWZ,SZ,4683,45425,45425,siphoso,16605,31.875949,-26.542001,3,,,2015.0,,,56,1,,,56,5,,,56,0,,,1,14073,4840.937905747215,228,228,228
SWZ,SZ,4684,45431,45431,siphumelele,16464,31.3713164,-26.5081999,1,,,2015.0,,,50,0,,,50,1,,,50,0,,,1,14111,0.0,229,229,130
SWZ,SZ,4683,45422,45422,sitsatsaweni,16498,32.0287427,-26.3961938,1,,,2015.0,,,50,1,,,50,0,,,50,0,,,1,14060,11825.005579142906,230,230,230
SWZ,SZ,4683,45419,45419,siweni,16449,31.699934,-26.276999,3,,,2015.0,,,50,6,,,50,3,,,50,0,,,1,14046,61.80427604480966,231,231,231
SWZ,SZ,4682,45409,45409,sos/herman gmeiner,16559,31.11244,-26.305846,3,,,2015.0,,,51,0,,,51,1,,,51,0,,,1,13993,607.6787107737366,232,232,232
SWZ,SZ,4685,45446,45446,st benedict,16454,31.556094,-27.186913,3,,,2015.0,,,51,0,,,51,0,,,51,0,,,1,14183,3997.0942493288735,233,233,233
SWZ,SZ,4683,45422,45422,st boniface,16499,31.9205,-26.4364,3,,,2015.0,,,55,11,,,55,11,,,55,1,,,1,14062,6054.003744573217,234,234,234
SWZ,SZ,4682,45408,45408,st francis,16553,31.147862,-26.3231286,1,,,2015.0,,,49,0,,,49,0,,,49,0,,,1,13989,2216.446106818612,235,235,235
SWZ,SZ,4683,45425,45425,st holly ghost,16606,31.9193,-26.6063,3,,,2015.0,,,50,0,,,50,0,,,50,0,,,1,14075,4860.486200375898,236,236,236
SWZ,SZ,4683,45423,45423,st johns,16538,32.0646,-26.6532,3,,,2015.0,,,50,2,,,50,0,,,50,0,,,1,14064,8834.134391372398,237,237,237
SWZ,SZ,4684,45434,45434,st josephs,16509,31.4754,-26.4594,3,,,2015.0,,,51,0,,,51,1,,,51,0,,,1,14124,4535.1981685335095,238,238,238
SWZ,SZ,4682,45405,45405,st marys,16479,31.2083781,-26.4509208,1,,,2015.0,,,50,0,,,50,5,,,50,0,,,1,13975,562.8665549660119,239,239,239
SWZ,SZ,4684,45437,45437,st pauls,16523,31.3636168,-26.4862563,1,,,2015.0,,,50,0,,,50,0,,,50,0,,,1,14139,1415.5229415000674,240,240,240
SWZ,SZ,4682,45414,45414,st pauls anglican,16641,31.1784,-26.0722,3,,,2015.0,,,50,1,,,50,3,,,50,0,,,1,14021,4633.326523281839,241,241,241
SWZ,SZ,4682,45413,45413,st peregrins,16621,31.44801,-26.0605323,1,,,2015.0,,,36,0,,,36,5,,,36,1,,,1,14018,6663.183852894968,242,242,242
SWZ,SZ,4683,45427,45427,st phillips,16696,31.770211,-26.853529,3,,,2015.0,,,51,0,,,51,0,,,51,0,,,1,14089,11341.612398678111,243,243,243
SWZ,SZ,4684,45438,45438,st theresa/salesian,16528,31.379402,-26.5000252,1,,,2015.0,,,45,0,,,45,0,,,45,0,,,1,14146,1358.0083630779664,244,244,244
SWZ,SZ,4685,45452,45452,thembelihle,16616,31.40643,-26.900012,3,,,2015.0,,,49,0,,,49,1,,,49,0,,,1,14210,7289.263402540897,245,245,245
SWZ,SZ,4683,45424,45424,tjaneni,16579,31.7594384,-26.0012842,1,,,2015.0,,,50,0,,,50,0,,,50,0,,,1,14068,7978.98988860803,246,246,246
SWZ,SZ,4684,45436,45436,usuthu mission,16518,31.03952086,-26.5698209,3,,,2015.0,,,50,0,,,50,0,,,50,0,,,1,14136,2693.6853276569614,247,247,247
SWZ,SZ,4684,45459,45459,usuthu mission,16478,31.1712179,-26.5761306,1,,,2015.0,,,50,0,,,50,0,,,50,0,,,1,14095,3322.3692087314735,248,248,248
SWZ,SZ,4683,45424,45424,vuvulane,16580,31.8776076,-26.074005,1,,,2015.0,,,50,0,,,50,1,,,50,0,,,1,14070,6576.770506719303,249,249,249
SWZ,SZ,4682,45406,45406,zandondo,16503,31.5212882,-26.1613026,1,,,2015.0,,,50,0,,,50,1,,,50,0,,,1,13981,9436.275965230006,250,250,250
SWZ,SZ,4684,45433,45433,zombodze national,16494,31.2801663,-26.4428399,1,,,2015.0,,,50,0,,,50,1,,,50,0,,,1,14121,3058.836545512595,251,251,251
SWZ,SZ,4682,45406,45406,zwide/ngojeni,16504,31.661305,-26.073889,3,,,2015.0,,,50,0,,,50,0,,,50,0,,,1,13980,7184.979973342518,252,252,252
