iso3,iso2,admin1_id,admin2_id,iu_id,location,site_id,longitude,latitude,georeliability,location_type,survey_type,year,age_start,age_end,hk_examined,hk_positive,asc_examined,asc_positive,tt_examined,tt_positive,quality,sn,hk_prevalence,asc_prevalence,tt_prevalence,sth_prevalence,shortest,id,src,dst
TZA,TZ,4797.0,46531.0,46531.0,abainano,,34.2848917,-1.3877117,3,school,mapping,2017.0,11.0,15.0,30,0,30,1,30,0,1,37145,0.0,0.0333333333333333,0.0,0.0314465408805031,4366.461723465257,0,0,0
TZA,TZ,4809.0,46610.0,46610.0,azimio,59845.0,32.078701,-5.0795999,3,,,2004.0,,,60,18,60,2,60,2,2,15986,0.3,0.0333333333333333,0.0333333333333333,0.3263102725366875,8973.961518318778,1,1,1
TZA,TZ,4797.0,46528.0,46528.0,azimio,,33.8047617,-1.5016817,3,school,mapping,2017.0,10.0,14.0,29,1,29,0,29,0,1,36991,0.0344827586206896,0.0,0.0,0.0325309043591411,0.19216923043328524,2,2,385
TZA,TZ,4807.0,46595.0,46595.0,badugu,59529.0,33.65,-2.466667,1,,,1997.0,,,113,40,113,0,113,0,3,15918,0.3539823008849557,0.0,0.0,0.3339455668725997,6339.104343697856,3,3,3
TZA,TZ,4803.0,,46531.0,bago (morwe),,38.33535,-6.22613,4,,mapping,2011.0,0.0,9.0,9,1,9,0,9,0,1,31198,0.1111111111111111,0.0,0.0,0.1048218029350104,0.0,4,4,419
TZA,TZ,4793.0,46503.0,46503.0,bagwe,,29.6191033,-4.8987983,3,school,sentinel site,2018.0,9.0,15.0,60,2,60,4,60,0,1,36840,0.0333333333333333,0.0666666666666666,0.0,0.0922431865828092,0.0,5,5,6
TZA,TZ,4793.0,46503.0,46503.0,bagwe,,29.6191033,-4.8987983,3,school,sentinel site,2016.0,8.0,14.0,58,3,58,3,58,0,1,36836,0.0517241379310344,0.0517241379310344,0.0,0.0950687636012832,0.0,6,6,5
TZA,TZ,4803.0,,46531.0,bago (bago a),,38.344269,-6.22503,4,,mapping,2011.0,0.0,9.0,4,0,0,0,0,0,1,31195,0.0,,,,0.0,7,7,395
TZA,TZ,4803.0,,46531.0,bago (bago b),,38.337742,-6.22579,4,,mapping,2011.0,0.0,9.0,5,1,5,0,5,1,1,31196,0.2,0.0,0.2,0.3396226415094339,0.0,8,8,397
TZA,TZ,4803.0,,46531.0,bago (kisebengo),,38.344849,-6.2332,4,,mapping,2011.0,0.0,9.0,5,2,5,0,5,0,1,31197,0.4,0.0,0.0,0.3773584905660377,0.0,9,9,403
TZA,TZ,4803.0,,46531.0,bago (msufini),,38.340321,-6.22576,4,,mapping,2011.0,0.0,9.0,8,2,8,0,8,0,1,31199,0.25,0.0,0.0,0.2358490566037735,287.1126209571247,10,10,10
TZA,TZ,4803.0,,46531.0,bago (ushirika),,38.346191,-6.2244,4,,mapping,2011.0,0.0,9.0,1,1,1,0,1,0,1,31200,1.0,0.0,0.0,0.9433962264150942,0.0,11,11,435
TZA,TZ,4793.0,46503.0,46503.0,bagwe,,29.6191033,-4.8987983,3,school,sentinel site,2017.0,8.0,14.0,61,1,61,0,61,0,1,36837,0.0163934426229508,0.0,0.0,0.0154655119084441,0.0,12,12,5
TZA,TZ,4803.0,46575.0,46575.0,baleni,,39.799,-7.85,3,,,2000.0,6.0,18.0,105,92,105,2,105,34,3,29376,0.8761904761904762,0.019047619047619,0.3238095238095238,0.8659205880615198,14422.968995302894,13,13,13
TZA,TZ,4797.0,46631.0,46631.0,balili,,33.87212,-2.031722,3,ward,mapping,2018.0,,,30,0,30,0,30,0,1,22897,0.0,0.0,0.0,0.0,0.5575996879590478,14,14,15
TZA,TZ,4797.0,46631.0,46631.0,balili a,,33.872115,-2.0317217,3,school,mapping,2017.0,11.0,15.0,30,0,30,0,30,0,1,36884,0.0,0.0,0.0,0.0,0.5575996879590478,15,15,14
TZA,TZ,4797.0,46631.0,46631.0,balili b,,33.87247,-2.0316483,3,school,mapping,2017.0,10.0,15.0,31,0,31,0,31,0,1,36885,0.0,0.0,0.0,0.0,39.81730680733855,16,16,16
TZA,TZ,4797.0,46531.0,46531.0,bamagi vision,,34.646875,-1.3946567,3,school,mapping,2017.0,10.0,15.0,30,0,30,0,30,0,1,37146,0.0,0.0,0.0,0.0,0.5575990221141164,17,17,678
TZA,TZ,4797.0,46529.0,46529.0,baraki,,33.96552,-1.369015,3,ward,mapping,2018.0,,,30,0,30,0,30,0,1,23023,0.0,0.0,0.0,0.0,0.1892431336455047,18,18,1013
TZA,TZ,4797.0,46526.0,46526.0,baranga,,34.2260267,-1.6781217,3,school,mapping,2017.0,10.0,15.0,30,0,30,0,30,0,1,36906,0.0,0.0,0.0,0.0,5090.061291817324,19,19,19
TZA,TZ,4807.0,46593.0,46593.0,bariadi,59504.0,33.9917222,-2.8069614,1,,,2004.0,,,62,3,62,0,62,0,2,15903,0.0483870967741935,0.0,0.0,0.0456482045039561,14730.270884240867,20,20,20
TZA,TZ,4797.0,46526.0,46526.0,biatika,,34.0834917,-1.7783433,3,school,mapping,2017.0,10.0,14.0,29,1,29,0,29,0,1,36907,0.0344827586206896,0.0,0.0,0.0325309043591411,0.1921700331672984,21,21,53
TZA,TZ,4791.0,46488.0,46488.0,bilele,59520.0,31.8137,-1.32849,3,,,2004.0,,,60,16,60,14,60,11,2,15682,0.2666666666666666,0.2333333333333333,0.1833333333333333,0.5102375960866526,1479.1670327129314,22,22,22
TZA,TZ,4797.0,46532.0,46532.0,binagi,,34.46163,-1.372242,3,ward,mapping,2018.0,,,30,3,30,2,30,0,1,23135,0.1,0.0666666666666666,0.0,0.1509433962264151,0.0,23,23,24
TZA,TZ,4797.0,46532.0,46532.0,binagi,,34.46163,-1.372242,3,school,mapping,2017.0,10.0,15.0,30,0,30,2,30,0,1,37195,0.0,0.0666666666666666,0.0,0.0628930817610062,0.0,24,24,23
TZA,TZ,4797.0,46532.0,46532.0,binagi,,34.46163,-1.372242,3,ward,mapping,2018.0,,,30,0,30,0,30,0,1,23136,0.0,0.0,0.0,0.0,0.0,25,25,23
TZA,TZ,4807.0,46597.0,46597.0,binza,59704.0,33.779598,-3.18839,3,,,2004.0,,,61,2,61,0,61,0,2,15933,0.0327868852459016,0.0,0.0,0.0309310238168883,31525.902080146217,26,26,26
TZA,TZ,4797.0,46530.0,46530.0,bisarara,,34.8053933,-1.796,3,school,mapping,2017.0,10.0,15.0,30,3,30,0,30,0,1,37079,0.1,0.0,0.0,0.0943396226415094,0.3673543194308877,27,27,983
TZA,TZ,4797.0,46531.0,46531.0,bisarwi,,34.25547,-1.437075,3,school,mapping,2017.0,10.0,14.0,30,0,30,0,30,0,1,37147,0.0,0.0,0.0,0.0,0.0,28,28,524
TZA,TZ,4797.0,46526.0,46526.0,bisumwa,,33.85492,-1.6126900000000002,3,ward,mapping,2018.0,,,30,0,30,0,30,0,1,22919,0.0,0.0,0.0,0.0,0.3673543194308877,29,29,890
TZA,TZ,4797.0,46532.0,46532.0,bomani,,34.36347,-1.352015,3,ward,mapping,2018.0,,,30,0,30,6,30,0,1,23183,0.0,0.2,0.0,0.1886792452830188,0.0,30,30,31
TZA,TZ,4797.0,46532.0,46532.0,bomani,,34.36347,-1.352015,3,ward,mapping,2018.0,,,30,0,30,0,30,0,1,23184,0.0,0.0,0.0,0.0,0.0,31,31,30
TZA,TZ,4810.0,46616.0,46616.0,bombo majimoto,59638.0,39.1140366,-5.0682708,1,,,1996.0,,,52,37,52,10,52,6,3,16008,0.7115384615384616,0.1923076923076923,0.1153846153846153,0.748957626609184,1718.6704302280964,32,32,32
TZA,TZ,4797.0,46531.0,46531.0,bongenge,,34.6086233,-1.4724867,3,school,mapping,2017.0,12.0,15.0,30,0,30,0,30,0,1,37148,0.0,0.0,0.0,0.0,6563.381056786579,33,33,33
TZA,TZ,4797.0,46531.0,46531.0,borega a,,34.5863733,-1.3220667,3,school,mapping,2017.0,11.0,15.0,30,0,30,0,30,0,1,37149,0.0,0.0,0.0,0.0,3361.939714743893,34,34,34
TZA,TZ,4803.0,,46531.0,bozi (razaba),,38.483269,-6.2515,4,,mapping,2011.0,0.0,9.0,31,3,0,0,0,0,1,31201,0.0967741935483871,,,,9246.045327811895,35,35,35
TZA,TZ,4801.0,46560.0,46560.0,bubinza,59664.0,33.483333,-2.533333,1,,,1997.0,,,115,37,115,0,115,0,3,15759,0.3217391304347826,0.0,0.0,0.3035274815422477,7524.644485479919,36,36,36
TZA,TZ,4789.0,46476.0,46476.0,bufanka,59522.0,31.9869,-3.6065199,3,,,2004.0,,,60,43,60,0,60,0,2,15635,0.7166666666666667,0.0,0.0,0.6761006289308176,12509.615041229139,37,37,37
TZA,TZ,4801.0,46560.0,46560.0,bugando,59665.0,33.171299,-2.5048699,3,,,1997.0,,,100,51,100,1,100,0,3,15770,0.51,0.01,0.0,0.485754716981132,3740.378674894071,38,38,38
TZA,TZ,4791.0,46493.0,46493.0,bugarama,59771.0,30.5322273,-2.8670033,1,,,2004.0,,,60,32,60,0,60,2,2,15704,0.5333333333333333,0.0,0.0333333333333333,0.5178197064989517,23891.098531037875,39,39,39
TZA,TZ,4791.0,46492.0,46492.0,bugasha,,31.7443583,-1.57698,3,school,sentinel site,2016.0,9.0,13.0,59,1,59,34,59,10,1,36806,0.0169491525423728,0.576271186440678,0.1694915254237288,0.6170322754425388,0.0,40,40,41
TZA,TZ,4791.0,46492.0,46492.0,bugasha,,31.7443583,-1.57698,3,school,sentinel site,2017.0,9.0,14.0,61,4,61,34,61,32,1,36807,0.0655737704918032,0.5573770491803278,0.5245901639344263,0.7578973653600629,0.0,41,41,40
TZA,TZ,4791.0,46492.0,46492.0,bugasha,,31.7443583,-1.57698,3,school,sentinel site,2018.0,10.0,15.0,60,30,60,16,60,26,1,36810,0.5,0.2666666666666666,0.4333333333333333,0.7473794549266246,0.0,42,42,40
TZA,TZ,4797.0,46529.0,46529.0,bugendi b,,33.89011,-1.2289567,3,school,mapping,2017.0,11.0,15.0,30,1,30,1,30,0,1,37022,0.0333333333333333,0.0333333333333333,0.0,0.0618448637316561,0.033403529901988804,43,43,813
TZA,TZ,4797.0,46527.0,46527.0,bugoji,,33.73654,-1.90184,3,ward,mapping,2018.0,,,30,4,30,0,30,0,1,22954,0.1333333333333333,0.0,0.0,0.1257861635220125,0.0,44,44,45
TZA,TZ,4797.0,46527.0,46527.0,bugoji,,33.73654,-1.90184,3,school,mapping,2017.0,11.0,15.0,30,4,30,0,30,0,1,36941,0.1333333333333333,0.0,0.0,0.1257861635220125,0.0,45,45,44
TZA,TZ,4797.0,46527.0,46527.0,bugoji,,33.73654,-1.90184,3,ward,mapping,2018.0,,,29,0,29,0,29,0,1,22955,0.0,0.0,0.0,0.0,0.0,46,46,44
TZA,TZ,4787.0,,2094.0,buguruni,,39.2519,-6.8289,4,,,2011.0,3.0,15.0,232,2,232,2,232,10,1,30796,0.0086206896551724,0.0086206896551724,0.043103448275862,0.0561608978142791,3250.381760580419,47,47,47
TZA,TZ,4797.0,46527.0,46527.0,bugwema,,33.67825,-1.945145,3,ward,mapping,2018.0,,,30,0,30,0,30,0,1,22956,0.0,0.0,0.0,0.0,0.0,48,48,49
TZA,TZ,4797.0,46527.0,46527.0,bugwema,,33.67825,-1.945145,3,school,mapping,2017.0,11.0,15.0,30,0,30,0,30,0,1,36942,0.0,0.0,0.0,0.0,0.0,49,49,48
TZA,TZ,4806.0,46592.0,46592.0,buhangija,59805.0,33.4115968,-3.6880592,1,,,2004.0,,,60,3,60,0,60,0,2,15898,0.05,0.0,0.0,0.0471698113207547,10016.75988313962,50,50,50
TZA,TZ,4797.0,46528.0,46528.0,buhare,,33.77921,-1.52766,3,ward,mapping,2018.0,,,30,0,30,0,30,0,1,22998,0.0,0.0,0.0,0.0,0.0,51,51,52
TZA,TZ,4797.0,46528.0,46528.0,buhare,,33.77921,-1.52766,3,school,mapping,2017.0,10.0,15.0,30,0,30,0,30,0,1,36992,0.0,0.0,0.0,0.0,0.0,52,52,51
TZA,TZ,4797.0,46526.0,46526.0,buhemba,,34.08349,-1.778343,3,ward,mapping,2018.0,,,29,2,29,0,29,0,1,22922,0.0689655172413793,0.0,0.0,0.0650618087182823,0.0,53,53,54
TZA,TZ,4797.0,46526.0,46526.0,buhemba,,34.08349,-1.778343,3,ward,mapping,2018.0,,,29,1,29,0,29,0,1,22921,0.0344827586206896,0.0,0.0,0.0325309043591411,0.0,54,54,53
TZA,TZ,4797.0,46532.0,46532.0,buhemba,,34.3634733,-1.352015,3,school,mapping,2017.0,9.0,15.0,30,0,30,6,30,0,1,37196,0.0,0.2,0.0,0.1886792452830188,0.3673543203622103,55,55,30
TZA,TZ,4801.0,46560.0,46560.0,buhumbi,59666.0,33.474899,-2.6381099,3,,,1997.0,,,119,59,119,0,119,0,3,15741,0.4957983193277311,0.0,0.0,0.4677342635167274,6202.045943659101,56,56,56
TZA,TZ,4797.0,46526.0,46526.0,bukabwa,,33.95291,-1.561722,3,ward,mapping,2018.0,,,29,2,29,0,29,0,1,22923,0.0689655172413793,0.0,0.0,0.0650618087182823,0.0,57,57,58
TZA,TZ,4797.0,46526.0,46526.0,bukabwa,,33.95291,-1.561722,3,ward,mapping,2018.0,,,30,0,30,0,30,0,1,22924,0.0,0.0,0.0,0.0,0.0,58,58,57
TZA,TZ,4797.0,46529.0,46529.0,bukama,,34.0829233,-1.2452967,3,school,mapping,2017.0,12.0,14.0,30,0,30,1,30,0,1,37023,0.0,0.0333333333333333,0.0,0.0314465408805031,0.36886990298442324,59,59,336
TZA,TZ,4797.0,46528.0,46528.0,bukanga jwtz,,33.76415,-1.4956383,3,school,mapping,2017.0,10.0,14.0,30,0,30,0,30,0,1,36993,0.0,0.0,0.0,0.0,0.033407229668227956,60,60,515
TZA,TZ,4797.0,46527.0,46527.0,bukima,,33.40542,-1.809357,3,ward,mapping,2018.0,,,30,0,30,2,30,0,1,22959,0.0,0.0666666666666666,0.0,0.0628930817610062,0.0,61,61,62
TZA,TZ,4797.0,46527.0,46527.0,bukima,,33.40542,-1.809357,3,ward,mapping,2018.0,,,30,0,30,0,30,0,1,22958,0.0,0.0,0.0,0.0,0.0,62,62,61
TZA,TZ,4789.0,46477.0,46477.0,bukiriguru,59562.0,31.7372,-2.9863801,3,,,2004.0,,,60,44,60,0,60,0,2,15638,0.7333333333333333,0.0,0.0,0.691823899371069,6128.672283652975,63,63,63
TZA,TZ,4797.0,46529.0,46529.0,bukiro,,34.1451467,-1.1699217,3,school,mapping,2017.0,10.0,15.0,30,0,30,1,30,0,1,37024,0.0,0.0333333333333333,0.0,0.0314465408805031,4131.506500113228,64,64,64
TZA,TZ,4797.0,46631.0,46631.0,bukore,,33.9624817,-2.0490183,3,school,mapping,2017.0,11.0,15.0,30,0,30,0,30,0,1,36886,0.0,0.0,0.0,0.0,3166.170260793191,65,65,65
TZA,TZ,4809.0,46611.0,46611.0,bukumbi,,32.512805,-4.401878,3,,,2012.0,4.0,81.0,502,197,0,0,0,0,1,30039,0.3924302788844621,,,,0.0,66,66,67
TZA,TZ,4809.0,46611.0,46611.0,bukumbi,,32.512805,-4.401878,3,,,2012.0,4.0,81.0,251,36,0,0,0,0,1,30040,0.1434262948207171,,,,0.0,67,67,66
TZA,TZ,4809.0,46611.0,46611.0,bukumbi,59851.0,32.566667,-4.383333,1,,,2012.0,,,251,124,0,0,0,0,1,15989,0.4940239043824701,,,,0.0,68,68,69
TZA,TZ,4809.0,46611.0,46611.0,bukumbi,59851.0,32.566667,-4.383333,1,,,2012.0,,,251,73,0,0,0,0,1,15988,0.2908366533864542,,,,0.0,69,69,68
TZA,TZ,4809.0,46611.0,46611.0,bukumbi,59851.0,32.566667,-4.383333,1,,,2012.0,,,251,36,0,0,0,0,1,15990,0.1434262948207171,,,,0.0,70,70,68
TZA,TZ,4801.0,46561.0,46561.0,bukumbi,,32.916667,-2.716667,3,,,2009.0,6.0,14.0,100,39,0,0,0,0,1,30804,0.39,,,,8412.484106050673,71,71,71
TZA,TZ,4797.0,46527.0,46527.0,bukumi,,33.31203,-1.911222,3,ward,mapping,2018.0,,,30,0,30,0,30,0,1,22960,0.0,0.0,0.0,0.0,0.19217046746306835,72,72,110
TZA,TZ,4797.0,46529.0,46529.0,bukura,,34.11444,-1.190763,3,ward,mapping,2018.0,,,30,0,30,1,30,0,1,23025,0.0,0.0333333333333333,0.0,0.0314465408805031,4131.506500113228,73,73,73
TZA,TZ,4797.0,46529.0,46529.0,bukwe,,34.22814,-1.374148,3,ward,mapping,2018.0,,,30,0,30,0,30,0,1,23027,0.0,0.0,0.0,0.0,0.5575990047827105,74,74,904
TZA,TZ,4789.0,46480.0,46480.0,bukwimba,59777.0,32.608002,-3.3371501,3,,,2004.0,,,60,47,60,0,60,0,2,15664,0.7833333333333333,0.0,0.0,0.7389937106918238,14429.833184077046,75,75,75
TZA,TZ,4797.0,46525.0,46525.0,bulamba,,33.62526,-2.1405183,3,school,mapping,2017.0,11.0,15.0,30,0,30,0,30,0,1,36842,0.0,0.0,0.0,0.0,0.03341916544013657,76,76,120
TZA,TZ,4797.0,46525.0,46525.0,bulendabufwe,,33.3933783,-2.0713,3,school,mapping,2017.0,11.0,15.0,30,2,30,0,30,0,1,36843,0.0666666666666666,0.0,0.0,0.0628930817610062,5537.246799441148,77,77,77
TZA,TZ,4801.0,46559.0,46559.0,bulikinda,59647.0,32.9174517,-2.5164305,1,,,2004.0,,,60,15,60,4,60,0,2,15739,0.25,0.0666666666666666,0.0,0.2830188679245282,4141.3260651817845,78,78,78
TZA,TZ,4797.0,46527.0,46527.0,bulinga,,33.39932,-1.836287,3,ward,mapping,2018.0,,,29,0,29,1,29,0,1,22963,0.0,0.0344827586206896,0.0,0.0325309043591411,0.0,79,79,80
TZA,TZ,4797.0,46527.0,46527.0,bulinga,,33.39932,-1.836287,3,ward,mapping,2018.0,,,29,2,29,0,29,0,1,22962,0.0689655172413793,0.0,0.0,0.0650618087182823,0.0,80,80,79
TZA,TZ,4807.0,46596.0,46596.0,bulolambeshi,59591.0,34.1189,-2.7704599,3,,,2004.0,,,61,11,61,0,61,0,2,15929,0.180327868852459,0.0,0.0,0.1701206309928858,14730.270884240867,81,81,81
TZA,TZ,4797.0,46526.0,46526.0,bumangi,,34.01205,-1.7235933,3,school,mapping,2017.0,11.0,15.0,30,0,30,0,30,0,1,36908,0.0,0.0,0.0,0.0,5708.921308565445,82,82,82
TZA,TZ,4797.0,46532.0,46532.0,bumera,,34.28857,-1.291617,3,ward,mapping,2018.0,,,28,7,28,0,28,0,1,23137,0.25,0.0,0.0,0.2358490566037735,0.0,83,83,84
TZA,TZ,4797.0,46532.0,46532.0,bumera,,34.28857,-1.291617,3,ward,mapping,2018.0,,,30,2,30,0,30,0,1,23138,0.0666666666666666,0.0,0.0,0.0628930817610062,0.0,84,84,83
TZA,TZ,4797.0,46631.0,46631.0,bunda,,33.878,-2.017053,3,ward,mapping,2018.0,,,30,2,30,0,30,0,1,22899,0.0666666666666666,0.0,0.0,0.0628930817610062,0.36887106504158285,85,85,155
TZA,TZ,4797.0,46631.0,46631.0,bunda stoo,,33.86381,-2.013945,3,ward,mapping,2018.0,,,30,1,30,0,30,0,1,22902,0.0333333333333333,0.0,0.0,0.0314465408805031,0.0,86,86,87
TZA,TZ,4797.0,46631.0,46631.0,bunda stoo,,33.86381,-2.013945,3,ward,mapping,2018.0,,,30,0,30,0,30,0,1,22901,0.0,0.0,0.0,0.0,0.0,87,87,86
TZA,TZ,4801.0,46560.0,46560.0,bundilya,59667.0,33.337299,-2.57693,3,,,1997.0,,,118,41,118,0,118,0,3,15763,0.3474576271186441,0.0,0.0,0.3277902142628717,4686.308792407194,88,88,88
TZA,TZ,4791.0,46487.0,46487.0,bunena,,31.8153433,-1.3543817,3,school,sentinel site,2016.0,8.0,12.0,56,1,56,13,56,4,1,36794,0.0178571428571428,0.2321428571428571,0.0714285714285714,0.282756717916277,0.0,89,89,90
TZA,TZ,4791.0,46487.0,46487.0,bunena,,31.8153433,-1.3543817,3,school,sentinel site,2017.0,5.0,14.0,60,5,60,13,60,11,1,36795,0.0833333333333333,0.2166666666666666,0.1833333333333333,0.390177323549965,0.0,90,90,89
TZA,TZ,4791.0,46487.0,46487.0,bunena,,31.8153433,-1.3543817,3,school,sentinel site,2018.0,9.0,15.0,60,4,60,13,60,11,1,36796,0.0666666666666666,0.2166666666666666,0.1833333333333333,0.3801187980433262,0.0,91,91,89
TZA,TZ,4797.0,46525.0,46525.0,bunere,,33.4069983,-2.1534583,3,school,mapping,2017.0,11.0,15.0,30,0,30,0,30,0,1,36844,0.0,0.0,0.0,0.0,5348.430930151828,92,92,92
TZA,TZ,4797.0,46526.0,46526.0,buruma,,33.88461,-1.729997,3,ward,mapping,2018.0,,,30,4,30,0,30,0,1,22926,0.1333333333333333,0.0,0.0,0.1257861635220125,0.0,93,93,94
TZA,TZ,4797.0,46526.0,46526.0,buruma,,33.88461,-1.729997,3,ward,mapping,2018.0,,,30,0,30,0,30,0,1,22925,0.0,0.0,0.0,0.0,0.0,94,94,93
TZA,TZ,4797.0,46527.0,46527.0,burungu,,33.3141117,-1.9435,3,school,mapping,2017.0,11.0,15.0,30,0,30,0,30,0,1,36943,0.0,0.0,0.0,0.0,3602.6651065837004,95,95,95
TZA,TZ,4801.0,46560.0,46560.0,busalanga,59668.0,33.5598042,-2.6456882,1,,,1997.0,,,119,50,119,1,119,0,3,15767,0.4201680672268907,0.0084033613445378,0.0,0.4009817023368726,5473.124126666553,96,96,96
TZA,TZ,4797.0,46527.0,46527.0,busamba,,33.693985,-1.4968067,3,school,mapping,2017.0,11.0,15.0,30,0,30,0,30,0,1,36944,0.0,0.0,0.0,0.0,0.5575991117645507,97,97,163
TZA,TZ,4797.0,46527.0,46527.0,busambara,,33.67095,-1.734357,3,ward,mapping,2018.0,,,30,1,30,4,30,0,1,22964,0.0333333333333333,0.1333333333333333,0.0,0.1530398322851152,0.0,98,98,99
TZA,TZ,4797.0,46527.0,46527.0,busambara,,33.67095,-1.734357,3,ward,mapping,2018.0,,,30,0,30,0,30,0,1,22965,0.0,0.0,0.0,0.0,0.0,99,99,98
TZA,TZ,4797.0,46530.0,46530.0,busawe,,34.42384,-1.5888300000000002,3,ward,mapping,2018.0,,,30,0,30,2,30,0,1,23077,0.0,0.0666666666666666,0.0,0.0628930817610062,0.0,100,100,101
TZA,TZ,4797.0,46530.0,46530.0,busawe,,34.42384,-1.5888300000000002,3,ward,mapping,2018.0,,,30,0,30,0,30,0,1,23076,0.0,0.0,0.0,0.0,0.0,101,101,100
TZA,TZ,4797.0,46530.0,46530.0,busawe,,34.42384,-1.5888300000000002,3,school,mapping,2017.0,10.0,15.0,30,0,30,0,30,0,1,37080,0.0,0.0,0.0,0.0,0.0,102,102,100
TZA,TZ,4797.0,46526.0,46526.0,busegwa,,33.89349,-1.699192,3,ward,mapping,2018.0,,,29,0,29,0,29,0,1,22927,0.0,0.0,0.0,0.0,0.1921697895042344,103,103,883
TZA,TZ,4801.0,46560.0,46560.0,busekwa,59669.0,33.0382,-2.53353,3,,,1997.0,,,115,63,115,0,115,0,3,15747,0.5478260869565217,0.0,0.0,0.5168170631665299,1576.3759474883154,104,104,104
TZA,TZ,4801.0,46559.0,46559.0,bushini,59648.0,33.220402,-3.04375,3,,,2004.0,,,60,9,60,0,60,0,2,15740,0.15,0.0,0.0,0.1415094339622641,15066.18850884044,105,105,105
TZA,TZ,4810.0,46621.0,46621.0,bushiri,59786.0,38.955898,-5.3631301,3,,,1996.0,,,49,41,49,2,49,2,3,16026,0.8367346938775511,0.0408163265306122,0.0408163265306122,0.8016891306199108,3068.823838350366,106,106,106
TZA,TZ,4806.0,46591.0,46591.0,bushola,,33.4934433,-3.5014017,3,school,sentinel site,2018.0,9.0,15.0,60,1,60,0,60,0,1,37228,0.0166666666666666,0.0,0.0,0.0157232704402515,3379.5790237198444,107,107,107
TZA,TZ,4806.0,46591.0,46591.0,bushoma,59802.0,33.229,-3.66998,3,,,2004.0,,,61,22,61,0,61,0,2,15895,0.360655737704918,0.0,0.0,0.3402412619857717,16452.3965602563,108,108,108
TZA,TZ,4797.0,46525.0,46525.0,busore,,34.0736933,-1.9304883,3,school,mapping,2017.0,11.0,15.0,30,2,30,0,30,0,1,36845,0.0666666666666666,0.0,0.0,0.0628930817610062,0.3688709074586276,109,109,855
TZA,TZ,4797.0,46527.0,46527.0,bussekera,,33.3120317,-1.9112217,3,school,mapping,2017.0,11.0,15.0,30,0,30,0,30,0,1,36945,0.0,0.0,0.0,0.0,0.19217046746306835,110,110,72
TZA,TZ,4797.0,46527.0,46527.0,busungu,,33.3993217,-1.8362867,3,school,mapping,2017.0,11.0,15.0,29,2,29,0,29,0,1,36946,0.0689655172413793,0.0,0.0,0.0650618087182823,0.19217021797691256,111,111,79
TZA,TZ,4793.0,46502.0,46502.0,busunzu,,30.6003133,-3.9610183,3,school,sentinel site,2018.0,10.0,15.0,60,0,60,1,60,0,1,36828,0.0,0.0166666666666666,0.0,0.0157232704402515,0.0,112,112,113
TZA,TZ,4793.0,46502.0,46502.0,busunzu,,30.6003133,-3.9610183,3,school,sentinel site,2016.0,8.0,16.0,60,0,60,1,60,0,1,36824,0.0,0.0166666666666666,0.0,0.0157232704402515,0.0,113,113,112
TZA,TZ,4793.0,46502.0,46502.0,busunzu,,30.6003133,-3.9610183,3,school,sentinel site,2017.0,9.0,14.0,60,0,60,0,60,0,1,36825,0.0,0.0,0.0,0.0,0.0,114,114,112
TZA,TZ,4797.0,46526.0,46526.0,buswahili,,34.19166,-1.612183,3,ward,mapping,2018.0,,,30,0,30,0,30,0,1,22929,0.0,0.0,0.0,0.0,0.3688703862278851,115,115,447
TZA,TZ,4797.0,46631.0,46631.0,butakale,,33.8408367,-2.051545,3,school,mapping,2017.0,10.0,15.0,30,0,30,0,30,0,1,36887,0.0,0.0,0.0,0.0,4123.02306617298,116,116,116
TZA,TZ,4797.0,46527.0,46527.0,butata b,,33.4260317,-1.8286233,3,school,mapping,2017.0,11.0,15.0,30,0,30,0,30,0,1,36947,0.0,0.0,0.0,0.0,3093.424061748077,117,117,117
TZA,TZ,4797.0,46526.0,46526.0,butiama,,33.92113,-1.768567,3,ward,mapping,2018.0,,,30,2,30,0,30,0,1,22932,0.0666666666666666,0.0,0.0,0.0628930817610062,0.0,118,118,119
TZA,TZ,4797.0,46526.0,46526.0,butiama,,33.92113,-1.768567,3,ward,mapping,2018.0,,,29,1,29,0,29,0,1,22931,0.0344827586206896,0.0,0.0,0.0325309043591411,0.0,119,119,118
TZA,TZ,4797.0,46631.0,46631.0,butimba,,33.62526,-2.140518,3,ward,mapping,2018.0,,,30,0,30,0,30,0,1,22861,0.0,0.0,0.0,0.0,0.03341916544013657,120,120,76
TZA,TZ,4797.0,46526.0,46526.0,butuguri,,33.96207,-1.663873,3,ward,mapping,2018.0,,,30,1,30,0,30,0,1,22933,0.0333333333333333,0.0,0.0,0.0314465408805031,0.0,121,121,122
TZA,TZ,4797.0,46526.0,46526.0,butuguri,,33.96207,-1.663873,3,ward,mapping,2018.0,,,30,0,30,0,30,0,1,22934,0.0,0.0,0.0,0.0,0.0,122,122,121
TZA,TZ,4797.0,46526.0,46526.0,buturu,,33.9211267,-1.7685667,3,school,mapping,2017.0,11.0,15.0,29,1,29,0,29,0,1,36909,0.0344827586206896,0.0,0.0,0.0325309043591411,0.36887062935876064,123,123,118
TZA,TZ,4797.0,46526.0,46526.0,buzahya,,33.8846083,-1.7299967,3,school,mapping,2017.0,11.0,15.0,30,0,30,0,30,0,1,36910,0.0,0.0,0.0,0.0,0.1921698830942908,124,124,93
TZA,TZ,4797.0,46527.0,46527.0,bwai,,33.560385,-1.68934,3,school,sentinel site,2017.0,8.0,14.0,60,2,60,0,60,0,1,36949,0.0333333333333333,0.0,0.0,0.0314465408805031,0.0,125,125,126
TZA,TZ,4797.0,46527.0,46527.0,bwai,,33.560385,-1.68934,3,school,sentinel site,2016.0,7.0,13.0,60,0,60,0,60,0,1,36948,0.0,0.0,0.0,0.0,0.0,126,126,125
TZA,TZ,4797.0,46527.0,46527.0,bwai a,,33.560385,-1.68934,3,school,sentinel site,2018.0,9.0,15.0,60,0,60,0,60,0,1,36950,0.0,0.0,0.0,0.0,0.0,127,127,125
TZA,TZ,4797.0,46527.0,46527.0,bwai b,,33.5619283,-1.68946,3,school,mapping,2017.0,11.0,15.0,30,0,30,0,30,0,1,36951,0.0,0.0,0.0,0.0,172.3183798367626,128,128,128
TZA,TZ,4797.0,46527.0,46527.0,bwasi,,33.32435,-1.853517,3,ward,mapping,2018.0,,,30,1,30,0,30,0,1,22966,0.0333333333333333,0.0,0.0,0.0314465408805031,0.0,129,129,130
TZA,TZ,4797.0,46527.0,46527.0,bwasi,,33.32435,-1.853517,3,ward,mapping,2018.0,,,30,0,30,0,30,0,1,22967,0.0,0.0,0.0,0.0,0.0,130,130,129
TZA,TZ,4797.0,46527.0,46527.0,bwenda b,,33.442625,-1.8644317,3,school,mapping,2017.0,11.0,15.0,30,0,30,2,30,0,1,36952,0.0,0.0666666666666666,0.0,0.0628930817610062,0.5575994890931237,131,131,960
TZA,TZ,4789.0,46477.0,46477.0,bwera,59565.0,31.682199,-2.9888101,3,,,2004.0,,,60,45,60,1,60,1,2,15644,0.75,0.0166666666666666,0.0166666666666666,0.7153432914046121,6128.672283652975,132,132,132
TZA,TZ,4797.0,46528.0,46528.0,bweri,,33.81339,-1.549167,3,ward,mapping,2018.0,,,27,0,27,3,27,0,1,23002,0.0,0.1111111111111111,0.0,0.1048218029350104,0.0,133,133,134
TZA,TZ,4797.0,46528.0,46528.0,bweri,,33.81339,-1.549167,3,school,mapping,2017.0,9.0,15.0,27,0,27,3,27,0,1,36997,0.0,0.1111111111111111,0.0,0.1048218029350104,0.0,134,134,133
TZA,TZ,4797.0,46528.0,46528.0,bweri,,33.81339,-1.549167,3,ward,mapping,2018.0,,,30,0,30,3,30,0,1,23001,0.0,0.1,0.0,0.0943396226415094,0.0,135,135,133
TZA,TZ,4797.0,46528.0,46528.0,bweri,,33.81339,-1.549167,3,ward,mapping,2018.0,,,30,0,30,1,30,0,1,23000,0.0,0.0333333333333333,0.0,0.0314465408805031,0.0,136,136,133
TZA,TZ,4797.0,46528.0,46528.0,bweri,,33.81339,-1.549167,3,school,sentinel site,2018.0,9.0,15.0,57,0,57,4,57,0,1,36996,0.0,0.0701754385964912,0.0,0.0662032439589539,0.0,137,137,133
TZA,TZ,4797.0,46528.0,46528.0,bweri,,33.81339,-1.549167,3,school,sentinel site,2017.0,8.0,13.0,60,0,60,0,60,0,1,36995,0.0,0.0,0.0,0.0,0.0,138,138,133
TZA,TZ,4797.0,46528.0,46528.0,bweri,,33.81339,-1.549167,3,school,sentinel site,2016.0,7.0,13.0,55,0,55,0,55,0,1,36994,0.0,0.0,0.0,0.0,0.0,139,139,133
TZA,TZ,4797.0,46526.0,46526.0,bwiregi,,34.06585,-1.588788,3,ward,mapping,2018.0,,,30,1,30,0,30,0,1,22936,0.0333333333333333,0.0,0.0,0.0314465408805031,0.0,140,140,141
TZA,TZ,4797.0,46526.0,46526.0,bwiregi,,34.06585,-1.588788,3,ward,mapping,2018.0,,,30,0,30,0,30,0,1,22935,0.0,0.0,0.0,0.0,0.0,141,141,140
TZA,TZ,4797.0,46530.0,46530.0,bwitengi,,34.66069,-1.8950183,3,school,mapping,2017.0,10.0,14.0,30,0,30,0,30,0,1,37081,0.0,0.0,0.0,0.0,5077.135921247714,142,142,142
TZA,TZ,4810.0,46619.0,46619.0,bwiti,59740.0,38.816667,-4.783333,1,,,1996.0,,,45,20,45,6,45,10,3,16017,0.4444444444444444,0.1333333333333333,0.2222222222222222,0.590107927634133,5145.25812664042,143,143,143
TZA,TZ,4791.0,46489.0,46489.0,chabuhora,59613.0,30.9751,-1.81133,3,,,2004.0,,,60,50,60,0,60,0,2,15686,0.8333333333333334,0.0,0.0,0.7861635220125786,12853.918521371348,144,144,144
TZA,TZ,4797.0,46525.0,46525.0,chamakapo,,33.511495,-2.100875,3,school,mapping,2017.0,11.0,15.0,30,0,30,0,30,0,1,36846,0.0,0.0,0.0,0.0,0.5565974535420537,145,145,753
TZA,TZ,4791.0,46489.0,46489.0,chamchuzi,,30.85969,-1.81501,3,school,sentinel site,2017.0,9.0,15.0,60,5,60,2,60,1,1,36801,0.0833333333333333,0.0333333333333333,0.0166666666666666,0.1213749126484975,0.0,146,146,147
TZA,TZ,4791.0,46489.0,46489.0,chamchuzi,,30.85969,-1.81501,3,school,sentinel site,2018.0,10.0,15.0,60,0,60,2,60,0,1,36804,0.0,0.0333333333333333,0.0,0.0314465408805031,0.0,147,147,146
TZA,TZ,4791.0,46489.0,46489.0,chamchuzi,,30.85969,-1.81501,3,school,sentinel site,2016.0,6.0,14.0,53,0,53,1,53,0,1,36800,0.0,0.0188679245283018,0.0,0.0177999288002847,0.0,148,148,146
TZA,TZ,4797.0,46525.0,46525.0,chamtigiti,,34.0563917,-1.9982517,3,school,mapping,2017.0,12.0,15.0,30,0,30,0,30,0,1,36847,0.0,0.0,0.0,0.0,2843.7411853018093,149,149,149
TZA,TZ,4801.0,46560.0,46560.0,chandulu,59670.0,33.602699,-2.6696899,3,,,1997.0,,,120,62,120,0,120,0,3,15765,0.5166666666666667,0.0,0.0,0.4874213836477987,2017.5196208925493,150,150,150
TZA,TZ,4797.0,46631.0,46631.0,changuge,,33.980625,-2.0271283,3,school,mapping,2017.0,10.0,15.0,30,1,30,0,30,0,1,36888,0.0333333333333333,0.0,0.0,0.0314465408805031,0.5575996812648673,151,151,562
TZA,TZ,4809.0,46610.0,46610.0,chekeleni,59846.0,32.004799,-5.0475202,3,,,2004.0,,,60,28,60,0,60,0,2,15982,0.4666666666666667,0.0,0.0,0.440251572327044,7145.703777588817,152,152,152
TZA,TZ,4806.0,46591.0,46591.0,chibe,,33.35764,-3.59736,3,school,sentinel site,2018.0,9.0,15.0,60,0,60,0,60,0,1,37229,0.0,0.0,0.0,0.0,2294.7318459681383,153,153,153
TZA,TZ,4797.0,46527.0,46527.0,chimati b,,33.3504817,-1.8832733,3,school,mapping,2017.0,10.0,15.0,30,0,30,0,30,0,1,36953,0.0,0.0,0.0,0.0,0.1921703737050727,154,154,513
TZA,TZ,4797.0,46631.0,46631.0,chiringe b,,33.8779967,-2.0170533,3,school,mapping,2017.0,10.0,15.0,30,2,30,0,30,0,1,36889,0.0666666666666666,0.0,0.0,0.0628930817610062,0.36887106504158285,155,155,85
TZA,TZ,4797.0,46527.0,46527.0,chirorwe,,33.6726183,-1.8200583,3,school,mapping,2017.0,12.0,15.0,30,0,30,1,30,0,1,36954,0.0,0.0333333333333333,0.0,0.0314465408805031,4132.2900733954075,156,156,156
TZA,TZ,4797.0,46631.0,46631.0,chitengule,,33.43539,-2.109638,3,ward,mapping,2018.0,,,30,0,30,0,30,0,1,22863,0.0,0.0,0.0,0.0,0.03341849660500884,157,157,742
TZA,TZ,4807.0,46595.0,46595.0,chumve,59530.0,33.709599,-2.2774401,3,,,1997.0,,,119,35,119,0,119,0,3,15906,0.2941176470588235,0.0,0.0,0.2774694783573806,1302.3981753765447,158,158,158
TZA,TZ,4810.0,46619.0,46619.0,daluni,59741.0,38.771198,-4.7750602,3,,,1996.0,,,51,34,51,2,51,14,3,16016,0.6666666666666666,0.0392156862745098,0.2745098039215686,0.7242013835994379,5145.25812664042,159,159,159
TZA,TZ,4797.0,46531.0,46531.0,destiny,,34.596485,-1.3505167,3,school,mapping,2017.0,11.0,15.0,30,0,30,0,30,0,1,37150,0.0,0.0,0.0,0.0,563.7931874522036,160,160,160
TZA,TZ,4797.0,46530.0,46530.0,enyamai,,34.6542683,-1.8264683,3,school,mapping,2017.0,11.0,15.0,30,0,30,0,30,0,1,37082,0.0,0.0,0.0,0.0,2354.462978846232,161,161,161
TZA,TZ,4797.0,46529.0,46529.0,erengo,,33.9618117,-1.3672133,3,school,mapping,2017.0,11.0,15.0,30,0,30,0,30,0,1,37026,0.0,0.0,0.0,0.0,458.97477357235704,162,162,162
TZA,TZ,4797.0,46527.0,46527.0,etaro,,33.69398,-1.496807,3,ward,mapping,2018.0,,,30,15,30,1,30,0,1,22969,0.5,0.0333333333333333,0.0,0.4874213836477986,0.0,163,163,164
TZA,TZ,4797.0,46527.0,46527.0,etaro,,33.69398,-1.496807,3,ward,mapping,2018.0,,,30,0,30,0,30,0,1,22968,0.0,0.0,0.0,0.0,0.0,164,164,163
TZA,TZ,4797.0,46530.0,46530.0,fort ikoma,,34.6382883,-2.0847183,3,school,mapping,2017.0,9.0,14.0,30,0,30,0,30,0,1,37083,0.0,0.0,0.0,0.0,0.19217107998674518,165,165,211
TZA,TZ,4797.0,46529.0,46529.0,gabimori,,33.9197867,-1.274335,3,school,mapping,2017.0,11.0,15.0,30,2,30,0,30,0,1,37027,0.0666666666666666,0.0,0.0,0.0628930817610062,0.3673543184995651,166,166,475
TZA,TZ,4801.0,46560.0,46560.0,galamugi (nyang'hang,59671.0,33.498699,-2.6884301,3,,,1997.0,,,121,75,121,0,121,0,3,15753,0.6198347107438017,0.0,0.0,0.584749727116794,6202.045943659101,167,167,167
TZA,TZ,4797.0,46532.0,46532.0,ganyange,,34.59833,-1.355233,3,ward,mapping,2018.0,,,30,0,30,1,30,0,1,23140,0.0,0.0333333333333333,0.0,0.0314465408805031,0.0,168,168,169
TZA,TZ,4797.0,46532.0,46532.0,ganyange,,34.59833,-1.355233,3,ward,mapping,2018.0,,,30,0,30,0,30,0,1,23139,0.0,0.0,0.0,0.0,0.0,169,169,168
TZA,TZ,4797.0,46530.0,46530.0,gesarya,,34.6206167,-1.7086633,3,school,mapping,2017.0,10.0,15.0,30,0,30,0,30,0,1,37084,0.0,0.0,0.0,0.0,0.36887053466530145,170,170,957
TZA,TZ,4797.0,46530.0,46530.0,getasamo,,34.62414,-1.783518,3,ward,mapping,2018.0,,,31,0,31,0,31,0,1,23078,0.0,0.0,0.0,0.0,0.19217004970399706,171,171,233
TZA,TZ,4797.0,46531.0,46531.0,gibasisi,,34.6732517,-1.432715,3,school,mapping,2017.0,10.0,15.0,30,0,30,0,30,0,1,37151,0.0,0.0,0.0,0.0,0.1892431345768273,172,172,176
TZA,TZ,4807.0,46595.0,46595.0,gininiga,59531.0,33.7,-2.433333,1,,,1997.0,,,118,50,118,0,118,0,3,15923,0.423728813559322,0.0,0.0,0.3997441637352094,2996.209190673623,173,173,173
TZA,TZ,4797.0,46529.0,46529.0,goribe,,34.22543,-1.137095,3,ward,mapping,2018.0,,,30,5,30,1,30,1,1,23030,0.1666666666666666,0.0333333333333333,0.0333333333333333,0.2087700908455625,0.0,174,174,175
TZA,TZ,4797.0,46529.0,46529.0,goribe,,34.22543,-1.137095,3,ward,mapping,2018.0,,,30,0,30,0,30,0,1,23029,0.0,0.0,0.0,0.0,0.0,175,175,174
TZA,TZ,4797.0,46532.0,46532.0,gorong'a,,34.67325,-1.432715,3,ward,mapping,2018.0,,,30,1,30,0,30,0,1,23142,0.0333333333333333,0.0,0.0,0.0314465408805031,0.0,176,176,177
TZA,TZ,4797.0,46532.0,46532.0,gorong'a,,34.67325,-1.432715,3,ward,mapping,2018.0,,,30,0,30,0,30,0,1,23141,0.0,0.0,0.0,0.0,0.0,177,177,176
TZA,TZ,4809.0,46611.0,46611.0,goweko,59852.0,33.133333,-5.333333,1,,,2004.0,,,61,32,61,0,61,0,2,15992,0.5245901639344263,0.0,0.0,0.4948963810702134,19666.459379805692,178,178,178
TZA,TZ,4807.0,46595.0,46595.0,gusama,59532.0,33.8214,-2.35903,3,,,1997.0,,,113,42,113,0,113,0,3,15917,0.3716814159292035,0.0,0.0,0.3506428452162297,5572.130475826132,179,179,179
TZA,TZ,4797.0,46631.0,46631.0,guta,,33.71536,-2.020932,3,ward,mapping,2018.0,,,30,0,30,0,30,0,1,22903,0.0,0.0,0.0,0.0,0.1921708491367832,180,180,354
TZA,TZ,4797.0,46631.0,46631.0,guta b,,33.7296683,-2.076155,3,school,mapping,2017.0,11.0,15.0,30,0,30,0,30,0,1,36890,0.0,0.0,0.0,0.0,5781.209884161416,181,181,181
TZA,TZ,4797.0,46531.0,46531.0,gwitiryo,,34.48467,-1.2689267,3,school,mapping,2017.0,11.0,15.0,30,0,30,0,30,0,1,37152,0.0,0.0,0.0,0.0,0.0334040395100601,182,182,942
TZA,TZ,4797.0,46631.0,46631.0,hunyari,,34.1476,-1.975975,3,ward,mapping,2018.0,,,30,1,30,0,30,0,1,22866,0.0333333333333333,0.0,0.0,0.0314465408805031,0.0,183,183,184
TZA,TZ,4797.0,46631.0,46631.0,hunyari,,34.1476,-1.975975,3,ward,mapping,2018.0,,,30,0,30,0,30,0,1,22865,0.0,0.0,0.0,0.0,0.0,184,184,183
TZA,TZ,4806.0,46643.0,46643.0,ibambala,,32.2537486,-4.1338126,3,school,sentinel site,2018.0,10.0,15.0,60,1,60,0,60,0,1,37240,0.0166666666666666,0.0,0.0,0.0157232704402515,12177.455975177649,185,185,185
TZA,TZ,4791.0,46493.0,46493.0,ibuga,,30.4928467,-2.656275,3,school,sentinel site,2017.0,8.0,14.0,62,0,62,14,62,1,1,36813,0.0,0.2258064516129032,0.0161290322580645,0.224805136159268,0.0,186,186,187
TZA,TZ,4791.0,46493.0,46493.0,ibuga,,30.4928467,-2.656275,3,school,sentinel site,2016.0,10.0,15.0,59,41,59,4,59,4,1,36812,0.6949152542372882,0.0677966101694915,0.0677966101694915,0.6932833885480197,0.0,187,187,186
TZA,TZ,4791.0,46493.0,46493.0,ibuga,,30.4928467,-2.656275,3,school,sentinel site,2018.0,10.0,15.0,60,1,60,1,60,0,1,36816,0.0166666666666666,0.0166666666666666,0.0,0.0311844863731656,0.0,188,188,186
TZA,TZ,4809.0,46606.0,46606.0,ichemba,59605.0,32.3559,-4.7526698,3,,,2004.0,,,60,26,60,0,60,0,2,15952,0.4333333333333333,0.0,0.0,0.4088050314465408,7224.875743902672,189,189,189
TZA,TZ,4806.0,46590.0,46590.0,idukilo,,33.5421333,-3.50588,3,school,sentinel site,2017.0,9.0,13.0,61,0,61,2,61,0,1,37223,0.0,0.0327868852459016,0.0,0.0309310238168883,0.0,190,190,191
TZA,TZ,4806.0,46590.0,46590.0,idukilo,,33.5421333,-3.50588,3,school,sentinel site,2016.0,7.0,15.0,54,0,54,1,54,0,1,37222,0.0,0.0185185185185185,0.0,0.0174703004891684,0.0,191,191,190
TZA,TZ,4806.0,46590.0,46590.0,idukilo,,33.5421333,-3.50588,3,school,sentinel site,2018.0,10.0,15.0,60,0,60,0,60,0,1,37226,0.0,0.0,0.0,0.0,0.0,192,192,190
TZA,TZ,4789.0,46480.0,46480.0,ifugandi,59778.0,32.649502,-3.0393801,3,,,2004.0,,,60,40,60,0,60,0,2,15665,0.6666666666666666,0.0,0.0,0.6289308176100628,10094.349491426496,193,193,193
TZA,TZ,4797.0,46527.0,46527.0,ifulifu,,33.71062,-1.623833,3,ward,mapping,2018.0,,,28,0,28,3,28,0,1,22970,0.0,0.1071428571428571,0.0,0.1010781671159029,0.0,194,194,195
TZA,TZ,4797.0,46527.0,46527.0,ifulifu,,33.71062,-1.623833,3,ward,mapping,2018.0,,,30,0,30,3,30,0,1,22971,0.0,0.1,0.0,0.0943396226415094,0.0,195,195,194
TZA,TZ,4809.0,46606.0,46606.0,igagala,59606.0,31.6306,-4.93329,3,,,2004.0,,,60,24,60,0,60,0,2,15953,0.4,0.0,0.0,0.3773584905660377,22953.257553902327,196,196,196
TZA,TZ,4807.0,46595.0,46595.0,igalukio (nyangili),59533.0,33.771,-2.41904,3,,,1997.0,,,114,20,114,0,114,0,3,15905,0.175438596491228,0.0,0.0,0.1655081098973849,5789.16383077283,197,197,197
TZA,TZ,4801.0,46560.0,46560.0,igekemaja,59673.0,33.056702,-2.6040299,3,,,2004.0,,,60,41,60,4,60,0,2,15766,0.6833333333333333,0.0666666666666666,0.0,0.6645702306079664,0.0,198,198,199
TZA,TZ,4801.0,46560.0,46560.0,igekemaja,59672.0,33.056702,-2.6040299,3,,,1997.0,,,119,48,119,0,119,0,3,15778,0.4033613445378151,0.0,0.0,0.3805295703186935,0.0,199,199,198
TZA,TZ,4797.0,46530.0,46530.0,igina,,34.6669917,-1.80958,3,school,mapping,2017.0,10.0,15.0,30,0,30,0,30,0,1,37085,0.0,0.0,0.0,0.0,0.1892431336455047,200,200,552
TZA,TZ,4809.0,46605.0,46605.0,igogo,59582.0,33.7631,-4.2953401,3,,,2004.0,,,61,8,61,2,61,0,2,15943,0.1311475409836065,0.0327868852459016,0.0,0.1505985913707514,31946.200981935235,201,201,201
TZA,TZ,4791.0,46487.0,46487.0,igoma,59516.0,31.459,-1.5506999,3,,,2004.0,,,60,37,60,0,60,7,2,15679,0.6166666666666667,0.0,0.1166666666666666,0.6239517819706498,16175.35027463843,202,202,202
TZA,TZ,4801.0,46560.0,46560.0,igombe,59674.0,32.95,-2.4,1,,,1997.0,,,113,28,113,0,113,1,3,15762,0.247787610619469,0.0,0.0088495575221238,0.2400418466303266,13094.42496909415,203,203,203
TZA,TZ,4797.0,46631.0,46631.0,igundu,,33.30492,-2.044617,3,ward,mapping,2018.0,,,28,2,28,0,28,0,1,22869,0.0714285714285714,0.0,0.0,0.0673854447439353,0.0,204,204,205
TZA,TZ,4797.0,46631.0,46631.0,igundu,,33.30492,-2.044617,3,ward,mapping,2018.0,,,30,2,30,0,30,0,1,22868,0.0666666666666666,0.0,0.0,0.0628930817610062,0.0,205,205,204
TZA,TZ,4801.0,46560.0,46560.0,ihale,59675.0,33.516667,-2.6,1,,,1997.0,,,121,32,121,1,121,0,3,15774,0.2644628099173554,0.0082644628099173,0.0,0.2552279525189664,2399.2818046215975,206,206,206
TZA,TZ,4806.0,46591.0,46591.0,ihalo,59803.0,33.028599,-3.7344301,3,,,2004.0,,,60,24,60,0,60,0,2,15896,0.4,0.0,0.0,0.3773584905660377,15062.1533148983,207,207,207
TZA,TZ,4797.0,46530.0,46530.0,iharara,,34.328775,-2.0124083,3,school,mapping,2017.0,11.0,15.0,31,0,31,0,31,0,1,37086,0.0,0.0,0.0,0.0,0.5575996641597484,208,208,741
TZA,TZ,4789.0,46480.0,46480.0,ihushi,59779.0,32.521599,-3.0236399,3,,,2004.0,,,60,42,60,0,60,0,2,15667,0.7,0.0,0.0,0.6603773584905659,14345.80725237543,209,209,209
TZA,TZ,4797.0,46529.0,46529.0,ikoma (rorya dc),,34.30367,-1.173647,3,ward,mapping,2018.0,,,28,0,28,0,28,0,1,23031,0.0,0.0,0.0,0.0,0.3688698234416949,210,210,442
TZA,TZ,4797.0,46530.0,46530.0,ikoma (serengeti dc),,34.63829,-2.084718,3,ward,mapping,2018.0,,,30,0,30,0,30,0,1,23080,0.0,0.0,0.0,0.0,0.19217107998674518,211,211,165
TZA,TZ,4797.0,46530.0,46530.0,ikorongo,,34.4238417,-1.5888300000000002,3,school,mapping,2017.0,11.0,15.0,30,0,30,2,30,0,1,37087,0.0,0.0666666666666666,0.0,0.0628930817610062,0.1892431336455047,212,212,100
TZA,TZ,4801.0,46560.0,46560.0,ilendeja,59676.0,33.042099,-2.5471301,3,,,1997.0,,,117,46,117,0,117,1,3,15750,0.3931623931623931,0.0,0.0085470085470085,0.3758009805421513,1576.3759474883154,213,213,213
TZA,TZ,4801.0,46560.0,46560.0,ilumya,59677.0,33.44619,-2.5897521,1,,,1997.0,,,125,33,125,0,125,1,3,15769,0.264,0.0,0.008,0.254611320754717,6265.178795093669,214,214,214
TZA,TZ,4797.0,46528.0,46528.0,imanuel,,33.7881033,-1.52143,3,school,mapping,2017.0,11.0,15.0,30,0,30,0,30,0,1,36998,0.0,0.0,0.0,0.0,1208.8865025088874,215,215,215
TZA,TZ,4809.0,46606.0,46606.0,imara,59607.0,32.232899,-4.5377002,3,,,2004.0,,,60,23,60,0,60,0,2,15949,0.3833333333333333,0.0,0.0,0.3616352201257861,19146.54628652401,216,216,216
TZA,TZ,4797.0,46529.0,46529.0,ingri chini,,34.1703667,-1.2898583,3,school,mapping,2017.0,10.0,15.0,30,2,30,0,30,0,1,37028,0.0666666666666666,0.0,0.0,0.0628930817610062,5716.417665957813,217,217,217
TZA,TZ,4806.0,46643.0,46643.0,iponyanholo,59596.0,32.340199,-3.8712201,3,,,2004.0,,,61,55,61,0,61,0,2,15879,0.9016393442622952,0.0,0.0,0.8506031549644293,5395.841401913918,218,218,218
TZA,TZ,4797.0,46631.0,46631.0,iramba,,33.43499,-2.0295,3,ward,mapping,2018.0,,,30,0,30,0,30,0,1,22870,0.0,0.0,0.0,0.0,0.367354319896549,219,219,731
TZA,TZ,4797.0,46530.0,46530.0,iramba,,34.28343,-1.6938282999999998,3,school,mapping,2017.0,12.0,15.0,30,0,30,0,30,0,1,37088,0.0,0.0,0.0,0.0,3202.980144693936,220,220,220
TZA,TZ,4797.0,46528.0,46528.0,iringo,,33.8047,-1.499827,3,ward,mapping,2018.0,,,29,0,29,2,29,0,1,23004,0.0,0.0689655172413793,0.0,0.0650618087182823,0.0,221,221,222
TZA,TZ,4797.0,46528.0,46528.0,iringo,,33.8047,-1.499827,3,ward,mapping,2018.0,,,29,0,29,0,29,0,1,23003,0.0,0.0,0.0,0.0,0.0,222,222,221
TZA,TZ,4797.0,46528.0,46528.0,iringo a,,33.804715,-1.49922,3,school,mapping,2017.0,10.0,15.0,29,0,29,0,29,0,1,36999,0.0,0.0,0.0,0.0,67.57322477605744,223,223,223
TZA,TZ,4797.0,46528.0,46528.0,iringo b,,33.8047033,-1.4998266999999998,3,school,mapping,2017.0,9.0,15.0,29,0,29,2,29,0,1,37000,0.0,0.0689655172413793,0.0,0.0650618087182823,0.36887022585661094,224,224,221
TZA,TZ,4791.0,46486.0,46486.0,isambara,,31.561535,-2.890255,3,school,sentinel site,2016.0,9.0,16.0,60,36,60,0,60,1,1,36788,0.6,0.0,0.0166666666666666,0.5723270440251572,0.0,225,225,226
TZA,TZ,4791.0,46486.0,46486.0,isambara,,31.561535,-2.890255,3,school,sentinel site,2017.0,9.0,14.0,60,5,60,0,60,0,1,36789,0.0833333333333333,0.0,0.0,0.0786163522012578,0.0,226,226,225
TZA,TZ,4791.0,46486.0,46486.0,isambara,,31.561535,-2.890255,3,school,sentinel site,2018.0,10.0,15.0,60,3,60,0,60,0,1,36792,0.05,0.0,0.0,0.0471698113207547,0.0,227,227,225
TZA,TZ,4797.0,46530.0,46530.0,iseresere,,34.3751483,-1.5774133,3,school,mapping,2017.0,11.0,15.0,30,0,30,0,30,0,1,37089,0.0,0.0,0.0,0.0,0.19216943646995888,228,228,510
TZA,TZ,4809.0,46609.0,46609.0,isike,59828.0,32.8103149,-5.0229931,1,,,2004.0,,,62,5,62,0,62,0,2,15980,0.0806451612903225,0.0,0.0,0.0760803408399269,16749.496690483247,229,229,229
TZA,TZ,4797.0,46530.0,46530.0,issenye,,34.33144,-1.97159,3,ward,mapping,2018.0,,,30,0,30,0,30,0,1,23081,0.0,0.0,0.0,0.0,0.3673543189652264,230,230,840
TZA,TZ,4809.0,46609.0,46609.0,itaga,59829.0,32.730808,-4.89573,1,,,2004.0,,,60,27,60,0,60,0,2,15981,0.45,0.0,0.0,0.4245283018867924,16749.496690483247,231,231,231
TZA,TZ,4797.0,46532.0,46532.0,itiryo,,34.6814,-1.4123,3,ward,mapping,2018.0,,,30,0,30,0,30,0,1,23143,0.0,0.0,0.0,0.0,0.3673543184995651,232,232,269
TZA,TZ,4797.0,46530.0,46530.0,itununu,,34.6241417,-1.7835183,3,school,mapping,2017.0,10.0,15.0,31,0,31,0,31,0,1,37090,0.0,0.0,0.0,0.0,0.19217004970399706,233,233,171
TZA,TZ,4807.0,46597.0,46597.0,jija 'a',59705.0,33.612202,-2.85461,3,,,2004.0,,,60,14,60,0,60,0,2,15932,0.2333333333333333,0.0,0.0,0.220125786163522,12705.54231078261,234,234,234
TZA,TZ,4809.0,46610.0,46610.0,jionee,59847.0,32.169399,-4.9394999,3,,,2004.0,,,60,18,60,0,60,0,2,15983,0.3,0.0,0.0,0.2830188679245282,14880.3100557805,235,235,235
TZA,TZ,4807.0,46595.0,46595.0,jisesa,59534.0,33.8526,-2.5138099,3,,,1997.0,,,116,13,116,0,116,1,3,15909,0.1120689655172413,0.0,0.0086206896551724,0.1129467390572768,1927.113409870896,236,236,236
TZA,TZ,4801.0,46560.0,46560.0,kabale,59678.0,29.9856157,-1.241956,1,,,1997.0,,,118,61,118,0,118,0,3,15755,0.5169491525423728,0.0,0.0,0.4876878797569554,94588.5181984899,237,237,237
TZA,TZ,4791.0,46487.0,46487.0,kabalenzi,59517.0,31.5236,-1.38827,3,,,2004.0,,,60,39,60,11,60,18,2,15681,0.65,0.1833333333333333,0.3,0.7546383647798742,15733.273726088108,238,238,238
TZA,TZ,4797.0,46631.0,46631.0,kabarimu b,,33.8728333,-2.018335,3,school,mapping,2017.0,10.0,15.0,30,2,30,0,30,0,1,36891,0.0666666666666666,0.0,0.0,0.0628930817610062,592.2520539405939,239,239,239
TZA,TZ,4797.0,46631.0,46631.0,kabasa,,33.8221,-1.99453,3,ward,mapping,2018.0,,,29,0,29,0,29,0,1,22906,0.0,0.0,0.0,0.0,0.3673543203622103,240,240,895
TZA,TZ,4807.0,46595.0,46595.0,kabatia,59535.0,33.6394,-2.3257201,3,,,1997.0,,,119,40,119,0,119,0,3,15914,0.3361344537815126,0.0,0.0,0.3171079752655779,8570.68899212874,241,241,241
TZA,TZ,4801.0,46560.0,46560.0,kabila,59679.0,33.615501,-2.7230899,3,,,1997.0,,,117,39,117,0,117,0,3,15746,0.3333333333333333,0.0,0.0,0.3144654088050314,4393.444417984758,242,242,242
TZA,TZ,4791.0,46486.0,46486.0,kabindi,59508.0,31.463301,-2.7959599,3,,,2004.0,,,60,50,60,1,60,1,2,15673,0.8333333333333334,0.0166666666666666,0.0166666666666666,0.7913609364081062,4847.03110780078,243,243,243
TZA,TZ,4797.0,46525.0,46525.0,kabirizi,,33.2615183,-2.09577,3,school,mapping,2017.0,10.0,15.0,30,0,30,0,30,0,1,36848,0.0,0.0,0.0,0.0,0.1892431336455047,244,244,745
TZA,TZ,4789.0,46477.0,46477.0,kachwamba,59567.0,31.5781,-2.65272,3,,,2004.0,,,60,32,60,0,60,0,2,15642,0.5333333333333333,0.0,0.0,0.5031446540880502,5941.419154696341,245,245,245
TZA,TZ,4791.0,46489.0,46489.0,kafungo,,30.8917567,-1.59187,3,school,sentinel site,2017.0,8.0,14.0,60,2,60,2,60,1,1,36803,0.0333333333333333,0.0333333333333333,0.0166666666666666,0.0765373864430468,0.0,246,246,247
TZA,TZ,4791.0,46489.0,46489.0,kafungo,,30.8917567,-1.59187,3,school,sentinel site,2018.0,10.0,15.0,60,2,60,0,60,1,1,36805,0.0333333333333333,0.0,0.0166666666666666,0.0466457023060796,0.0,247,247,246
TZA,TZ,4791.0,46489.0,46489.0,kafungo,,30.8917567,-1.59187,3,school,sentinel site,2016.0,9.0,14.0,55,0,55,0,55,0,1,36802,0.0,0.0,0.0,0.0,0.0,248,248,246
TZA,TZ,4793.0,46503.0,46503.0,kagera,,29.698985,-4.9148817,3,school,sentinel site,2018.0,9.0,15.0,60,5,60,2,60,1,1,36841,0.0833333333333333,0.0333333333333333,0.0166666666666666,0.1213749126484975,0.0,249,249,250
TZA,TZ,4793.0,46503.0,46503.0,kagera,,29.698985,-4.9148817,3,school,sentinel site,2017.0,9.0,15.0,60,2,60,2,60,8,1,36839,0.0333333333333333,0.0333333333333333,0.1333333333333333,0.1793850454227812,0.0,250,250,249
TZA,TZ,4793.0,46503.0,46503.0,kagera,,29.698985,-4.9148817,3,school,sentinel site,2016.0,9.0,14.0,58,11,58,0,58,1,1,36838,0.1896551724137931,0.0,0.0172413793103448,0.1921005990173423,0.0,251,251,249
TZA,TZ,4791.0,46486.0,46486.0,kagoma,59509.0,31.716667,-1.733333,1,,,2004.0,,,60,47,60,3,60,0,2,15677,0.7833333333333333,0.05,0.0,0.7492138364779873,13735.79924601897,252,252,252
TZA,TZ,4801.0,46563.0,46563.0,kalebezo,59796.0,32.65,-2.5027563,1,,,2004.0,,,60,29,60,0,60,0,2,15800,0.4833333333333333,0.0,0.0,0.4559748427672955,10869.173515347988,253,253,253
TZA,TZ,4809.0,46610.0,46610.0,kalemela,59848.0,32.048302,-5.0005002,3,,,2004.0,,,60,25,60,0,60,0,2,15987,0.4166666666666667,0.0,0.0,0.3930817610062893,7145.703777588817,254,254,254
TZA,TZ,4809.0,46605.0,46605.0,kalemela,59583.0,33.448898,-4.5430398,3,,,2004.0,,,60,26,60,0,60,0,2,15942,0.4333333333333333,0.0,0.0,0.4088050314465408,13026.101807434936,255,255,255
TZA,TZ,4809.0,46606.0,46606.0,kaliua,59608.0,31.7936207,-5.0590626,1,,,2004.0,,,63,25,63,0,63,0,2,15946,0.3968253968253968,0.0,0.0,0.3743635819107516,1407.7387248058278,256,256,256
TZA,TZ,4797.0,46527.0,46527.0,kamatondo,,33.6569167,-1.87591,3,school,mapping,2017.0,10.0,15.0,29,3,29,1,29,0,1,36955,0.1034482758620689,0.0344827586206896,0.0,0.1267583514683777,0.367354319896549,257,257,826
TZA,TZ,4797.0,46530.0,46530.0,kambarage,,34.6845933,-1.833015,3,school,mapping,2017.0,10.0,15.0,30,1,30,0,30,0,1,37091,0.0333333333333333,0.0,0.0,0.0314465408805031,0.3673543203622103,258,258,1015
TZA,TZ,4797.0,46528.0,46528.0,kambarage a,,33.8305,-1.53617,3,school,mapping,2017.0,10.0,14.0,30,0,30,1,30,0,1,37001,0.0,0.0333333333333333,0.0,0.0314465408805031,2391.73170163315,259,259,259
TZA,TZ,4797.0,46525.0,46525.0,kambubu,,33.9978867,-1.9402417,3,school,mapping,2017.0,10.0,15.0,30,0,30,0,30,0,1,36849,0.0,0.0,0.0,0.0,0.3688709238893798,260,260,819
TZA,TZ,4797.0,46526.0,46526.0,kamimange,,34.10489,-1.8048083,3,school,mapping,2017.0,10.0,15.0,29,3,29,0,29,0,1,36911,0.1034482758620689,0.0,0.0,0.0975927130774235,0.03341242321766913,261,261,592
TZA,TZ,4797.0,46526.0,46526.0,kamugegi,,33.7927183,-1.7343067,3,school,mapping,2017.0,11.0,15.0,29,0,29,0,29,0,1,36912,0.0,0.0,0.0,0.0,0.19216989656417383,262,262,451
TZA,TZ,4797.0,46528.0,46528.0,kamunyonge,,33.80034,-1.508438,3,ward,mapping,2018.0,,,30,2,30,1,30,0,1,23006,0.0666666666666666,0.0333333333333333,0.0,0.0922431865828092,0.0,263,263,264
TZA,TZ,4797.0,46528.0,46528.0,kamunyonge,,33.80034,-1.508438,3,ward,mapping,2018.0,,,30,0,30,0,30,0,1,23005,0.0,0.0,0.0,0.0,0.0,264,264,263
TZA,TZ,4797.0,46528.0,46528.0,kamunyonge a,,33.80025,-1.5084917,3,school,mapping,2017.0,6.0,14.0,30,0,30,0,30,0,1,37002,0.0,0.0,0.0,0.0,11.336253270792142,265,265,265
TZA,TZ,4797.0,46528.0,46528.0,kamunyonge b,,33.8003367,-1.5084383,3,school,mapping,2017.0,10.0,15.0,30,2,30,1,30,0,1,37003,0.0666666666666666,0.0333333333333333,0.0,0.0922431865828092,0.3688702367956572,266,266,263
TZA,TZ,4797.0,46527.0,46527.0,kanderema,,33.7365383,-1.90184,3,school,mapping,2017.0,10.0,15.0,29,0,29,0,29,0,1,36956,0.0,0.0,0.0,0.0,0.1892431336455047,267,267,44
TZA,TZ,4810.0,46613.0,46613.0,kang'ata,59578.0,37.8913,-5.6838102,3,,,1996.0,,,49,36,49,0,49,1,3,15997,0.7346938775510204,0.0,0.0204081632653061,0.6982153662389099,13500.727273772787,268,268,268
TZA,TZ,4797.0,46531.0,46531.0,kangariani,,34.6813967,-1.4123,3,school,mapping,2017.0,10.0,15.0,30,0,30,0,30,0,1,37153,0.0,0.0,0.0,0.0,0.3673543184995651,269,269,232
TZA,TZ,4797.0,46531.0,46531.0,karakatonga,,34.6806183,-1.5198033,3,school,mapping,2017.0,10.0,15.0,29,0,29,0,29,0,1,37154,0.0,0.0,0.0,0.0,0.19216927767269826,270,270,887
TZA,TZ,4797.0,46525.0,46525.0,karukekere b,,33.5442933,-2.0681383,3,school,mapping,2017.0,10.0,14.0,30,1,30,0,30,0,1,36850,0.0333333333333333,0.0,0.0,0.0314465408805031,5160.27956140186,271,271,271
TZA,TZ,4809.0,46608.0,46608.0,kasandalala,59806.0,32.746399,-5.42978,3,,,2004.0,,,60,27,60,0,60,0,2,15969,0.45,0.0,0.0,0.4245283018867924,9183.897526395343,272,272,272
TZA,TZ,4791.0,46486.0,46486.0,kasato,59510.0,31.1628,-3.0875001,3,,,2004.0,,,60,44,60,0,60,0,2,15672,0.7333333333333333,0.0,0.0,0.691823899371069,40551.730763922475,273,273,273
TZA,TZ,4791.0,46492.0,46492.0,kasheno,59758.0,31.6789,-1.8885601,3,,,2004.0,,,60,34,60,24,60,33,2,15692,0.5666666666666667,0.4,0.55,0.8330188679245281,6439.700305526287,274,274,274
TZA,TZ,4791.0,46492.0,46492.0,kashozi,59759.0,31.809685,-1.2859103,1,,,2004.0,,,60,46,60,17,60,9,2,15703,0.7666666666666667,0.2833333333333333,0.15,0.8093029350104822,4762.204633847473,275,275,275
TZA,TZ,4797.0,46527.0,46527.0,kasoma,,33.5709667,-1.7903633,3,school,mapping,2017.0,11.0,15.0,30,0,30,0,30,0,1,36957,0.0,0.0,0.0,0.0,0.36887066649420885,276,276,849
TZA,TZ,4791.0,46486.0,46486.0,kasozibakaya,,31.687295,-2.81123,3,school,sentinel site,2018.0,9.0,15.0,60,22,60,4,60,1,1,36793,0.3666666666666666,0.0666666666666666,0.0166666666666666,0.3950384346610761,0.0,277,277,278
TZA,TZ,4791.0,46486.0,46486.0,kasozibakaya,,31.687295,-2.81123,3,school,sentinel site,2017.0,10.0,14.0,60,5,60,1,60,0,1,36791,0.0833333333333333,0.0166666666666666,0.0,0.0930293501048217,0.0,278,278,277
TZA,TZ,4791.0,46486.0,46486.0,kasozibakaya,,31.687295,-2.81123,3,school,sentinel site,2016.0,9.0,15.0,57,47,57,0,57,0,1,36790,0.8245614035087719,0.0,0.0,0.7778881165177093,0.0,279,279,277
TZA,TZ,4797.0,46525.0,46525.0,kasuguti,,33.5919583,-2.1690567,3,school,mapping,2017.0,9.0,15.0,27,0,27,0,27,0,1,36854,0.0,0.0,0.0,0.0,0.0,280,280,281
TZA,TZ,4797.0,46525.0,46525.0,kasuguti,,33.5919583,-2.1690567,3,school,sentinel site,2016.0,8.0,13.0,60,2,60,0,60,0,1,36851,0.0333333333333333,0.0,0.0,0.0314465408805031,0.0,281,281,280
TZA,TZ,4797.0,46525.0,46525.0,kasuguti,,33.5919583,-2.1690567,3,school,sentinel site,2018.0,9.0,15.0,55,1,55,0,55,0,1,36853,0.0181818181818181,0.0,0.0,0.0171526586620926,0.0,282,282,280
TZA,TZ,4797.0,46631.0,46631.0,kasuguti,,33.58254,-2.13019,3,ward,mapping,2018.0,,,30,1,30,0,30,0,1,22872,0.0333333333333333,0.0,0.0,0.0314465408805031,0.0,283,283,284
TZA,TZ,4797.0,46631.0,46631.0,kasuguti,,33.58254,-2.13019,3,ward,mapping,2018.0,,,27,0,27,0,27,0,1,22873,0.0,0.0,0.0,0.0,0.0,284,284,283
TZA,TZ,4801.0,46563.0,46563.0,kasungamile,59797.0,32.733333,-2.583333,1,,,2004.0,,,60,29,60,0,60,0,2,15796,0.4833333333333333,0.0,0.0,0.4559748427672955,2848.31004966449,285,285,285
TZA,TZ,4797.0,46527.0,46527.0,kataryo b,,33.74827,-1.7916,3,school,mapping,2017.0,11.0,15.0,30,0,30,0,30,0,1,36958,0.0,0.0,0.0,0.0,0.0,286,286,1038
TZA,TZ,4791.0,46486.0,46486.0,katoke,59511.0,31.5955039,-2.9275979,1,,,2004.0,,,60,44,60,0,60,0,2,15670,0.7333333333333333,0.0,0.0,0.691823899371069,5623.539691338721,287,287,287
TZA,TZ,4791.0,46492.0,46492.0,katunguru,,31.6506133,-1.9389933,3,school,sentinel site,2016.0,8.0,13.0,56,2,56,14,56,8,1,36808,0.0357142857142857,0.25,0.1428571428571428,0.3585868309587985,0.0,288,288,289
TZA,TZ,4791.0,46492.0,46492.0,katunguru,,31.6506133,-1.9389933,3,school,sentinel site,2017.0,9.0,15.0,61,0,61,15,61,12,1,36809,0.0,0.2459016393442623,0.1967213114754098,0.3719328847489769,0.0,289,289,288
TZA,TZ,4791.0,46492.0,46492.0,katunguru,,31.6506133,-1.9389933,3,school,sentinel site,2018.0,9.0,15.0,60,4,60,4,60,1,1,36811,0.0666666666666666,0.0666666666666666,0.0166666666666666,0.1352900069881202,0.0,290,290,288
TZA,TZ,4806.0,46589.0,46589.0,kawe,59603.0,32.6367,-3.95911,3,,,2004.0,,,60,32,60,0,60,0,2,15884,0.5333333333333333,0.0,0.0,0.5031446540880502,33802.26956792705,291,291,291
TZA,TZ,4797.0,46530.0,46530.0,kebancha,,34.5656217,-1.6916967,3,school,mapping,2017.0,11.0,15.0,30,3,30,0,30,0,1,37092,0.1,0.0,0.0,0.0943396226415094,0.1921697673618182,292,292,293
TZA,TZ,4797.0,46530.0,46530.0,kebancha bancha,,34.56562,-1.691697,3,ward,mapping,2018.0,,,30,3,30,0,30,0,1,23083,0.1,0.0,0.0,0.0943396226415094,0.0,293,293,294
TZA,TZ,4797.0,46530.0,46530.0,kebancha bancha,,34.56562,-1.691697,3,ward,mapping,2018.0,,,30,0,30,0,30,0,1,23084,0.0,0.0,0.0,0.0,0.0,294,294,293
TZA,TZ,4797.0,46531.0,46531.0,kebweye,,34.5161133,-1.3392267,3,school,mapping,2017.0,10.0,15.0,30,1,30,2,30,0,1,37155,0.0333333333333333,0.0666666666666666,0.0,0.0922431865828092,0.3688700162859965,295,295,802
TZA,TZ,4797.0,46532.0,46532.0,kemairi,,34.43901,-1.3015883,3,school,mapping,2017.0,12.0,15.0,30,0,30,1,30,0,1,37197,0.0,0.0333333333333333,0.0,0.0314465408805031,0.033404465444618836,296,296,762
TZA,TZ,4797.0,46531.0,46531.0,kemakorere,,34.51451,-1.3824267,3,school,mapping,2017.0,10.0,15.0,30,2,30,1,30,0,1,37156,0.0666666666666666,0.0333333333333333,0.0,0.0922431865828092,0.03340556978946552,297,297,884
TZA,TZ,4797.0,46532.0,46532.0,kemambo,,34.52586,-1.468143,3,ward,mapping,2018.0,,,30,1,30,1,30,0,1,23145,0.0333333333333333,0.0333333333333333,0.0,0.0618448637316561,0.0,298,298,299
TZA,TZ,4797.0,46532.0,46532.0,kemambo,,34.52586,-1.468143,3,ward,mapping,2018.0,,,30,1,30,0,30,0,1,23146,0.0333333333333333,0.0,0.0,0.0314465408805031,0.0,299,299,298
TZA,TZ,4797.0,46532.0,46532.0,kemange,,34.3494067,-1.3577383,3,school,mapping,2017.0,11.0,15.0,30,0,30,2,30,0,1,37198,0.0,0.0666666666666666,0.0,0.0628930817610062,0.368870038199139,300,300,863
TZA,TZ,4797.0,46531.0,46531.0,kembwi,,34.2848767,-1.4423817,3,school,sentinel site,2016.0,6.0,16.0,53,0,53,3,53,0,1,37141,0.0,0.0566037735849056,0.0,0.0533997864008543,0.0,301,301,302
TZA,TZ,4797.0,46531.0,46531.0,kembwi,,34.2848767,-1.4423817,3,school,sentinel site,2017.0,9.0,13.0,60,19,60,0,60,0,1,37142,0.3166666666666666,0.0,0.0,0.2987421383647798,0.0,302,302,301
TZA,TZ,4797.0,46531.0,46531.0,kembwi,,34.2848767,-1.4423817,3,school,sentinel site,2018.0,10.0,15.0,60,0,60,0,60,0,1,37157,0.0,0.0,0.0,0.0,0.0,303,303,301
TZA,TZ,4797.0,46530.0,46530.0,kemugongo,,34.4031567,-1.791385,3,school,mapping,2017.0,9.0,15.0,30,0,30,0,30,0,1,37093,0.0,0.0,0.0,0.0,0.367354319896549,304,304,820
TZA,TZ,4797.0,46532.0,46532.0,kenyamanyori,,34.38676,-1.384523,3,ward,mapping,2018.0,,,30,0,30,0,30,0,1,23185,0.0,0.0,0.0,0.0,0.03340560122160241,305,305,654
TZA,TZ,4797.0,46530.0,46530.0,kenyamonta,,34.2667,-1.7172269999999998,3,ward,mapping,2018.0,,,30,0,30,0,30,0,1,23085,0.0,0.0,0.0,0.0,0.0,306,306,307
TZA,TZ,4797.0,46530.0,46530.0,kenyamonta,,34.2667,-1.7172269999999998,3,school,mapping,2017.0,10.0,15.0,30,0,30,0,30,0,1,37094,0.0,0.0,0.0,0.0,0.0,307,307,306
TZA,TZ,4797.0,46530.0,46530.0,kenyana b,,34.4599117,-1.7049732999999998,3,school,mapping,2017.0,11.0,15.0,30,0,30,0,30,0,1,37095,0.0,0.0,0.0,0.0,3719.397724142104,308,308,308
TZA,TZ,4797.0,46531.0,46531.0,kenyangi,,34.48647,-1.4845383,3,school,mapping,2017.0,11.0,15.0,30,0,30,0,30,0,1,37158,0.0,0.0,0.0,0.0,0.033407059498131275,309,309,566
TZA,TZ,4803.0,46638.0,46638.0,kerege,59438.0,39.0541433,-6.5871667,1,,,1997.0,,,26,9,26,0,26,0,3,15822,0.3461538461538461,0.0,0.0,0.3265602322206095,2273.4724509152225,310,310,310
TZA,TZ,4797.0,46531.0,46531.0,keryoba,,34.47421,-1.26027,3,school,mapping,2017.0,10.0,15.0,30,0,30,3,30,0,1,37159,0.0,0.1,0.0,0.0943396226415094,64.96464155127313,311,311,311
TZA,TZ,4797.0,46631.0,46631.0,ketare (bunda dc),,34.05057,-1.873438,3,ward,mapping,2018.0,,,30,0,30,0,30,0,1,22874,0.0,0.0,0.0,0.0,0.03341370704583824,312,312,537
TZA,TZ,4797.0,46532.0,46532.0,ketare (tarime tc),,34.41835,-1.373432,3,ward,mapping,2018.0,,,30,0,30,2,30,0,1,23187,0.0,0.0666666666666666,0.0,0.0628930817610062,0.0,313,313,314
TZA,TZ,4797.0,46532.0,46532.0,ketare (tarime tc),,34.41835,-1.373432,3,ward,mapping,2018.0,,,30,0,30,1,30,0,1,23188,0.0,0.0333333333333333,0.0,0.0314465408805031,0.0,314,314,313
TZA,TZ,4797.0,46531.0,46531.0,kewamamba,,34.3494833,-1.3989417,3,school,mapping,2017.0,11.0,15.0,30,2,30,0,30,0,1,37160,0.0666666666666666,0.0,0.0,0.0628930817610062,2434.635735662745,315,315,315
TZA,TZ,4797.0,46530.0,46530.0,kewambogo,,34.5071,-1.968035,3,school,mapping,2017.0,10.0,15.0,30,2,30,0,30,0,1,37096,0.0666666666666666,0.0,0.0,0.0628930817610062,0.0,316,316,749
TZA,TZ,4797.0,46526.0,46526.0,kiabakari b,,33.8506717,-1.7699617,3,school,mapping,2017.0,10.0,15.0,30,3,30,0,30,0,1,36913,0.1,0.0,0.0,0.0943396226415094,4480.596239435419,317,317,317
TZA,TZ,4797.0,46526.0,46526.0,kiagata,,34.1046917,-1.6463167,3,school,mapping,2017.0,10.0,15.0,30,2,30,0,30,1,1,36914,0.0666666666666666,0.0,0.0333333333333333,0.0922431865828092,723.626142148521,318,318,318
TZA,TZ,4797.0,46528.0,46528.0,kiara,,33.7882483,-1.5349467,3,school,mapping,2017.0,10.0,15.0,29,0,29,1,29,0,1,37004,0.0,0.0344827586206896,0.0,0.0325309043591411,0.1921693197847957,319,319,333
TZA,TZ,4810.0,46620.0,46620.0,kibanda,59750.0,38.7757,-5.20191,3,,,1996.0,,,51,22,51,27,51,12,3,16018,0.4313725490196078,0.5294117647058824,0.2352941176470588,0.7503517173664528,7571.864254804407,320,320,320
TZA,TZ,4797.0,46631.0,46631.0,kibara,,33.45506,-2.150755,3,ward,mapping,2018.0,,,30,1,30,0,30,0,1,22875,0.0333333333333333,0.0,0.0,0.0314465408805031,0.3673543194308877,321,321,322
TZA,TZ,4797.0,46525.0,46525.0,kibara a,,33.4550633,-2.150755,3,school,mapping,2017.0,11.0,15.0,30,1,30,0,30,0,1,36855,0.0333333333333333,0.0,0.0,0.0314465408805031,0.3673543194308877,322,322,321
TZA,TZ,4797.0,46525.0,46525.0,kibara b,,33.45497,-2.1507933,3,school,mapping,2017.0,10.0,15.0,30,1,30,0,30,0,1,36856,0.0333333333333333,0.0,0.0,0.0314465408805031,10.889390116376662,323,323,323
TZA,TZ,4797.0,46532.0,46532.0,kibasuka,,34.44103,-1.416995,3,ward,mapping,2018.0,,,30,0,30,0,30,0,1,23147,0.0,0.0,0.0,0.0,0.3673543184995651,324,324,894
TZA,TZ,4797.0,46530.0,46530.0,kibeyo,,34.7129367,-1.8232633,3,school,mapping,2017.0,10.0,15.0,30,0,30,0,30,0,1,37097,0.0,0.0,0.0,0.0,3336.876438543746,325,325,325
TZA,TZ,4797.0,46526.0,46526.0,kibubwa,,33.96207,-1.6638733,3,school,mapping,2017.0,11.0,15.0,30,1,30,0,30,0,1,36915,0.0333333333333333,0.0,0.0,0.0314465408805031,0.03340993434539996,326,326,121
TZA,TZ,4797.0,46532.0,46532.0,kibumaye,,34.4183467,-1.3734317,3,school,mapping,2017.0,10.0,15.0,30,0,30,1,30,0,1,37199,0.0,0.0333333333333333,0.0,0.0314465408805031,0.3688700579535561,327,327,313
TZA,TZ,4801.0,46559.0,46559.0,kidashi,,33.51378,-2.7968867,3,school,sentinel site,2018.0,10.0,15.0,60,0,60,0,60,0,1,37215,0.0,0.0,0.0,0.0,0.0,328,328,329
TZA,TZ,4801.0,46559.0,46559.0,kidashi,,33.51378,-2.7968867,3,school,sentinel site,2017.0,8.0,15.0,60,0,60,0,60,0,1,37212,0.0,0.0,0.0,0.0,0.0,329,329,328
TZA,TZ,4801.0,46559.0,46559.0,kidashi,,33.51378,-2.7968867,3,school,sentinel site,2016.0,9.0,15.0,52,0,52,0,52,0,1,37211,0.0,0.0,0.0,0.0,0.0,330,330,328
TZA,TZ,4810.0,46622.0,46622.0,kigandini,59830.0,38.9722271,-5.1291451,1,,,1996.0,,,50,15,50,2,50,5,3,16035,0.3,0.04,0.1,0.3728301886792452,521.4174222190954,331,331,331
TZA,TZ,4801.0,46560.0,46560.0,kigangama,59680.0,33.264198,-2.5181601,3,,,1997.0,,,120,58,120,0,120,0,3,15768,0.4833333333333333,0.0,0.0,0.4559748427672955,7583.725224751082,332,332,332
TZA,TZ,4797.0,46528.0,46528.0,kigera,,33.78825,-1.5349469999999998,3,ward,mapping,2018.0,,,29,0,29,1,29,0,1,23007,0.0,0.0344827586206896,0.0,0.0325309043591411,0.0,333,333,334
TZA,TZ,4797.0,46528.0,46528.0,kigera,,33.78825,-1.5349469999999998,3,ward,mapping,2018.0,,,30,0,30,0,30,1,1,23008,0.0,0.0,0.0333333333333333,0.0314465408805031,0.0,334,334,333
TZA,TZ,4797.0,46527.0,46527.0,kigera b,,33.6857717,-1.5788033,3,school,mapping,2017.0,12.0,15.0,30,0,30,0,30,0,1,36959,0.0,0.0,0.0,0.0,0.19216943945889112,335,335,795
TZA,TZ,4797.0,46529.0,46529.0,kigunga,,34.08292,-1.245297,3,ward,mapping,2018.0,,,30,0,30,1,30,0,1,23032,0.0,0.0333333333333333,0.0,0.0314465408805031,0.0,336,336,337
TZA,TZ,4797.0,46529.0,46529.0,kigunga,,34.08292,-1.245297,3,ward,mapping,2018.0,,,30,0,30,0,30,0,1,23033,0.0,0.0,0.0,0.0,0.0,337,337,336
TZA,TZ,4803.0,,46531.0,kihangaiko (lukenge),,38.225391,-6.17863,4,,mapping,2011.0,0.0,9.0,3,0,3,0,3,0,1,31203,0.0,0.0,0.0,0.0,1247.789979927728,338,338,338
TZA,TZ,4810.0,46616.0,46616.0,kijungumoto,59639.0,38.6614,-4.7593198,3,,,1996.0,,,50,31,50,3,50,4,3,16010,0.62,0.06,0.08,0.6333735849056603,12348.480059082503,339,339,339
TZA,TZ,4809.0,46608.0,46608.0,kikungu,59807.0,32.772701,-5.7129302,3,,,2004.0,,,61,37,61,0,61,0,2,15964,0.6065573770491803,0.0,0.0,0.5722239406124342,3067.5315694305123,340,340,340
TZA,TZ,4794.0,46509.0,46509.0,kileo,,37.556301,-3.5104,3,,,1996.0,8.0,18.0,271,10,271,35,271,49,3,30759,0.03690036900369,0.1291512915129151,0.1808118081180811,0.2952220166572079,0.0,341,341,342
TZA,TZ,4794.0,46509.0,46509.0,kileo,,37.556301,-3.5104,3,,,2002.0,6.0,16.0,544,9,544,3,544,45,2,30757,0.0165441176470588,0.0055147058823529,0.0827205882352941,0.0970481170325785,0.0,342,342,341
TZA,TZ,4797.0,46631.0,46631.0,kilimani,,33.879145,-1.9996367,3,school,mapping,2017.0,11.0,15.0,30,2,30,0,30,0,1,36892,0.0666666666666666,0.0,0.0,0.0628930817610062,0.557599648511143,343,343,905
TZA,TZ,4810.0,46615.0,46615.0,kilindi,59627.0,37.5534526,-5.5652084,1,,,1996.0,,,50,45,50,6,50,0,3,16002,0.9,0.12,0.0,0.860377358490566,19216.832589947895,344,344,344
TZA,TZ,4803.0,46575.0,46575.0,kilindoni,,39.681,-7.903,3,,,2000.0,6.0,18.0,95,49,95,15,95,58,3,29029,0.5157894736842106,0.1578947368421052,0.6105263157894737,0.7935751677316952,14422.968995302894,345,345,345
TZA,TZ,4809.0,46608.0,46608.0,kiloleli,59808.0,32.981701,-5.8833899,3,,,2004.0,,,60,18,60,0,60,0,2,15973,0.3,0.0,0.0,0.2830188679245282,7011.326981470941,346,346,346
TZA,TZ,4810.0,46620.0,46620.0,kilongo,59751.0,38.678101,-5.30474,3,,,1996.0,,,48,41,48,6,48,3,3,16019,0.8541666666666666,0.125,0.0625,0.830538767688679,6573.661092538192,347,347,347
TZA,TZ,4809.0,46608.0,46608.0,kilumbi,59809.0,33.8453152,-6.2822413,1,,,2004.0,,,60,40,60,0,60,0,2,15976,0.6666666666666666,0.0,0.0,0.6289308176100628,23805.507858397243,348,348,348
TZA,TZ,4810.0,46620.0,46620.0,kimang'a,59752.0,39.015598,-5.34236,3,,,1996.0,,,48,31,48,11,48,1,3,16023,0.6458333333333334,0.2291666666666666,0.0208333333333333,0.691211415203529,4289.723136455172,349,349,349
TZA,TZ,4797.0,46531.0,46531.0,kimusi,,34.6172733,-1.3563967,3,school,mapping,2017.0,12.0,15.0,30,0,30,0,30,0,1,37161,0.0,0.0,0.0,0.0,19.020535026307723,350,350,350
TZA,TZ,4797.0,46529.0,46529.0,kinesi b,,33.8599583,-1.44735,3,school,mapping,2017.0,11.0,15.0,30,0,30,0,30,0,1,37029,0.0,0.0,0.0,0.0,7593.256178697416,351,351,351
TZA,TZ,4797.0,46529.0,46529.0,kingigoro,,33.97255,-1.2946617,3,school,mapping,2017.0,11.0,15.0,30,3,30,0,30,0,1,37030,0.1,0.0,0.0,0.0943396226415094,5662.525816648662,352,352,352
TZA,TZ,4789.0,46477.0,46477.0,kinsabe,59568.0,31.828199,-3.20293,3,,,2004.0,,,60,56,60,0,60,0,2,15648,0.9333333333333332,0.0,0.0,0.880503144654088,26180.63152316435,353,353,353
TZA,TZ,4797.0,46631.0,46631.0,kinyambwiga a,,33.7153583,-2.0209317,3,school,mapping,2017.0,10.0,15.0,30,0,30,0,30,0,1,36893,0.0,0.0,0.0,0.0,0.1921708491367832,354,354,180
TZA,TZ,4803.0,,46531.0,kinhangaiko (funta),,38.23101,-6.16804,4,,mapping,2011.0,0.0,9.0,1,1,1,0,1,0,1,31202,1.0,0.0,0.0,0.9433962264150942,1340.6182297859427,355,355,355
TZA,TZ,4797.0,46529.0,46529.0,kinyenche,,34.02657,-1.229098,3,ward,mapping,2018.0,,,30,6,30,0,30,1,1,23035,0.2,0.0,0.0333333333333333,0.2138364779874213,0.0,356,356,357
TZA,TZ,4797.0,46529.0,46529.0,kinyenche,,34.02657,-1.229098,3,ward,mapping,2018.0,,,30,4,30,0,30,0,1,23034,0.1333333333333333,0.0,0.0,0.1257861635220125,0.0,357,357,356
TZA,TZ,4797.0,46532.0,46532.0,kiore,,34.3484,-1.440665,3,ward,mapping,2018.0,,,30,2,30,0,30,0,1,23149,0.0666666666666666,0.0,0.0,0.0628930817610062,0.0,358,358,359
TZA,TZ,4797.0,46532.0,46532.0,kiore,,34.3484,-1.440665,3,ward,mapping,2018.0,,,30,0,30,0,30,0,1,23150,0.0,0.0,0.0,0.0,0.0,359,359,358
TZA,TZ,4809.0,46608.0,46608.0,kipanga mlimani,59810.0,32.8181,-5.7109599,3,,,2004.0,,,60,28,60,1,60,0,2,15967,0.4666666666666667,0.0166666666666666,0.0,0.4486373165618448,2113.6258136483843,360,360,360
TZA,TZ,4806.0,46643.0,46643.0,kipangu,59597.0,32.331299,-3.8236799,3,,,2004.0,,,61,53,61,0,61,0,2,15881,0.8688524590163934,0.0,0.0,0.8196721311475409,5395.841401913918,361,361,361
TZA,TZ,4809.0,46608.0,46608.0,kipili,59811.0,30.6020104,-7.4430244,1,,,2004.0,,,60,24,60,0,60,0,2,15972,0.4,0.0,0.0,0.3773584905660377,293994.2543850996,362,362,362
TZA,TZ,4797.0,46527.0,46527.0,kiriba,,33.63309,-1.6962700000000002,3,ward,mapping,2018.0,,,30,0,30,0,30,0,1,22972,0.0,0.0,0.0,0.0,0.189243134111166,363,363,364
TZA,TZ,4797.0,46527.0,46527.0,kiriba b,,33.6330917,-1.6962700000000002,3,school,mapping,2017.0,11.0,15.0,30,0,30,0,30,0,1,36960,0.0,0.0,0.0,0.0,0.189243134111166,364,364,363
TZA,TZ,4797.0,46529.0,46529.0,kirogo,,34.02218,-1.332513,3,ward,mapping,2018.0,,,30,3,30,0,30,0,1,23036,0.1,0.0,0.0,0.0943396226415094,0.0,365,365,366
TZA,TZ,4797.0,46529.0,46529.0,kirogo,,34.02218,-1.332513,3,ward,mapping,2018.0,,,30,2,30,0,30,0,1,23037,0.0666666666666666,0.0,0.0,0.0628930817610062,0.0,366,366,365
TZA,TZ,4797.0,46529.0,46529.0,kirogo,,34.02218,-1.332513,3,school,mapping,2017.0,11.0,15.0,30,2,30,0,30,0,1,37031,0.0666666666666666,0.0,0.0,0.0628930817610062,0.0,367,367,365
TZA,TZ,4803.0,46638.0,46638.0,kiromo,59441.0,38.933998,-6.5,3,,,1997.0,,,44,34,44,3,44,3,3,15808,0.7727272727272727,0.0681818181818181,0.0681818181818181,0.7572287470053725,6380.2657966147535,368,368,368
TZA,TZ,4797.0,46526.0,46526.0,kirumi,,33.952905,-1.5617217,3,school,mapping,2017.0,10.0,15.0,29,2,29,0,29,0,1,36916,0.0689655172413793,0.0,0.0,0.0650618087182823,0.5575991726978963,369,369,57
TZA,TZ,4797.0,46530.0,46530.0,kisaka,,34.46371,-1.543092,3,ward,mapping,2018.0,,,30,0,30,1,30,0,1,23087,0.0,0.0333333333333333,0.0,0.0314465408805031,0.0,370,370,371
TZA,TZ,4797.0,46530.0,46530.0,kisaka,,34.46371,-1.543092,3,school,mapping,2017.0,10.0,15.0,30,0,30,1,30,0,1,37098,0.0,0.0333333333333333,0.0,0.0314465408805031,0.0,371,371,370
TZA,TZ,4797.0,46530.0,46530.0,kisaka,,34.46371,-1.543092,3,ward,mapping,2018.0,,,29,0,29,0,29,1,1,23088,0.0,0.0,0.0344827586206896,0.0325309043591411,0.0,372,372,370
TZA,TZ,4797.0,46526.0,46526.0,kisamwene,,33.9398783,-1.6749233,3,school,mapping,2017.0,11.0,15.0,30,0,30,0,30,0,1,36917,0.0,0.0,0.0,0.0,1419.3804816051052,373,373,373
TZA,TZ,4809.0,46608.0,46608.0,kisanga,59812.0,32.940971,-5.198263,1,,,2004.0,,,61,31,61,0,61,0,2,15963,0.5081967213114754,0.0,0.0,0.4794308691617692,24398.0963733844,374,374,374
TZA,TZ,4797.0,46530.0,46530.0,kisangura,,34.7919,-1.833303,3,ward,mapping,2018.0,,,30,0,30,0,30,0,1,23089,0.0,0.0,0.0,0.0,0.36887073791030056,375,375,1029
TZA,TZ,4806.0,46590.0,46590.0,kishapu,59633.0,33.8857747,-3.8587051,1,,,2004.0,,,60,0,60,0,60,0,2,15894,0.0,0.0,0.0,0.0,33115.346179256034,376,376,376
TZA,TZ,4810.0,46622.0,46622.0,kisimatui,59831.0,39.002701,-5.17553,3,,,1996.0,,,45,11,45,9,45,4,3,16028,0.2444444444444444,0.2,0.0888888888888888,0.4238527836012112,6195.7178206919425,377,377,377
TZA,TZ,4797.0,46525.0,46525.0,kisorya,,33.2180517,-2.10044,3,school,mapping,2017.0,10.0,15.0,30,0,30,0,30,0,1,36857,0.0,0.0,0.0,0.0,0.1892431336455047,378,378,379
TZA,TZ,4797.0,46631.0,46631.0,kisorya,,33.21805,-2.10044,3,ward,mapping,2018.0,,,30,0,30,0,30,0,1,22877,0.0,0.0,0.0,0.0,0.1892431336455047,379,379,378
TZA,TZ,4797.0,46529.0,46529.0,kisumwa,,34.09126,-1.430703,3,ward,mapping,2018.0,,,29,1,29,0,29,0,1,23039,0.0344827586206896,0.0,0.0,0.0325309043591411,0.0,380,380,381
TZA,TZ,4797.0,46529.0,46529.0,kisumwa,,34.09126,-1.430703,3,ward,mapping,2018.0,,,30,0,30,0,30,0,1,23038,0.0,0.0,0.0,0.0,0.0,381,381,380
TZA,TZ,4797.0,46529.0,46529.0,kisumwa,,34.09126,-1.430703,3,school,mapping,2017.0,11.0,14.0,30,0,30,0,30,0,1,37032,0.0,0.0,0.0,0.0,0.0,382,382,380
TZA,TZ,4791.0,46492.0,46492.0,kitaba,59760.0,31.5292,-1.9526401,3,,,2004.0,,,60,49,60,2,60,4,2,15699,0.8166666666666667,0.0333333333333333,0.0666666666666666,0.787351502445842,13600.87285312091,383,383,383
TZA,TZ,4797.0,46531.0,46531.0,kitagasembe,,34.4711967,-1.28658,3,school,mapping,2017.0,11.0,15.0,30,0,30,0,30,0,1,37162,0.0,0.0,0.0,0.0,2472.478964913679,384,384,384
TZA,TZ,4797.0,46528.0,46528.0,kitaji,,33.80476,-1.501682,3,ward,mapping,2018.0,,,29,1,29,0,29,0,1,23009,0.0344827586206896,0.0,0.0,0.0325309043591411,0.0,385,385,386
TZA,TZ,4797.0,46528.0,46528.0,kitaji,,33.80476,-1.501682,3,ward,mapping,2018.0,,,30,0,30,0,30,0,1,23010,0.0,0.0,0.0,0.0,0.0,386,386,385
TZA,TZ,4797.0,46529.0,46529.0,kitembe,,34.16399,-1.206123,3,ward,mapping,2018.0,,,30,5,30,0,30,0,1,23041,0.1666666666666666,0.0,0.0,0.1572327044025157,0.0,387,387,388
TZA,TZ,4797.0,46529.0,46529.0,kitembe,,34.16399,-1.206123,3,ward,mapping,2018.0,,,30,0,30,0,30,0,1,23040,0.0,0.0,0.0,0.0,0.0,388,388,387
TZA,TZ,4797.0,46529.0,46529.0,kitembe,,34.16399,-1.206123,3,school,mapping,2017.0,10.0,15.0,30,0,30,0,30,0,1,37033,0.0,0.0,0.0,0.0,0.0,389,389,387
TZA,TZ,4797.0,46531.0,46531.0,kitenga,,34.2885683,-1.2916167,3,school,mapping,2017.0,11.0,15.0,28,7,28,0,28,0,1,37163,0.25,0.0,0.0,0.2358490566037735,0.19216871032221078,390,390,83
TZA,TZ,4797.0,46531.0,46531.0,kiterere,,34.2748467,-1.3296417,3,school,mapping,2017.0,11.0,15.0,30,2,30,0,30,0,1,37164,0.0666666666666666,0.0,0.0,0.0628930817610062,3453.1179308899923,391,391,391
TZA,TZ,4806.0,46591.0,46591.0,kituli,,33.14756,-3.870685,3,school,sentinel site,2018.0,9.0,15.0,60,0,60,0,60,0,1,37230,0.0,0.0,0.0,0.0,5520.837023582971,392,392,392
TZA,TZ,4801.0,46560.0,46560.0,kitumba,59681.0,32.8845878,-2.4990126,1,,,1997.0,,,105,43,105,0,105,0,3,15775,0.4095238095238095,0.0,0.0,0.3863432165318957,4141.3260651817845,393,393,393
TZA,TZ,4803.0,46638.0,46638.0,kiwangwa (bago a),59442.0,38.583333,-6.366667,1,,,2011.0,,,49,5,49,0,49,2,1,15823,0.1020408163265306,0.0,0.0408163265306122,0.1308417090363292,0.0,394,394,396
TZA,TZ,,,46531.0,kiwangwa (bago a),,38.344269,-6.22503,4,,mapping,2011.0,0.0,9.0,49,5,49,0,49,2,1,31204,0.1020408163265306,0.0,0.0408163265306122,0.1308417090363292,0.0,395,395,7
TZA,TZ,4803.0,46638.0,46638.0,kiwangwa (bago b),59443.0,38.583333,-6.366667,1,,,2011.0,,,36,6,36,0,36,0,1,15811,0.1666666666666666,0.0,0.0,0.1572327044025157,0.0,396,396,394
TZA,TZ,,,46531.0,kiwangwa (bago b),,38.337742,-6.22579,4,,mapping,2011.0,0.0,9.0,36,6,36,0,36,0,1,31205,0.1666666666666666,0.0,0.0,0.1572327044025157,0.0,397,397,8
TZA,TZ,4803.0,46638.0,46638.0,kiwangwa (kibaoni),59444.0,38.583333,-6.366667,2,,,2011.0,,,53,3,53,1,53,1,1,15804,0.0566037735849056,0.0188679245283018,0.0188679245283018,0.0866677202568512,0.0,398,398,394
TZA,TZ,,,46531.0,kiwangwa (kibaoni),,38.352692,-6.22357,4,,mapping,2011.0,0.0,9.0,53,3,53,1,53,1,1,31206,0.0566037735849056,0.0188679245283018,0.0188679245283018,0.0866677202568512,145.77204464478356,399,399,399
TZA,TZ,4803.0,46638.0,46638.0,kiwangwa (kiembeni),59445.0,38.583333,-6.366667,2,,,2011.0,,,52,6,52,0,52,1,1,15840,0.1153846153846153,0.0,0.0192307692307692,0.1249023110416434,0.0,400,400,394
TZA,TZ,,,46531.0,kiwangwa (kiembeni),,38.350761,-6.22325,4,,mapping,2011.0,0.0,9.0,52,6,52,0,52,1,1,31207,0.1153846153846153,0.0,0.0192307692307692,0.1249023110416434,217.92417944273447,401,401,401
TZA,TZ,4803.0,46638.0,46638.0,kiwangwa (kisebengo),59446.0,38.583333,-6.366667,2,,,2011.0,,,19,2,19,0,19,0,1,15845,0.1052631578947368,0.0,0.0,0.0993048659384309,0.0,402,402,394
TZA,TZ,,,46531.0,kiwangwa (kisebengo),,38.344849,-6.2332,4,,mapping,2011.0,0.0,9.0,19,2,19,0,19,0,1,31208,0.1052631578947368,0.0,0.0,0.0993048659384309,0.0,403,403,9
TZA,TZ,4803.0,46638.0,46638.0,kiwangwa (kiwanzi),59447.0,38.583333,-6.366667,1,,,2011.0,,,50,3,50,0,50,0,1,15873,0.06,0.0,0.0,0.0566037735849056,0.0,404,404,394
TZA,TZ,,,46531.0,kiwangwa (kiwanzi),,38.352921,-6.22579,4,,mapping,2011.0,0.0,9.0,50,3,50,0,50,0,1,31209,0.06,0.0,0.0,0.0566037735849056,145.3984947191143,405,405,405
TZA,TZ,4803.0,46638.0,46638.0,kiwangwa (kwambwela),59448.0,38.583333,-6.366667,1,,,2011.0,,,51,4,51,0,51,2,1,15835,0.0784313725490196,0.0,0.0392156862745098,0.1080861497392149,0.0,406,406,394
TZA,TZ,,,46531.0,kiwangwa (kwambwela),,38.35495,-6.22584,4,,mapping,2011.0,0.0,9.0,51,4,51,0,51,2,1,31210,0.0784313725490196,0.0,0.0392156862745098,0.1080861497392149,225.93663258808752,407,407,407
TZA,TZ,4803.0,46638.0,46638.0,kiwangwa (kwamkizi),59449.0,38.583333,-6.366667,1,,,2011.0,,,6,1,6,0,6,0,1,15842,0.1666666666666666,0.0,0.0,0.1572327044025157,0.0,408,408,394
TZA,TZ,,,46531.0,kiwangwa (kwamkizi),,38.343948,-6.2459,4,,mapping,2011.0,0.0,9.0,6,1,6,0,6,0,1,31240,0.1666666666666666,0.0,0.0,0.1572327044025157,424.17540462263594,409,409,409
TZA,TZ,4803.0,46638.0,46638.0,kiwangwa (kwawema),59450.0,38.583333,-6.366667,1,,,2011.0,,,2,0,2,0,2,0,1,15849,0.0,0.0,0.0,0.0,0.0,410,410,394
TZA,TZ,4803.0,46638.0,46638.0,kiwangwa (mambohela),59451.0,38.583333,-6.366667,1,,,2011.0,,,13,0,13,0,13,0,1,15850,0.0,0.0,0.0,0.0,0.0,411,411,394
TZA,TZ,4803.0,46638.0,46638.0,kiwangwa (minazi),59452.0,38.583333,-6.366667,1,,,2011.0,,,2,0,2,0,2,0,1,15867,0.0,0.0,0.0,0.0,0.0,412,412,394
TZA,TZ,,,46531.0,kiwangwa (kwawema),,38.347519,-6.22011,4,,mapping,2011.0,0.0,9.0,2,0,2,0,2,0,1,31241,0.0,0.0,0.0,0.0,351.90978028786185,413,413,413
TZA,TZ,,,46531.0,kiwangwa (mambohela),,38.37241,-6.21027,4,,mapping,2011.0,0.0,9.0,13,0,13,0,13,0,1,31242,0.0,0.0,0.0,0.0,436.95343872732485,414,414,414
TZA,TZ,,,46531.0,kiwangwa (minazi),,38.347649,-6.21697,4,,mapping,2011.0,0.0,9.0,2,0,2,0,2,0,1,31235,0.0,0.0,0.0,0.0,351.90978028786185,415,415,415
TZA,TZ,4803.0,46638.0,46638.0,kiwangwa (misani),59453.0,38.583333,-6.366667,1,,,2011.0,,,2,0,2,0,2,0,1,15864,0.0,0.0,0.0,0.0,0.0,416,416,394
TZA,TZ,,,46531.0,kiwangwa (misani),,38.370121,-6.2071,4,,mapping,2011.0,0.0,9.0,2,0,2,0,2,0,1,31236,0.0,0.0,0.0,0.0,436.95343872732485,417,417,417
TZA,TZ,4803.0,46638.0,46638.0,kiwangwa (morwe),59454.0,38.583333,-6.366667,1,,,2011.0,,,41,3,41,0,41,0,1,15834,0.073170731707317,0.0,0.0,0.0690289921767142,0.0,418,418,394
TZA,TZ,,,46531.0,kiwangwa (morwe),,38.33535,-6.22613,4,,mapping,2011.0,0.0,9.0,41,3,41,0,41,0,1,31243,0.073170731707317,0.0,0.0,0.0690289921767142,0.0,419,419,4
TZA,TZ,4803.0,46638.0,46638.0,kiwangwa (mwavi a),59455.0,38.583333,-6.366667,1,,,2011.0,,,25,2,25,0,25,0,1,15848,0.08,0.0,0.0,0.0754716981132075,0.0,420,420,394
TZA,TZ,,,46531.0,kiwangwa (mwavi a),,38.36586,-6.23269,4,,mapping,2011.0,0.0,9.0,25,2,25,0,25,0,1,31244,0.08,0.0,0.0,0.0754716981132075,0.0,421,421,717
TZA,TZ,4803.0,46638.0,46638.0,kiwangwa (mwavi b),59456.0,38.583333,-6.366667,1,,,2011.0,,,13,0,13,0,13,0,1,15852,0.0,0.0,0.0,0.0,0.0,422,422,394
TZA,TZ,,,46531.0,kiwangwa (mwavi b),,38.37035,-6.2345,4,,mapping,2011.0,0.0,9.0,13,0,13,0,13,0,1,31245,0.0,0.0,0.0,0.0,0.0,423,423,718
TZA,TZ,4803.0,46638.0,46638.0,kiwangwa (mwetemo b),59457.0,38.583333,-6.366667,2,,,2011.0,,,2,1,2,0,2,0,1,15858,0.5,0.0,0.0,0.4716981132075471,0.0,424,424,394
TZA,TZ,,,46531.0,kiwangwa (mwetemo b),,38.301109,-6.212,4,,mapping,2011.0,0.0,9.0,2,1,2,0,2,0,1,31237,0.5,0.0,0.0,0.4716981132075471,0.0,425,425,730
TZA,TZ,4803.0,46638.0,46638.0,kiwangwa (ndete),59458.0,38.583333,-6.366667,1,,,2011.0,,,7,1,7,0,7,0,1,15843,0.1428571428571428,0.0,0.0,0.1347708894878706,0.0,426,426,394
TZA,TZ,,,46531.0,kiwangwa (ndete),,38.35294,-6.22103,4,,mapping,2011.0,0.0,9.0,7,1,7,0,7,0,1,31246,0.1428571428571428,0.0,0.0,0.1347708894878706,285.7637821685959,427,427,427
TZA,TZ,4803.0,46638.0,46638.0,kiwangwa (pipani),59459.0,38.583333,-6.366667,2,,,2011.0,,,0,0,48,5,48,0,1,15844,,0.1041666666666666,0.0,,0.0,428,428,394
TZA,TZ,,,46531.0,kiwangwa (pipani),,38.352139,-6.22475,4,,mapping,2011.0,0.0,9.0,0,0,96,5,48,0,1,31238,,0.0520833333333333,0.0,,145.3984947191143,429,429,429
TZA,TZ,4803.0,46638.0,46638.0,kiwangwa (sengasenga),59460.0,38.583333,-6.366667,1,,,2011.0,,,2,0,2,0,2,0,1,15829,0.0,0.0,0.0,0.0,0.0,430,430,394
TZA,TZ,4797.0,46529.0,46529.0,kongo,,34.3010867,-1.3519967,3,school,mapping,2017.0,10.0,15.0,30,0,30,0,30,0,1,37035,0.0,0.0,0.0,0.0,3837.790765093837,431,431,431
TZA,TZ,4801.0,46560.0,46560.0,kongolo,59682.0,33.116667,-2.45,1,,,1997.0,,,120,47,120,0,120,0,3,15751,0.3916666666666666,0.0,0.0,0.3694968553459119,7247.562582218099,432,432,432
TZA,TZ,,,46531.0,kiwangwa (sengasenga),,38.347752,-6.24612,4,,mapping,2011.0,0.0,9.0,2,0,2,0,2,0,1,31247,0.0,0.0,0.0,0.0,0.0,433,433,719
TZA,TZ,4803.0,46638.0,46638.0,kiwangwa (ushirika),59461.0,38.583333,-6.366667,1,,,2011.0,,,14,3,14,0,14,0,1,15807,0.2142857142857142,0.0,0.0,0.2021563342318059,0.0,434,434,394
TZA,TZ,,,46531.0,kiwangwa (ushirika),,38.346191,-6.2244,4,,mapping,2011.0,0.0,9.0,14,3,14,0,14,0,1,31211,0.2142857142857142,0.0,0.0,0.2021563342318059,0.0,435,435,11
TZA,TZ,4803.0,46638.0,46638.0,kiwangwa (vigwaza),59462.0,38.583333,-6.366667,1,,,2011.0,,,6,1,6,0,6,0,1,15818,0.1666666666666666,0.0,0.0,0.1572327044025157,0.0,436,436,394
TZA,TZ,,,46531.0,kiwangwa (vigwaza),,38.375542,-6.22066,4,,mapping,2011.0,0.0,9.0,6,1,6,0,6,0,1,31212,0.1666666666666666,0.0,0.0,0.1572327044025157,0.0,437,437,720
TZA,TZ,4803.0,46638.0,46638.0,kiwangwa (zongomelo),59463.0,38.583333,-6.366667,1,,,2011.0,,,2,0,2,0,2,0,1,15828,0.0,0.0,0.0,0.0,0.0,438,438,394
TZA,TZ,,,46531.0,kiwangwa (zongomelo),,38.36322,-6.27611,4,,mapping,2011.0,0.0,9.0,2,0,2,0,2,0,1,31213,0.0,0.0,0.0,0.0,2546.9102739691907,439,439,439
TZA,TZ,4810.0,46618.0,46618.0,kiwanja,59654.0,38.302799,-4.4144702,3,,,1996.0,,,48,13,48,10,48,0,3,16012,0.2708333333333333,0.2083333333333333,0.0,0.3988142033542976,2331.7213184576053,440,440,440
TZA,TZ,4809.0,46608.0,46608.0,kiyombo,59813.0,33.940601,-6.0919099,3,,,2004.0,,,60,30,60,0,60,0,2,15975,0.5,0.0,0.0,0.4716981132075471,23805.507858397243,441,441,441
TZA,TZ,4797.0,46529.0,46529.0,kogaja,,34.3036733,-1.1736467,3,school,mapping,2017.0,11.0,15.0,28,0,28,0,28,0,1,37034,0.0,0.0,0.0,0.0,0.3688698234416949,442,442,210
TZA,TZ,4797.0,46532.0,46532.0,komaswa,,34.18674,-1.462952,3,ward,mapping,2018.0,,,30,0,30,0,30,0,1,23151,0.0,0.0,0.0,0.0,0.1921691283908507,443,443,831
TZA,TZ,4797.0,46527.0,46527.0,kome,,33.32426,-1.8532383,3,school,mapping,2017.0,11.0,15.0,30,1,30,0,30,0,1,36961,0.0333333333333333,0.0,0.0,0.0314465408805031,32.61775468386263,444,444,444
TZA,TZ,4797.0,46527.0,46527.0,kome b,,33.3243533,-1.8535167,3,school,mapping,2017.0,10.0,15.0,30,0,30,0,30,0,1,36962,0.0,0.0,0.0,0.0,0.3688707723086159,445,445,129
TZA,TZ,4797.0,46529.0,46529.0,komuge,,33.98585,-1.4892,3,ward,mapping,2018.0,,,30,0,30,0,30,0,1,23042,0.0,0.0,0.0,0.0,0.0,446,446,458
TZA,TZ,4797.0,46526.0,46526.0,kongoto,,34.1916567,-1.6121833,3,school,mapping,2017.0,11.0,15.0,30,0,30,0,30,0,1,36918,0.0,0.0,0.0,0.0,0.3688703862278851,447,447,115
TZA,TZ,4797.0,46530.0,46530.0,koreri,,34.70416,-1.77605,3,school,mapping,2017.0,10.0,15.0,29,7,29,0,29,0,1,37099,0.2413793103448276,0.0,0.0,0.2277163305139882,0.0,448,448,571
TZA,TZ,4797.0,46529.0,46529.0,koryo,,34.25216,-1.308492,3,ward,mapping,2018.0,,,30,1,30,1,30,0,1,23044,0.0333333333333333,0.0333333333333333,0.0,0.0618448637316561,0.0,449,449,450
TZA,TZ,4797.0,46529.0,46529.0,koryo,,34.25216,-1.308492,3,ward,mapping,2018.0,,,30,1,30,0,30,0,1,23045,0.0333333333333333,0.0,0.0,0.0314465408805031,0.0,450,450,449
TZA,TZ,4797.0,46526.0,46526.0,kukirango,,33.79272,-1.7343069999999998,3,ward,mapping,2018.0,,,30,3,30,0,30,0,1,22938,0.1,0.0,0.0,0.0943396226415094,0.0,451,451,452
TZA,TZ,4797.0,46526.0,46526.0,kukirango,,33.79272,-1.7343069999999998,3,ward,mapping,2018.0,,,30,2,30,0,30,0,1,22939,0.0666666666666666,0.0,0.0,0.0628930817610062,0.0,452,452,451
TZA,TZ,4797.0,46526.0,46526.0,kukirango,,33.79272,-1.7343069999999998,3,ward,mapping,2018.0,,,29,0,29,0,29,0,1,22937,0.0,0.0,0.0,0.0,0.0,453,453,451
TZA,TZ,4797.0,46631.0,46631.0,kunzugu,,33.91113,-2.048825,3,ward,mapping,2018.0,,,30,1,30,1,30,0,1,22910,0.0333333333333333,0.0333333333333333,0.0,0.0618448637316561,0.0,454,454,455
TZA,TZ,4797.0,46631.0,46631.0,kunzugu,,33.91113,-2.048825,3,school,mapping,2017.0,10.0,15.0,30,1,30,1,30,0,1,36894,0.0333333333333333,0.0333333333333333,0.0,0.0618448637316561,0.0,455,455,454
TZA,TZ,4797.0,46631.0,46631.0,kunzugu,,33.91113,-2.048825,3,ward,mapping,2018.0,,,30,0,30,0,30,0,1,22909,0.0,0.0,0.0,0.0,0.0,456,456,454
TZA,TZ,4797.0,46527.0,46527.0,kurugongo,,33.378685,-1.8230483,3,school,mapping,2017.0,11.0,15.0,29,0,29,1,29,0,1,36963,0.0,0.0344827586206896,0.0,0.0325309043591411,2729.5876274893985,457,457,457
TZA,TZ,4797.0,46529.0,46529.0,kuruya,,33.98585,-1.4892,3,school,mapping,2017.0,10.0,15.0,30,0,30,0,30,0,1,37036,0.0,0.0,0.0,0.0,0.0,458,458,446
TZA,TZ,4797.0,46527.0,46527.0,kusenyi,,33.643485,-1.797065,3,school,mapping,2017.0,11.0,15.0,29,1,29,0,29,0,1,36964,0.0344827586206896,0.0,0.0,0.0325309043591411,3646.0034412880423,459,459,459
TZA,TZ,4810.0,46616.0,46616.0,kwagunda,59640.0,38.3815,-5.0502801,3,,,1996.0,,,46,27,46,16,46,11,3,16005,0.5869565217391305,0.3478260869565217,0.2391304347826087,0.7500376055864065,7169.31415854907,460,460,460
TZA,TZ,4810.0,46615.0,46615.0,kwamaligwa,59628.0,37.4666667,-5.4166667,1,,,1996.0,,,51,41,51,0,51,1,3,15999,0.803921568627451,0.0,0.0196078431372549,0.7620436261815122,8304.65762419804,461,461,461
TZA,TZ,4797.0,46528.0,46528.0,kwangwa,,33.803915,-1.5355433,3,school,mapping,2017.0,10.0,15.0,30,0,30,0,30,1,1,37005,0.0,0.0,0.0333333333333333,0.0314465408805031,725.9108658988553,462,462,462
TZA,TZ,4810.0,46613.0,46613.0,kwangwe,59579.0,38.585701,-5.3717799,3,,,1996.0,,,51,44,51,23,51,2,3,15995,0.8627450980392157,0.4509803921568627,0.0392156862745098,0.8750938588604542,12727.157747365836,463,463,463
TZA,TZ,4810.0,46613.0,46613.0,kwedizinga,59580.0,38.4697,-5.5237398,3,,,1996.0,,,49,39,49,13,49,2,3,15996,0.7959183673469388,0.2653061224489796,0.0408163265306122,0.8077192198026844,21342.6152260721,464,464,464
TZA,TZ,4810.0,46613.0,46613.0,kweingoma,59581.0,38.400799,-5.2354102,3,,,1996.0,,,43,33,43,18,43,0,3,15994,0.7674418604651163,0.4186046511627907,0.0,0.8158413012643245,13840.021883388301,465,465,465
TZA,TZ,4797.0,46527.0,46527.0,kwibara,,33.7062567,-1.6851017,3,school,mapping,2017.0,9.0,15.0,30,0,30,0,30,0,1,36965,0.0,0.0,0.0,0.0,1222.5243976781396,466,466,466
TZA,TZ,4797.0,46531.0,46531.0,kwigenge,,34.3851883,-1.2060917,3,school,mapping,2017.0,11.0,15.0,29,0,29,0,29,0,1,37165,0.0,0.0,0.0,0.0,4193.8740595191975,467,467,467
TZA,TZ,4797.0,46527.0,46527.0,kwikuba,,33.6709517,-1.7343567,3,school,mapping,2017.0,11.0,15.0,30,1,30,4,30,0,1,36966,0.0333333333333333,0.1333333333333333,0.0,0.1530398322851152,0.1921698968962414,468,468,98
TZA,TZ,4797.0,46526.0,46526.0,kwisaro,,34.10725,-1.6403433,3,school,mapping,2017.0,11.0,15.0,29,1,29,0,29,0,1,36919,0.0344827586206896,0.0,0.0,0.0325309043591411,0.03340953841689043,469,469,834
TZA,TZ,4797.0,46530.0,46530.0,kwitete,,34.6151283,-1.8276333,3,school,mapping,2017.0,11.0,15.0,30,0,30,0,30,0,1,37100,0.0,0.0,0.0,0.0,0.1921701904246487,470,470,845
TZA,TZ,4797.0,46530.0,46530.0,kyambahi,,34.58133,-1.943435,3,ward,mapping,2018.0,,,30,1,30,1,30,0,1,23092,0.0333333333333333,0.0333333333333333,0.0,0.0618448637316561,0.0,471,471,472
TZA,TZ,4797.0,46530.0,46530.0,kyambahi,,34.58133,-1.943435,3,ward,mapping,2018.0,,,30,0,30,0,30,0,1,23091,0.0,0.0,0.0,0.0,0.0,472,472,471
TZA,TZ,4797.0,46526.0,46526.0,kyamuko,,34.1084383,-1.7102217,3,school,mapping,2017.0,8.0,15.0,29,2,29,0,29,0,1,36920,0.0689655172413793,0.0,0.0,0.0650618087182823,7129.135491965893,473,473,473
TZA,TZ,4797.0,46529.0,46529.0,kyang'ombe,,33.86299,-1.338953,3,ward,mapping,2018.0,,,30,0,30,0,30,0,1,23046,0.0,0.0,0.0,0.0,0.19216882112832548,474,474,921
TZA,TZ,4797.0,46529.0,46529.0,kyangasaga,,33.91979,-1.274335,3,ward,mapping,2018.0,,,33,4,33,0,33,0,1,23049,0.1212121212121212,0.0,0.0,0.1143510577472841,0.0,475,475,476
TZA,TZ,4797.0,46529.0,46529.0,kyangasaga,,33.91979,-1.274335,3,ward,mapping,2018.0,,,30,2,30,0,30,0,1,23048,0.0666666666666666,0.0,0.0,0.0628930817610062,0.0,476,476,475
TZA,TZ,4791.0,46489.0,46489.0,kyanyamisa,59614.0,31.1318,-1.82235,3,,,2004.0,,,60,43,60,1,60,1,2,15685,0.7166666666666667,0.0166666666666666,0.0166666666666666,0.6849362334032144,17486.889857627546,477,477,477
TZA,TZ,4797.0,46526.0,46526.0,kyanyari,,33.85081,-1.810192,3,ward,mapping,2018.0,,,30,1,30,0,30,0,1,22940,0.0333333333333333,0.0,0.0,0.0314465408805031,0.0,478,478,479
TZA,TZ,4797.0,46526.0,46526.0,kyanyari,,33.85081,-1.810192,3,ward,mapping,2018.0,,,30,0,30,0,30,0,1,22941,0.0,0.0,0.0,0.0,0.0,479,479,478
TZA,TZ,4797.0,46529.0,46529.0,kyariko,,34.0752433,-1.188305,3,school,mapping,2017.0,10.0,15.0,30,0,30,0,30,0,1,37037,0.0,0.0,0.0,0.0,0.3673543194308877,480,480,936
TZA,TZ,4791.0,46491.0,46491.0,kyazi,59730.0,31.6423,-1.21408,3,,,2004.0,,,60,36,60,6,60,16,2,15690,0.6,0.1,0.2666666666666666,0.6943396226415094,14948.182425921234,481,481,481
TZA,TZ,4807.0,46596.0,46596.0,laini a,59592.0,34.263699,-2.8082399,3,,,2004.0,,,62,29,62,0,62,0,2,15928,0.4677419354838709,0.0,0.0,0.4412659768715763,8506.21523982951,482,482,482
TZA,TZ,4810.0,46618.0,46618.0,langoni,59655.0,38.278599,-4.4288101,3,,,1996.0,,,37,22,37,8,37,0,3,16013,0.5945945945945946,0.2162162162162162,0.0,0.6436319031933514,3133.8013814519286,483,483,483
TZA,TZ,4797.0,46631.0,46631.0,ligamba,,33.9010567,-2.0113583,3,school,mapping,2017.0,11.0,15.0,30,0,30,0,30,0,1,36895,0.0,0.0,0.0,0.0,0.36887105438200074,484,484,982
TZA,TZ,4797.0,46530.0,46530.0,little flower,,34.6692583,-1.8457967,3,school,mapping,2017.0,10.0,13.0,30,0,30,0,30,0,1,37101,0.0,0.0,0.0,0.0,0.1921702486426468,485,485,618
TZA,TZ,4801.0,46561.0,46561.0,lubuga,59734.0,33.153801,-2.8940699,3,,,2004.0,,,60,25,60,0,60,0,2,15782,0.4166666666666667,0.0,0.0,0.3930817610062893,9840.869846065632,486,486,486
TZA,TZ,4791.0,46491.0,46491.0,luhano,59731.0,31.761101,-1.1515,3,,,2004.0,,,60,48,60,6,60,6,2,15689,0.8,0.1,0.1,0.790566037735849,14948.182425921234,487,487,487
TZA,TZ,4809.0,46608.0,46608.0,lukula,59814.0,32.8,-5.716667,1,,,2004.0,,,60,24,60,2,60,0,2,15966,0.4,0.0333333333333333,0.0,0.3962264150943396,2113.6258136483843,488,488,488
TZA,TZ,4807.0,46595.0,46595.0,lukungu,59536.0,33.860001,-2.22803,3,,,1997.0,,,117,62,117,0,117,0,3,15924,0.5299145299145299,0.0,0.0,0.4999193678438961,3855.476666746383,489,489,489
TZA,TZ,4807.0,46595.0,46595.0,lunala,59537.0,33.771999,-2.36709,3,,,1997.0,,,121,48,121,0,121,0,3,15907,0.396694214876033,0.0,0.0,0.3742398253547481,5572.130475826132,490,490,490
TZA,TZ,4810.0,46618.0,46618.0,lunguza,59656.0,38.402,-4.501925,1,,,1996.0,,,49,28,49,5,49,2,3,16014,0.5714285714285714,0.1020408163265306,0.0408163265306122,0.5951585761099091,14741.187347645475,491,491,491
TZA,TZ,4807.0,46595.0,46595.0,lwangwe,59538.0,33.6735,-2.39469,3,,,1997.0,,,121,41,121,0,121,0,3,15921,0.3388429752066115,0.0,0.0,0.3196631841571807,5219.193205802768,492,492,492
TZA,TZ,4789.0,46476.0,46476.0,lyambamgongo,59523.0,31.987101,-3.49436,3,,,2004.0,,,60,26,60,0,60,0,2,15637,0.4333333333333333,0.0,0.0,0.4088050314465408,12509.615041229139,493,493,493
TZA,TZ,4797.0,46527.0,46527.0,lyasembe,,33.471345,-1.849855,3,school,mapping,2017.0,11.0,15.0,30,0,30,0,30,0,1,36967,0.0,0.0,0.0,0.0,0.556597454007715,494,494,673
TZA,TZ,4797.0,46527.0,46527.0,mabuimerafuru,,33.5467467,-1.8695517,3,school,mapping,2017.0,11.0,15.0,30,0,30,0,30,0,1,36968,0.0,0.0,0.0,0.0,0.36887080015578705,495,495,684
TZA,TZ,4797.0,46530.0,46530.0,maburi,,34.3717133,-1.81219,3,school,mapping,2017.0,10.0,14.0,30,4,30,0,30,0,1,37102,0.1333333333333333,0.0,0.0,0.1257861635220125,0.3673543203622103,496,496,829
TZA,TZ,4797.0,46530.0,46530.0,machochwe,,34.69227,-1.671175,3,ward,mapping,2018.0,,,30,1,30,2,30,0,1,23093,0.0333333333333333,0.0666666666666666,0.0,0.0922431865828092,0.0,497,497,498
TZA,TZ,4797.0,46530.0,46530.0,machochwe,,34.69227,-1.671175,3,school,mapping,2017.0,10.0,15.0,30,1,30,2,30,0,1,37103,0.0333333333333333,0.0666666666666666,0.0,0.0922431865828092,0.0,498,498,497
TZA,TZ,4797.0,46530.0,46530.0,machochwe,,34.69227,-1.671175,3,ward,mapping,2018.0,,,30,2,30,1,30,1,1,23094,0.0666666666666666,0.0333333333333333,0.0333333333333333,0.1206149545772187,0.0,499,499,497
TZA,TZ,4810.0,46621.0,46621.0,madanga,59787.0,38.9772109,-5.345721,1,,,1996.0,,,45,40,45,1,45,0,3,16027,0.8888888888888888,0.0222222222222222,0.0,0.8409037968786396,3068.823838350366,500,500,500
TZA,TZ,4810.0,46619.0,46619.0,maforoni,59742.0,39.102402,-4.6779099,3,,,1996.0,,,50,28,50,1,50,11,3,16015,0.56,0.02,0.22,0.6260981132075472,33917.68665310271,501,501,501
TZA,TZ,4797.0,46525.0,46525.0,mafwele,,33.327565,-2.12574,3,school,mapping,2017.0,10.0,15.0,28,1,28,0,28,0,1,36858,0.0357142857142857,0.0,0.0,0.0336927223719676,0.5565974544733763,502,502,747
TZA,TZ,4797.0,46526.0,46526.0,magana,,33.965765,-1.61209,3,school,mapping,2017.0,12.0,15.0,30,0,30,0,30,0,1,36921,0.0,0.0,0.0,0.0,5781.464343429127,503,503,503
TZA,TZ,4797.0,46530.0,46530.0,magange,,34.36111,-1.7406700000000002,3,ward,mapping,2018.0,,,30,0,30,0,30,0,1,23095,0.0,0.0,0.0,0.0,0.0,504,504,505
TZA,TZ,4797.0,46530.0,46530.0,magange,,34.36111,-1.7406700000000002,3,school,mapping,2017.0,11.0,15.0,30,0,30,0,30,0,1,37104,0.0,0.0,0.0,0.0,0.0,505,505,504
TZA,TZ,4797.0,46530.0,46530.0,maghaka,,34.5813333,-1.943435,3,school,mapping,2017.0,10.0,15.0,30,0,30,0,30,0,1,37105,0.0,0.0,0.0,0.0,0.3673543184995651,506,506,471
TZA,TZ,4810.0,46616.0,46616.0,magunga,59641.0,35.3205609,-8.0589129,1,,,1996.0,,,47,13,47,20,47,6,3,16009,0.2765957446808511,0.425531914893617,0.1276595744680851,0.6013954446055595,258278.91545240622,507,507,507
TZA,TZ,4809.0,46607.0,46607.0,mahene,59782.0,32.914398,-4.0816398,3,,,2004.0,,,60,39,60,1,60,2,2,15957,0.65,0.0166666666666666,0.0333333333333333,0.6295335429769392,25556.501750173044,508,508,508
TZA,TZ,4797.0,46529.0,46529.0,majengo,,33.9772633,-1.12273,3,school,mapping,2017.0,9.0,14.0,30,0,30,2,30,0,1,37038,0.0,0.0666666666666666,0.0,0.0628930817610062,6332.113552657213,509,509,509
TZA,TZ,4797.0,46530.0,46530.0,majimoto,,34.37515,-1.577413,3,ward,mapping,2018.0,,,30,0,30,0,30,0,1,23097,0.0,0.0,0.0,0.0,0.0,510,510,511
TZA,TZ,4797.0,46530.0,46530.0,majimoto,,34.37515,-1.577413,3,school,mapping,2017.0,11.0,15.0,30,0,30,0,30,0,1,37106,0.0,0.0,0.0,0.0,0.0,511,511,510
TZA,TZ,4797.0,46527.0,46527.0,majita b,,33.4054167,-1.8093567,3,school,mapping,2017.0,11.0,15.0,30,0,30,2,30,0,1,36969,0.0,0.0666666666666666,0.0,0.0628930817610062,0.3688706977020929,512,512,61
TZA,TZ,4797.0,46527.0,46527.0,makojo,,33.35048,-1.883273,3,ward,mapping,2018.0,,,30,0,30,0,30,0,1,22974,0.0,0.0,0.0,0.0,0.0,513,513,514
TZA,TZ,4797.0,46527.0,46527.0,makojo,,33.35048,-1.883273,3,school,mapping,2017.0,11.0,15.0,28,0,28,0,28,0,1,36970,0.0,0.0,0.0,0.0,0.0,514,514,513
TZA,TZ,4797.0,46528.0,46528.0,makoko,,33.76415,-1.495638,3,ward,mapping,2018.0,,,30,0,30,0,30,0,1,23011,0.0,0.0,0.0,0.0,0.033407229668227956,515,515,60
TZA,TZ,4809.0,46607.0,46607.0,makomero,59783.0,32.9753,-4.3024001,3,,,2004.0,,,61,1,61,0,61,0,2,15955,0.0163934426229508,0.0,0.0,0.0154655119084441,15265.316408163158,516,516,516
TZA,TZ,4797.0,46526.0,46526.0,makore,,33.97178,-1.764675,3,school,mapping,2017.0,11.0,15.0,30,2,30,0,30,0,1,36922,0.0666666666666666,0.0,0.0,0.0628930817610062,5654.969403636759,517,517,517
TZA,TZ,4810.0,46616.0,46616.0,makumba,59642.0,38.607601,-4.9779,3,,,1996.0,,,52,31,52,4,52,3,3,16007,0.5961538461538461,0.0769230769230769,0.0576923076923076,0.6120052215284995,14640.35338728646,518,518,518
TZA,TZ,4803.0,,46531.0,makurunge (kitame),,38.51516,-6.12059,4,,mapping,2011.0,0.0,9.0,12,1,12,0,12,1,1,31214,0.0833333333333333,0.0,0.0833333333333333,0.1506813417190775,5338.16340723678,519,519,519
TZA,TZ,4797.0,46529.0,46529.0,malkia wa shirati,,34.0294967,-1.16381,3,school,mapping,2017.0,10.0,15.0,30,0,30,0,30,0,1,37039,0.0,0.0,0.0,0.0,0.3673543189652264,520,520,599
TZA,TZ,4797.0,46525.0,46525.0,manchimweru b,,34.2867833,-1.8697867,3,school,mapping,2017.0,11.0,15.0,30,0,30,0,30,0,1,36859,0.0,0.0,0.0,0.0,3787.3942024662865,521,521,521
TZA,TZ,4797.0,46530.0,46530.0,manchira,,34.72999,-1.884233,3,ward,mapping,2018.0,,,30,0,30,0,30,0,1,23099,0.0,0.0,0.0,0.0,0.0334139135084115,522,522,967
TZA,TZ,4810.0,46620.0,46620.0,mandera,59753.0,38.674,-5.2460799,3,,,1996.0,,,50,41,50,10,50,8,3,16022,0.82,0.2,0.16,0.8292830188679244,6573.661092538192,523,523,523
TZA,TZ,4797.0,46532.0,46532.0,manga,,34.25547,-1.437075,3,ward,mapping,2018.0,,,30,0,30,1,30,0,1,23153,0.0,0.0333333333333333,0.0,0.0314465408805031,0.0,524,524,28
TZA,TZ,4797.0,46532.0,46532.0,manga,,34.25547,-1.437075,3,ward,mapping,2018.0,,,30,0,30,0,30,0,1,23154,0.0,0.0,0.0,0.0,0.0,525,525,28
TZA,TZ,4797.0,46529.0,46529.0,mangore,,34.2521583,-1.3084917,3,school,mapping,2017.0,11.0,15.0,30,1,30,1,30,0,1,37040,0.0333333333333333,0.0333333333333333,0.0,0.0618448637316561,0.1921687503088394,526,526,449
TZA,TZ,4797.0,46531.0,46531.0,mangucha,,34.7299333,-1.4092717,3,school,mapping,2017.0,9.0,15.0,30,0,30,0,30,0,1,37166,0.0,0.0,0.0,0.0,0.36887010341438065,527,527,882
TZA,TZ,4806.0,46591.0,46591.0,manheigana,,32.988095,-3.427945,3,school,sentinel site,2018.0,10.0,15.0,60,0,60,0,60,0,1,37231,0.0,0.0,0.0,0.0,20384.813625709194,528,528,528
TZA,TZ,4797.0,46529.0,46529.0,manyanyi,,33.9731383,-1.1895567,3,school,mapping,2017.0,11.0,15.0,30,0,30,0,30,0,1,37041,0.0,0.0,0.0,0.0,0.19216848720788865,529,529,788
TZA,TZ,4797.0,46529.0,46529.0,manyara,,34.1523733,-1.3620217,3,school,mapping,2017.0,10.0,15.0,28,0,28,1,28,0,1,37042,0.0,0.0357142857142857,0.0,0.0336927223719676,1837.0199087992326,530,530,530
TZA,TZ,4797.0,46530.0,46530.0,manyata,,34.6828983,-1.6995133,3,school,mapping,2017.0,10.0,15.0,30,2,30,1,30,1,1,37107,0.0666666666666666,0.0333333333333333,0.0333333333333333,0.1206149545772187,3323.9322496525774,531,531,531
TZA,TZ,4809.0,46610.0,46610.0,mapinduzi,59849.0,32.316299,-5.0894299,3,,,2004.0,,,60,24,60,0,60,0,2,15984,0.4,0.0,0.0,0.3773584905660377,14413.50218657209,532,532,532
TZA,TZ,4789.0,46478.0,46478.0,mapinduzi,59574.0,31.9242,-2.6758499,3,,,2004.0,,,60,52,60,0,60,1,2,15657,0.8666666666666667,0.0,0.0166666666666666,0.8197064989517819,16083.140271970207,533,533,533
TZA,TZ,4797.0,46532.0,46532.0,mapinduzi,,34.6695267,-1.8441483,3,school,mapping,2017.0,10.0,15.0,30,0,30,2,30,0,1,37200,0.0,0.0666666666666666,0.0,0.0628930817610062,0.0,534,534,535
TZA,TZ,4797.0,46530.0,46530.0,mapinduzi,,34.6695267,-1.8441483,3,school,mapping,2017.0,10.0,14.0,30,0,30,0,30,0,1,37108,0.0,0.0,0.0,0.0,0.0,535,535,534
TZA,TZ,4803.0,46638.0,46638.0,mapinga,59465.0,39.0601559,-6.6065553,1,,,1997.0,,,18,12,18,1,18,2,3,15815,0.6666666666666666,0.0555555555555555,0.1111111111111111,0.6794005745787716,2273.4724509152225,536,536,536
TZA,TZ,4797.0,46525.0,46525.0,marambeka,,34.05057,-1.8734383,3,school,mapping,2017.0,11.0,15.0,30,0,30,0,30,0,1,36860,0.0,0.0,0.0,0.0,0.03341370704583824,537,537,312
TZA,TZ,4797.0,46530.0,46530.0,marasomoche,,34.5714833,-1.602615,3,school,mapping,2017.0,12.0,15.0,30,0,30,0,30,0,1,37109,0.0,0.0,0.0,0.0,0.3673543194308877,538,538,877
TZA,TZ,4797.0,46525.0,46525.0,mariwanda b,,34.1476017,-1.975975,3,school,mapping,2017.0,11.0,15.0,30,1,30,0,30,0,1,36861,0.0333333333333333,0.0,0.0,0.0314465408805031,0.18924313504248857,539,539,183
TZA,TZ,4797.0,46526.0,46526.0,masaba,,33.99698,-1.882145,3,ward,mapping,2018.0,,,30,0,30,1,30,0,1,22942,0.0,0.0333333333333333,0.0,0.0314465408805031,0.0,540,540,541
TZA,TZ,4797.0,46526.0,46526.0,masaba,,33.99698,-1.882145,3,ward,mapping,2018.0,,,30,0,30,0,30,0,1,22943,0.0,0.0,0.0,0.0,0.0,541,541,540
TZA,TZ,4810.0,46621.0,46621.0,masaika,59788.0,38.857101,-5.2811499,3,,,1996.0,,,50,39,50,5,50,0,3,16025,0.78,0.1,0.0,0.7566037735849056,12671.820141537864,542,542,542
TZA,TZ,4797.0,46530.0,46530.0,masangura,,34.5461883,-1.7896432999999998,3,school,mapping,2017.0,12.0,15.0,30,0,30,0,30,0,1,37110,0.0,0.0,0.0,0.0,6932.918398854035,543,543,543
TZA,TZ,4791.0,46487.0,46487.0,mashule,59518.0,31.386999,-1.42453,3,,,2004.0,,,60,44,60,3,60,0,2,15678,0.7333333333333333,0.05,0.0,0.7044025157232704,15733.273726088108,544,544,544
TZA,TZ,4797.0,46529.0,46529.0,masike,,34.0439583,-1.3123467,3,school,mapping,2017.0,10.0,15.0,30,0,30,0,30,0,1,37043,0.0,0.0,0.0,0.0,3304.5031646392767,545,545,545
TZA,TZ,4803.0,46638.0,46638.0,masuguru (masuguru a),59467.0,38.411369,-11.3462099,1,,,2011.0,,,16,1,16,0,16,1,1,15809,0.0625,0.0,0.0625,0.1142393867924528,413720.431324439,546,546,546
TZA,TZ,4803.0,,46531.0,masuguru (changa),,38.264462,-6.2100100000000005,4,,mapping,2011.0,0.0,9.0,3,1,3,0,3,0,1,31215,0.3333333333333333,0.0,0.0,0.3144654088050314,2096.3335017502873,547,547,547
TZA,TZ,,,46531.0,masuguru (masuguru a),,38.28257,-6.21515,4,,mapping,2011.0,0.0,9.0,16,1,16,0,16,1,1,31216,0.0625,0.0,0.0625,0.1142393867924528,2093.6785604159227,548,548,548
TZA,TZ,4797.0,46531.0,46531.0,masurura,,34.6657217,-1.4577933,3,school,mapping,2017.0,11.0,15.0,30,1,30,0,30,0,1,37167,0.0333333333333333,0.0,0.0,0.0314465408805031,2915.628915703025,549,549,549
TZA,TZ,4809.0,46608.0,46608.0,matale,59815.0,32.702702,-5.7369499,3,,,2004.0,,,61,31,61,0,61,1,2,15965,0.5081967213114754,0.0,0.0163934426229508,0.4870368586249385,8242.608587693809,550,550,550
TZA,TZ,4801.0,46560.0,46560.0,matale,59685.0,33.101002,-2.5243399,3,,,1997.0,,,109,59,109,0,109,1,3,15780,0.5412844036697247,0.0,0.0091743119266055,0.5146158524868467,4854.366533024072,551,551,551
TZA,TZ,4797.0,46530.0,46530.0,matare,,34.66699,-1.80958,3,ward,mapping,2018.0,,,30,0,30,0,30,0,1,23101,0.0,0.0,0.0,0.0,0.0,552,552,553
TZA,TZ,4797.0,46530.0,46530.0,matare,,34.66699,-1.80958,3,school,mapping,2017.0,11.0,15.0,30,0,30,0,30,0,1,37111,0.0,0.0,0.0,0.0,0.0,553,553,552
TZA,TZ,4801.0,46560.0,46560.0,matela,59686.0,33.156601,-2.54462,3,,,1997.0,,,119,4,119,0,119,0,3,15744,0.0336134453781512,0.0,0.0,0.0317107975265577,2538.368261760721,554,554,554
TZA,TZ,4797.0,46531.0,46531.0,matemankwe,,34.3275817,-1.23871,3,school,mapping,2017.0,11.0,15.0,30,0,30,0,30,0,1,37168,0.0,0.0,0.0,0.0,0.1892431345768273,555,555,1028
TZA,TZ,4809.0,46605.0,46605.0,matinje,59584.0,33.468399,-4.0322399,3,,,2004.0,,,61,3,61,0,61,0,2,15945,0.0491803278688524,0.0,0.0,0.0463965357253325,38918.30838628996,556,556,556
TZA,TZ,4803.0,,46531.0,matipwili (gama),,38.46817,-6.1301,4,,mapping,2011.0,0.0,9.0,2,0,2,0,2,1,1,31217,0.0,0.0,0.5,0.4716981132075471,2336.4195389390984,557,557,557
TZA,TZ,4803.0,,46531.0,matipwili (gobole),,38.449139,-6.1389,4,,mapping,2011.0,0.0,9.0,15,2,15,0,15,3,1,31218,0.1333333333333333,0.0,0.2,0.2893081761006289,2336.4195389390984,558,558,558
TZA,TZ,4803.0,,46531.0,matipwili (kaloleni),,38.332272,-6.25325,4,,mapping,2011.0,0.0,9.0,22,6,22,0,22,6,1,31219,0.2727272727272727,0.0,0.2727272727272727,0.4444097926087634,0.0,559,559,646
TZA,TZ,4803.0,,46531.0,matipwili (mkunguni),,38.426762,-6.13955,4,,mapping,2011.0,0.0,9.0,8,0,8,0,8,0,1,31248,0.0,0.0,0.0,0.0,63.097109855551594,560,560,560
TZA,TZ,4803.0,,46531.0,matipwili (msikitini),,38.427059,-6.13907,4,,mapping,2011.0,0.0,9.0,19,0,19,0,19,1,1,31249,0.0,0.0,0.0526315789473684,0.0496524329692154,63.097109855551594,561,561,561
TZA,TZ,4797.0,46631.0,46631.0,mcharo,,33.98063,-2.027128,3,ward,mapping,2018.0,,,30,1,30,0,30,0,1,22911,0.0333333333333333,0.0,0.0,0.0314465408805031,0.5575996812648673,562,562,151
TZA,TZ,4797.0,46525.0,46525.0,mchigondo,,33.304915,-2.0446167,3,school,mapping,2017.0,11.0,15.0,28,2,28,0,28,0,1,36862,0.0714285714285714,0.0,0.0,0.0673854447439353,0.5575997039306375,563,563,204
TZA,TZ,4803.0,,46531.0,matipwili (mzambarauni),,38.426159,-6.14031,4,,mapping,2011.0,0.0,9.0,6,0,6,0,6,0,1,31250,0.0,0.0,0.0,0.0,108.38043523739671,564,564,564
TZA,TZ,4803.0,,46531.0,matipwili (tumbilini),,38.396278,-6.11882,4,,mapping,2011.0,0.0,9.0,4,1,4,0,4,0,1,31251,0.25,0.0,0.0,0.2358490566037735,4105.290717934381,565,565,565
TZA,TZ,4797.0,46532.0,46532.0,matongo,,34.48647,-1.484538,3,ward,mapping,2018.0,,,30,2,30,0,30,0,1,23156,0.0666666666666666,0.0,0.0,0.0628930817610062,0.0,566,566,567
TZA,TZ,4797.0,46532.0,46532.0,matongo,,34.48647,-1.484538,3,ward,mapping,2018.0,,,30,0,30,0,30,0,1,23155,0.0,0.0,0.0,0.0,0.0,567,567,566
TZA,TZ,4807.0,46595.0,46595.0,mayega,59539.0,33.709702,-2.28913,3,,,1997.0,,,118,30,118,0,118,3,3,15904,0.2542372881355932,0.0,0.0254237288135593,0.2577333557370739,1302.3981753765447,568,568,568
TZA,TZ,4810.0,46622.0,46622.0,mazola kilifi,59832.0,39.067001,-4.9890699,3,,,1996.0,,,49,49,49,1,49,0,3,16030,1.0,0.0204081632653061,0.0,0.9433962264150942,9588.70872128282,569,569,569
TZA,TZ,4787.0,46468.0,46468.0,mbagala,,39.265999,-6.9,3,,,1998.0,12.0,18.0,231,74,0,0,0,0,3,29651,0.3203463203463203,,,,6608.976531870556,570,570,570
TZA,TZ,4797.0,46530.0,46530.0,mbalibali,,34.70416,-1.77605,3,ward,mapping,2018.0,,,29,7,29,0,29,0,1,23103,0.2413793103448276,0.0,0.0,0.2277163305139882,0.0,571,571,448
TZA,TZ,4797.0,46530.0,46530.0,mbalibali,,34.70416,-1.77605,3,ward,mapping,2018.0,,,30,3,30,0,30,0,1,23104,0.1,0.0,0.0,0.0943396226415094,0.0,572,572,448
TZA,TZ,4797.0,46530.0,46530.0,mbalibali,,34.70416,-1.77605,3,school,mapping,2017.0,10.0,15.0,30,3,30,0,30,0,1,37112,0.1,0.0,0.0,0.0943396226415094,0.0,573,573,448
TZA,TZ,4797.0,46529.0,46529.0,mbatamo,,33.9583033,-1.49078,3,school,mapping,2017.0,12.0,15.0,30,0,30,0,30,0,1,37044,0.0,0.0,0.0,0.0,3071.5280070368485,574,574,574
TZA,TZ,4797.0,46530.0,46530.0,mbilikiri,,34.81249,-1.8410417,3,school,mapping,2017.0,10.0,15.0,30,6,30,0,30,0,1,37113,0.2,0.0,0.0,0.1886792452830188,2448.768683231133,575,575,575
TZA,TZ,4797.0,46532.0,46532.0,mbogi,,34.54282,-1.321727,3,ward,mapping,2018.0,,,30,0,30,1,30,0,1,23157,0.0,0.0333333333333333,0.0,0.0314465408805031,0.0,576,576,577
