iso3,iso2,admin1_id,admin2_id,iu_id,location,site_id,longitude,latitude,georeliability,location_type,survey_type,year,age_start,age_end,hk_examined,hk_positive,hk_perc_highinfection,hk_perc_moderateinfection,asc_examined,asc_positive,asc_perc_highinfection,asc_perc_moderateinfection,tt_examined,tt_positive,tt_perc_highinfection,tt_perc_moderateinfection,quality,sn,shortest,id,src,dst
TZA,TZ,4797.0,46531.0,46531.0,abainano,,34.2848917,-1.3877117,3,school,mapping,2017.0,11.0,15.0,30,0,0.0,0.0,30,1,0.0,0.0,30,0,0.0,0.0,1,37145,4366.461723465257,0,0,0
TZA,TZ,4809.0,46610.0,46610.0,azimio,59845.0,32.078701,-5.0795999,3,,,2004.0,,,60,18,,,60,2,,,60,2,,,2,15986,8973.961518318778,1,1,1
TZA,TZ,4797.0,46528.0,46528.0,azimio,,33.8047617,-1.5016817,3,school,mapping,2017.0,10.0,14.0,29,1,0.0,0.0,29,0,0.0,0.0,29,0,0.0,0.0,1,36991,0.19216923043328524,2,2,397
TZA,TZ,4807.0,46595.0,46595.0,badugu,59529.0,33.65,-2.466667,1,,,1997.0,,,113,40,,,113,0,,,113,0,,,3,15918,6339.104343697856,3,3,3
TZA,TZ,4793.0,46503.0,46503.0,bagwe,,29.6191033,-4.8987983,3,school,sentinel site,2018.0,9.0,15.0,60,2,0.0,0.0,60,4,0.0,0.0,60,0,0.0,0.0,1,36840,0.0,4,4,5
TZA,TZ,4793.0,46503.0,46503.0,bagwe,,29.6191033,-4.8987983,3,school,sentinel site,2016.0,8.0,14.0,58,3,0.0,0.0,58,3,0.0,0.0,58,0,0.0,0.0,1,36836,0.0,5,5,4
TZA,TZ,4793.0,46503.0,46503.0,bagwe,,29.6191033,-4.8987983,3,school,sentinel site,2017.0,8.0,14.0,61,1,0.0,0.0,61,0,0.0,0.0,61,0,0.0,0.0,1,36837,0.0,6,6,4
TZA,TZ,4803.0,46575.0,46575.0,baleni,,39.799,-7.85,3,,,2000.0,6.0,18.0,105,92,,,105,2,,,105,34,,,3,29376,14422.968995302894,7,7,7
TZA,TZ,4797.0,46631.0,46631.0,balili,,33.87212,-2.031722,3,ward,mapping,2018.0,,,30,0,0.0,,30,0,0.0,,30,0,0.0,,1,22897,0.5575996879590478,8,8,9
TZA,TZ,4797.0,46631.0,46631.0,balili a,,33.872115,-2.0317217,3,school,mapping,2017.0,11.0,15.0,30,0,0.0,0.0,30,0,0.0,0.0,30,0,0.0,0.0,1,36884,0.5575996879590478,9,9,8
TZA,TZ,4797.0,46631.0,46631.0,balili b,,33.87247,-2.0316483,3,school,mapping,2017.0,10.0,15.0,31,0,0.0,0.0,31,0,0.0,0.0,31,0,0.0,0.0,1,36885,39.81730680733855,10,10,10
TZA,TZ,4797.0,46531.0,46531.0,bamagi vision,,34.646875,-1.3946567,3,school,mapping,2017.0,10.0,15.0,30,0,0.0,0.0,30,0,0.0,0.0,30,0,0.0,0.0,1,37146,0.5575990221141164,11,11,657
TZA,TZ,4797.0,46529.0,46529.0,baraki,,33.96552,-1.369015,3,ward,mapping,2018.0,,,30,0,0.0,,30,0,0.0,,30,0,0.0,,1,23023,0.1892431336455047,12,12,1008
TZA,TZ,4797.0,46526.0,46526.0,baranga,,34.2260267,-1.6781217,3,school,mapping,2017.0,10.0,15.0,30,0,0.0,0.0,30,0,0.0,0.0,30,0,0.0,0.0,1,36906,5090.061291817324,13,13,13
TZA,TZ,4807.0,46593.0,46593.0,bariadi,59504.0,33.9917222,-2.8069614,1,,,2004.0,,,62,3,,,62,0,,,62,0,,,2,15903,14730.270884240867,14,14,14
TZA,TZ,4797.0,46526.0,46526.0,biatika,,34.0834917,-1.7783433,3,school,mapping,2017.0,10.0,14.0,29,1,0.0,0.0,29,0,0.0,0.0,29,0,0.0,0.0,1,36907,0.1921700331672984,15,15,47
TZA,TZ,4791.0,46488.0,46488.0,bilele,59520.0,31.8137,-1.32849,3,,,2004.0,,,60,16,,,60,14,,,60,11,,,2,15682,322.28978219604386,16,16,16
TZA,TZ,4797.0,46532.0,46532.0,binagi,,34.46163,-1.372242,3,ward,mapping,2018.0,,,30,3,0.0,,30,2,0.0,,30,0,0.0,,1,23135,0.0,17,17,18
TZA,TZ,4797.0,46532.0,46532.0,binagi,,34.46163,-1.372242,3,school,mapping,2017.0,10.0,15.0,30,0,0.0,0.0,30,2,0.0,0.0,30,0,0.0,0.0,1,37195,0.0,18,18,17
TZA,TZ,4797.0,46532.0,46532.0,binagi,,34.46163,-1.372242,3,ward,mapping,2018.0,,,30,0,0.0,,30,0,0.0,,30,0,0.0,,1,23136,0.0,19,19,17
TZA,TZ,4807.0,46597.0,46597.0,binza,59704.0,33.779598,-3.18839,3,,,2004.0,,,61,2,,,61,0,,,61,0,,,2,15933,31525.902080146217,20,20,20
TZA,TZ,4797.0,46530.0,46530.0,bisarara,,34.8053933,-1.796,3,school,mapping,2017.0,10.0,15.0,30,3,0.0,0.0,30,0,0.0,0.0,30,0,0.0,0.0,1,37079,0.3673543194308877,21,21,975
TZA,TZ,4797.0,46531.0,46531.0,bisarwi,,34.25547,-1.437075,3,school,mapping,2017.0,10.0,14.0,30,0,0.0,0.0,30,0,0.0,0.0,30,0,0.0,0.0,1,37147,0.0,22,22,520
TZA,TZ,4797.0,46526.0,46526.0,bisumwa,,33.85492,-1.6126900000000002,3,ward,mapping,2018.0,,,30,0,0.0,,30,0,0.0,,30,0,0.0,,1,22919,0.3673543194308877,23,23,877
TZA,TZ,4797.0,46532.0,46532.0,bomani,,34.36347,-1.352015,3,ward,mapping,2018.0,,,30,0,0.0,,30,6,0.0,,30,0,0.0,,1,23183,0.0,24,24,25
TZA,TZ,4797.0,46532.0,46532.0,bomani,,34.36347,-1.352015,3,ward,mapping,2018.0,,,30,0,0.0,,30,0,0.0,,30,0,0.0,,1,23184,0.0,25,25,24
TZA,TZ,4810.0,46616.0,46616.0,bombo majimoto,59638.0,39.1140366,-5.0682708,1,,,1996.0,,,52,37,,,52,10,,,52,6,,,3,16008,2646.275938904548,26,26,26
TZA,TZ,4797.0,46531.0,46531.0,bongenge,,34.6086233,-1.4724867,3,school,mapping,2017.0,12.0,15.0,30,0,0.0,0.0,30,0,0.0,0.0,30,0,0.0,0.0,1,37148,6563.381056786579,27,27,27
TZA,TZ,4797.0,46531.0,46531.0,borega a,,34.5863733,-1.3220667,3,school,mapping,2017.0,11.0,15.0,30,0,0.0,0.0,30,0,0.0,0.0,30,0,0.0,0.0,1,37149,3361.939714743893,28,28,28
TZA,TZ,4801.0,46560.0,46560.0,bubinza,59664.0,33.483333,-2.533333,1,,,1997.0,,,115,37,,,115,0,,,115,0,,,3,15759,7524.644485479919,29,29,29
TZA,TZ,4789.0,46476.0,46476.0,bufanka,59522.0,31.9869,-3.6065199,3,,,2004.0,,,60,43,,,60,0,,,60,0,,,2,15635,12509.615041229139,30,30,30
TZA,TZ,4801.0,46560.0,46560.0,bugando,59665.0,33.171299,-2.5048699,3,,,1997.0,,,100,51,,,100,1,,,100,0,,,3,15770,3740.378674894071,31,31,31
TZA,TZ,4791.0,46493.0,46493.0,bugarama,59771.0,30.5322273,-2.8670033,1,,,2004.0,,,60,32,,,60,0,,,60,2,,,2,15704,23891.098531037875,32,32,32
TZA,TZ,4791.0,46492.0,46492.0,bugasha,,31.7443583,-1.57698,3,school,sentinel site,2016.0,9.0,13.0,59,1,0.0,0.0,59,34,0.0,0.0,59,10,0.0,0.0,1,36806,0.0,33,33,34
TZA,TZ,4791.0,46492.0,46492.0,bugasha,,31.7443583,-1.57698,3,school,sentinel site,2017.0,9.0,14.0,61,4,0.0,0.0,61,34,0.0,0.0,61,32,0.0,0.0,1,36807,0.0,34,34,33
TZA,TZ,4791.0,46492.0,46492.0,bugasha,,31.7443583,-1.57698,3,school,sentinel site,2018.0,10.0,15.0,60,30,0.0,0.02,60,16,0.0,0.0,60,26,0.0,0.03,1,36810,0.0,35,35,33
TZA,TZ,4797.0,46529.0,46529.0,bugendi b,,33.89011,-1.2289567,3,school,mapping,2017.0,11.0,15.0,30,1,0.0,0.0,30,1,0.0,0.0,30,0,0.0,0.0,1,37022,0.033403529901988804,36,36,796
TZA,TZ,4806.0,46590.0,46590.0,bugogo,59632.0,33.283333,-3.783333,1,,,0.0,,,180,19,,,180,0,,,180,0,,,3,15888,14017.194033325124,37,37,37
TZA,TZ,4789.0,46478.0,46478.0,bugogo,59571.0,31.9,-3.2,3,,,0.0,,,46,1,,,46,0,,,46,0,,,3,15650,7999.5237618316505,38,38,38
TZA,TZ,4797.0,46527.0,46527.0,bugoji,,33.73654,-1.90184,3,ward,mapping,2018.0,,,30,4,0.0,,30,0,0.0,,30,0,0.0,,1,22954,0.0,39,39,40
TZA,TZ,4797.0,46527.0,46527.0,bugoji,,33.73654,-1.90184,3,school,mapping,2017.0,11.0,15.0,30,4,0.0,0.0,30,0,0.0,0.0,30,0,0.0,0.0,1,36941,0.0,40,40,39
TZA,TZ,4797.0,46527.0,46527.0,bugoji,,33.73654,-1.90184,3,ward,mapping,2018.0,,,29,0,0.0,,29,0,0.0,,29,0,0.0,,1,22955,0.0,41,41,39
TZA,TZ,4797.0,46527.0,46527.0,bugwema,,33.67825,-1.945145,3,ward,mapping,2018.0,,,30,0,0.0,,30,0,0.0,,30,0,0.0,,1,22956,0.0,42,42,43
TZA,TZ,4797.0,46527.0,46527.0,bugwema,,33.67825,-1.945145,3,school,mapping,2017.0,11.0,15.0,30,0,0.0,0.0,30,0,0.0,0.0,30,0,0.0,0.0,1,36942,0.0,43,43,42
TZA,TZ,4806.0,46592.0,46592.0,buhangija,59805.0,33.4115968,-3.6880592,1,,,2004.0,,,60,3,,,60,0,,,60,0,,,2,15898,10016.75988313962,44,44,44
TZA,TZ,4797.0,46528.0,46528.0,buhare,,33.77921,-1.52766,3,ward,mapping,2018.0,,,30,0,0.0,,30,0,0.0,,30,0,0.0,,1,22998,0.0,45,45,46
TZA,TZ,4797.0,46528.0,46528.0,buhare,,33.77921,-1.52766,3,school,mapping,2017.0,10.0,15.0,30,0,0.0,0.0,30,0,0.0,0.0,30,0,0.0,0.0,1,36992,0.0,46,46,45
TZA,TZ,4797.0,46526.0,46526.0,buhemba,,34.08349,-1.778343,3,ward,mapping,2018.0,,,29,2,0.0,,29,0,0.0,,29,0,0.0,,1,22922,0.0,47,47,48
TZA,TZ,4797.0,46526.0,46526.0,buhemba,,34.08349,-1.778343,3,ward,mapping,2018.0,,,29,1,0.0,,29,0,0.0,,29,0,0.0,,1,22921,0.0,48,48,47
TZA,TZ,4797.0,46532.0,46532.0,buhemba,,34.3634733,-1.352015,3,school,mapping,2017.0,9.0,15.0,30,0,0.0,0.0,30,6,0.0,0.0,30,0,0.0,0.0,1,37196,0.3673543203622103,49,49,24
TZA,TZ,4801.0,46560.0,46560.0,buhumbi,59666.0,33.474899,-2.6381099,3,,,1997.0,,,119,59,,,119,0,,,119,0,,,3,15741,6202.045943659101,50,50,50
TZA,TZ,4797.0,46526.0,46526.0,bukabwa,,33.95291,-1.561722,3,ward,mapping,2018.0,,,29,2,0.0,,29,0,0.0,,29,0,0.0,,1,22923,0.0,51,51,52
TZA,TZ,4797.0,46526.0,46526.0,bukabwa,,33.95291,-1.561722,3,ward,mapping,2018.0,,,30,0,0.0,,30,0,0.0,,30,0,0.0,,1,22924,0.0,52,52,51
TZA,TZ,4797.0,46529.0,46529.0,bukama,,34.0829233,-1.2452967,3,school,mapping,2017.0,12.0,14.0,30,0,0.0,0.0,30,1,0.0,0.0,30,0,0.0,0.0,1,37023,0.36886990298442324,53,53,350
TZA,TZ,4797.0,46528.0,46528.0,bukanga jwtz,,33.76415,-1.4956383,3,school,mapping,2017.0,10.0,14.0,30,0,0.0,0.0,30,0,0.0,0.0,30,0,0.0,0.0,1,36993,0.033407229668227956,54,54,512
TZA,TZ,4797.0,46527.0,46527.0,bukima,,33.40542,-1.809357,3,ward,mapping,2018.0,,,30,0,0.0,,30,2,0.0,,30,0,0.0,,1,22959,0.0,55,55,56
TZA,TZ,4797.0,46527.0,46527.0,bukima,,33.40542,-1.809357,3,ward,mapping,2018.0,,,30,0,0.0,,30,0,0.0,,30,0,0.0,,1,22958,0.0,56,56,55
TZA,TZ,4789.0,46477.0,46477.0,bukiriguru,59562.0,31.7372,-2.9863801,3,,,2004.0,,,60,44,,,60,0,,,60,0,,,2,15638,5776.979397075965,57,57,57
TZA,TZ,4797.0,46529.0,46529.0,bukiro,,34.1451467,-1.1699217,3,school,mapping,2017.0,10.0,15.0,30,0,0.0,0.0,30,1,0.0,0.0,30,0,0.0,0.0,1,37024,4131.506500113228,58,58,58
TZA,TZ,4806.0,46589.0,46589.0,bukomela,59601.0,32.580002,-3.8399999,3,,,0.0,,,47,19,,,47,0,,,47,0,,,3,15883,0.0,59,59,60
TZA,TZ,4806.0,46589.0,46589.0,bukomela,59602.0,32.580002,-3.8399999,3,,,0.0,,,170,29,,,170,0,,,170,0,,,3,15885,0.0,60,60,59
TZA,TZ,4797.0,46631.0,46631.0,bukore,,33.9624817,-2.0490183,3,school,mapping,2017.0,11.0,15.0,30,0,0.0,0.0,30,0,0.0,0.0,30,0,0.0,0.0,1,36886,3166.170260793191,61,61,61
TZA,TZ,4797.0,46527.0,46527.0,bukumi,,33.31203,-1.911222,3,ward,mapping,2018.0,,,30,0,0.0,,30,0,0.0,,30,0,0.0,,1,22960,0.19217046746306835,62,62,107
TZA,TZ,4797.0,46529.0,46529.0,bukura,,34.11444,-1.190763,3,ward,mapping,2018.0,,,30,0,0.0,,30,1,0.0,,30,0,0.0,,1,23025,4131.506500113228,63,63,63
TZA,TZ,4797.0,46529.0,46529.0,bukwe,,34.22814,-1.374148,3,ward,mapping,2018.0,,,30,0,0.0,,30,0,0.0,,30,0,0.0,,1,23027,0.5575990047827105,64,64,891
TZA,TZ,4789.0,46480.0,46480.0,bukwimba,59777.0,32.608002,-3.3371501,3,,,2004.0,,,60,47,,,60,0,,,60,0,,,2,15664,14429.833184077046,65,65,65
TZA,TZ,4801.0,46564.0,46564.0,bulamba,59844.0,33.089008,-2.056107,3,,,0.0,,,146,4,,,146,0,,,146,1,,,3,15801,15190.049685098167,66,66,66
TZA,TZ,4797.0,46525.0,46525.0,bulamba,,33.62526,-2.1405183,3,school,mapping,2017.0,11.0,15.0,30,0,0.0,0.0,30,0,0.0,0.0,30,0,0.0,0.0,1,36842,0.0,67,67,68
TZA,TZ,4797.0,46525.0,46525.0,bulamba,59525.0,33.62526,-2.1405183,3,,,0.0,,,31,0,,,31,0,,,31,0,,,3,15714,0.0,68,68,67
TZA,TZ,4797.0,46525.0,46525.0,bulendabufwe,,33.3933783,-2.0713,3,school,mapping,2017.0,11.0,15.0,30,2,0.0,0.0,30,0,0.0,0.0,30,0,0.0,0.0,1,36843,5537.246799441148,69,69,69
TZA,TZ,4801.0,46559.0,46559.0,bulikinda,59647.0,32.9174517,-2.5164305,1,,,2004.0,,,60,15,,,60,4,,,60,0,,,2,15739,4141.3260651817845,70,70,70
TZA,TZ,4797.0,46527.0,46527.0,bulinga,,33.39932,-1.836287,3,ward,mapping,2018.0,,,29,0,0.0,,29,1,0.0,,29,0,0.0,,1,22963,0.0,71,71,72
TZA,TZ,4797.0,46527.0,46527.0,bulinga,,33.39932,-1.836287,3,ward,mapping,2018.0,,,29,2,0.0,,29,0,0.0,,29,0,0.0,,1,22962,0.0,72,72,71
TZA,TZ,4807.0,46596.0,46596.0,bulolambeshi,59591.0,34.1189,-2.7704599,3,,,2004.0,,,61,11,,,61,0,,,61,0,,,2,15929,14730.270884240867,73,73,73
TZA,TZ,4797.0,46526.0,46526.0,bumangi,,34.01205,-1.7235933,3,school,mapping,2017.0,11.0,15.0,30,0,0.0,0.0,30,0,0.0,0.0,30,0,0.0,0.0,1,36908,5708.921308565445,74,74,74
TZA,TZ,4797.0,46532.0,46532.0,bumera,,34.28857,-1.291617,3,ward,mapping,2018.0,,,28,7,0.0,,28,0,0.0,,28,0,0.0,,1,23137,0.0,75,75,76
TZA,TZ,4797.0,46532.0,46532.0,bumera,,34.28857,-1.291617,3,ward,mapping,2018.0,,,30,2,0.0,,30,0,0.0,,30,0,0.0,,1,23138,0.0,76,76,75
TZA,TZ,4797.0,46631.0,46631.0,bunda,,33.878,-2.017053,3,ward,mapping,2018.0,,,30,2,0.0,,30,0,0.0,,30,0,0.0,,1,22899,0.36887106504158285,77,77,160
TZA,TZ,4797.0,46631.0,46631.0,bunda stoo,,33.86381,-2.013945,3,ward,mapping,2018.0,,,30,1,0.0,,30,0,0.0,,30,0,0.0,,1,22902,0.0,78,78,79
TZA,TZ,4797.0,46631.0,46631.0,bunda stoo,,33.86381,-2.013945,3,ward,mapping,2018.0,,,30,0,0.0,,30,0,0.0,,30,0,0.0,,1,22901,0.0,79,79,78
TZA,TZ,4801.0,46560.0,46560.0,bundilya,59667.0,33.337299,-2.57693,3,,,1997.0,,,118,41,,,118,0,,,118,0,,,3,15763,4686.308792407194,80,80,80
TZA,TZ,4791.0,46492.0,46492.0,bunena,59756.0,31.5,-2.0,3,,,0.0,,,42,2,,,42,18,,,42,14,,,3,15696,6196.278271580455,81,81,81
TZA,TZ,4791.0,46487.0,46487.0,bunena,,31.8153433,-1.3543817,3,school,sentinel site,2016.0,8.0,12.0,56,1,0.0,0.0,56,13,0.0,0.0,56,4,0.0,0.0,1,36794,0.0,82,82,83
TZA,TZ,4791.0,46487.0,46487.0,bunena,,31.8153433,-1.3543817,3,school,sentinel site,2017.0,5.0,14.0,60,5,0.0,0.0,60,13,0.0,0.0,60,11,0.0,0.0,1,36795,0.0,83,83,82
TZA,TZ,4791.0,46487.0,46487.0,bunena,,31.8153433,-1.3543817,3,school,sentinel site,2018.0,9.0,15.0,60,4,0.0,0.0,60,13,0.0,0.0,60,11,0.0,0.02,1,36796,0.0,84,84,82
TZA,TZ,4791.0,46488.0,46488.0,bunena,59521.0,31.812561,-1.331151,3,,,0.0,,,125,2,,,125,32,,,125,4,,,3,15683,322.28978219604386,85,85,85
TZA,TZ,4797.0,46525.0,46525.0,bunere,,33.4069983,-2.1534583,3,school,mapping,2017.0,11.0,15.0,30,0,0.0,0.0,30,0,0.0,0.0,30,0,0.0,0.0,1,36844,5348.430930151828,86,86,86
TZA,TZ,4801.0,46563.0,46563.0,bungonya,59794.0,32.56649,-2.52897,3,,,0.0,,,160,59,,,160,0,,,160,0,,,3,15791,9744.36979090677,87,87,87
TZA,TZ,4797.0,46526.0,46526.0,buruma,,33.88461,-1.729997,3,ward,mapping,2018.0,,,30,4,0.0,,30,0,0.0,,30,0,0.0,,1,22926,0.0,88,88,89
TZA,TZ,4797.0,46526.0,46526.0,buruma,,33.88461,-1.729997,3,ward,mapping,2018.0,,,30,0,0.0,,30,0,0.0,,30,0,0.0,,1,22925,0.0,89,89,88
TZA,TZ,4797.0,46527.0,46527.0,burungu,,33.3141117,-1.9435,3,school,mapping,2017.0,11.0,15.0,30,0,0.0,0.0,30,0,0.0,0.0,30,0,0.0,0.0,1,36943,3602.6651065837004,90,90,90
TZA,TZ,4801.0,46560.0,46560.0,busalanga,59668.0,33.5598042,-2.6456882,1,,,1997.0,,,119,50,,,119,1,,,119,0,,,3,15767,5473.124126666553,91,91,91
TZA,TZ,4797.0,46527.0,46527.0,busamba,,33.693985,-1.4968067,3,school,mapping,2017.0,11.0,15.0,30,0,0.0,0.0,30,0,0.0,0.0,30,0,0.0,0.0,1,36944,0.5575991117645507,92,92,168
TZA,TZ,4797.0,46527.0,46527.0,busambara,,33.67095,-1.734357,3,ward,mapping,2018.0,,,30,1,0.0,,30,4,0.0,,30,0,0.0,,1,22964,0.0,93,93,94
TZA,TZ,4797.0,46527.0,46527.0,busambara,,33.67095,-1.734357,3,ward,mapping,2018.0,,,30,0,0.0,,30,0,0.0,,30,0,0.0,,1,22965,0.0,94,94,93
TZA,TZ,4797.0,46530.0,46530.0,busawe,,34.42384,-1.5888300000000002,3,ward,mapping,2018.0,,,30,0,0.0,,30,2,0.0,,30,0,0.0,,1,23077,0.0,95,95,96
TZA,TZ,4797.0,46530.0,46530.0,busawe,,34.42384,-1.5888300000000002,3,ward,mapping,2018.0,,,30,0,0.0,,30,0,0.0,,30,0,0.0,,1,23076,0.0,96,96,95
TZA,TZ,4797.0,46530.0,46530.0,busawe,,34.42384,-1.5888300000000002,3,school,mapping,2017.0,10.0,15.0,30,0,0.0,0.0,30,0,0.0,0.0,30,0,0.0,0.0,1,37080,0.0,97,97,95
TZA,TZ,4797.0,46526.0,46526.0,busegwa,,33.89349,-1.699192,3,ward,mapping,2018.0,,,29,0,0.0,,29,0,0.0,,29,0,0.0,,1,22927,0.1921697895042344,98,98,870
TZA,TZ,4801.0,46560.0,46560.0,busekwa,59669.0,33.0382,-2.53353,3,,,1997.0,,,115,63,,,115,0,,,115,0,,,3,15747,1576.3759474883154,99,99,99
TZA,TZ,4801.0,46559.0,46559.0,bushini,59648.0,33.220402,-3.04375,3,,,2004.0,,,60,9,,,60,0,,,60,0,,,2,15740,15066.18850884044,100,100,100
TZA,TZ,4810.0,46621.0,46621.0,bushiri,59786.0,38.955898,-5.3631301,3,,,1996.0,,,49,41,,,49,2,,,49,2,,,3,16026,3068.823838350366,101,101,101
TZA,TZ,4806.0,46591.0,46591.0,bushola,,33.4934433,-3.5014017,3,school,sentinel site,2018.0,9.0,15.0,60,1,0.0,0.0,60,0,0.0,0.0,60,0,0.0,0.0,1,37228,3379.5790237198444,102,102,102
TZA,TZ,4806.0,46591.0,46591.0,bushoma,59802.0,33.229,-3.66998,3,,,2004.0,,,61,22,,,61,0,,,61,0,,,2,15895,14017.194033325124,103,103,103
TZA,TZ,4801.0,46563.0,46563.0,busisi,59795.0,32.8281946,-2.5300419,1,,,0.0,,,179,9,,,179,0,,,179,0,,,3,15795,0.0,104,104,105
TZA,TZ,4801.0,46563.0,46563.0,busisi,59795.0,32.8281946,-2.5300419,1,,,0.0,,,46,0,,,46,0,,,46,0,,,3,15793,0.0,105,105,104
TZA,TZ,4797.0,46525.0,46525.0,busore,,34.0736933,-1.9304883,3,school,mapping,2017.0,11.0,15.0,30,2,0.0,0.0,30,0,0.0,0.0,30,0,0.0,0.0,1,36845,0.3688709074586276,106,106,842
TZA,TZ,4797.0,46527.0,46527.0,bussekera,,33.3120317,-1.9112217,3,school,mapping,2017.0,11.0,15.0,30,0,0.0,0.0,30,0,0.0,0.0,30,0,0.0,0.0,1,36945,0.19217046746306835,107,107,62
TZA,TZ,4797.0,46527.0,46527.0,busungu,,33.3993217,-1.8362867,3,school,mapping,2017.0,11.0,15.0,29,2,0.0,0.0,29,0,0.0,0.0,29,0,0.0,0.0,1,36946,0.19217021797691256,108,108,71
TZA,TZ,4793.0,46502.0,46502.0,busunzu,,30.6003133,-3.9610183,3,school,sentinel site,2018.0,10.0,15.0,60,0,0.0,0.0,60,1,0.0,0.0,60,0,0.0,0.0,1,36828,0.0,109,109,110
TZA,TZ,4793.0,46502.0,46502.0,busunzu,,30.6003133,-3.9610183,3,school,sentinel site,2016.0,8.0,16.0,60,0,0.0,0.0,60,1,0.0,0.0,60,0,0.0,0.0,1,36824,0.0,110,110,109
TZA,TZ,4793.0,46502.0,46502.0,busunzu,,30.6003133,-3.9610183,3,school,sentinel site,2017.0,9.0,14.0,60,0,0.0,0.0,60,0,0.0,0.0,60,0,0.0,0.0,1,36825,0.0,111,111,109
TZA,TZ,4797.0,46526.0,46526.0,buswahili,,34.19166,-1.612183,3,ward,mapping,2018.0,,,30,0,0.0,,30,0,0.0,,30,0,0.0,,1,22929,0.3688703862278851,112,112,438
TZA,TZ,4797.0,46631.0,46631.0,butakale,,33.8408367,-2.051545,3,school,mapping,2017.0,10.0,15.0,30,0,0.0,0.0,30,0,0.0,0.0,30,0,0.0,0.0,1,36887,4123.02306617298,113,113,113
TZA,TZ,4797.0,46527.0,46527.0,butata b,,33.4260317,-1.8286233,3,school,mapping,2017.0,11.0,15.0,30,0,0.0,0.0,30,0,0.0,0.0,30,0,0.0,0.0,1,36947,3093.424061748077,114,114,114
TZA,TZ,4797.0,46526.0,46526.0,butiama,,33.92113,-1.768567,3,ward,mapping,2018.0,,,30,2,0.0,,30,0,0.0,,30,0,0.0,,1,22932,0.0,115,115,116
TZA,TZ,4797.0,46526.0,46526.0,butiama,,33.92113,-1.768567,3,ward,mapping,2018.0,,,29,1,0.0,,29,0,0.0,,29,0,0.0,,1,22931,0.0,116,116,115
TZA,TZ,4797.0,46631.0,46631.0,butimba,,33.62526,-2.140518,3,ward,mapping,2018.0,,,30,0,0.0,,30,0,0.0,,30,0,0.0,,1,22861,0.03341916544013657,117,117,67
TZA,TZ,4797.0,46526.0,46526.0,butuguri,,33.96207,-1.663873,3,ward,mapping,2018.0,,,30,1,0.0,,30,0,0.0,,30,0,0.0,,1,22933,0.0,118,118,119
TZA,TZ,4797.0,46526.0,46526.0,butuguri,,33.96207,-1.663873,3,ward,mapping,2018.0,,,30,0,0.0,,30,0,0.0,,30,0,0.0,,1,22934,0.0,119,119,118
TZA,TZ,4797.0,46526.0,46526.0,buturu,,33.9211267,-1.7685667,3,school,mapping,2017.0,11.0,15.0,29,1,0.0,0.0,29,0,0.0,0.0,29,0,0.0,0.0,1,36909,0.36887062935876064,120,120,115
TZA,TZ,4797.0,46526.0,46526.0,buzahya,,33.8846083,-1.7299967,3,school,mapping,2017.0,11.0,15.0,30,0,0.0,0.0,30,0,0.0,0.0,30,0,0.0,0.0,1,36910,0.1921698830942908,121,121,88
TZA,TZ,4789.0,46477.0,46477.0,buzirayombo,59563.0,31.77861,-2.7783301,3,,,0.0,,,120,44,,,120,40,,,120,0,,,3,15640,0.0,122,122,123
TZA,TZ,4789.0,46477.0,46477.0,buzirayombo,59563.0,31.77861,-2.7783301,3,,,0.0,,,90,33,,,90,6,,,90,0,,,3,15641,0.0,123,123,122
TZA,TZ,4797.0,46527.0,46527.0,bwai,,33.560385,-1.68934,3,school,sentinel site,2017.0,8.0,14.0,60,2,0.0,0.0,60,0,0.0,0.0,60,0,0.0,0.0,1,36949,0.0,124,124,125
TZA,TZ,4797.0,46527.0,46527.0,bwai,,33.560385,-1.68934,3,school,sentinel site,2016.0,7.0,13.0,60,0,0.0,0.0,60,0,0.0,0.0,60,0,0.0,0.0,1,36948,0.0,125,125,124
TZA,TZ,4797.0,46527.0,46527.0,bwai a,,33.560385,-1.68934,3,school,sentinel site,2018.0,9.0,15.0,60,0,0.0,0.0,60,0,0.0,0.0,60,0,0.0,0.0,1,36950,0.0,126,126,124
TZA,TZ,4797.0,46527.0,46527.0,bwai b,,33.5619283,-1.68946,3,school,mapping,2017.0,11.0,15.0,30,0,0.0,0.0,30,0,0.0,0.0,30,0,0.0,0.0,1,36951,172.3183798367626,127,127,127
TZA,TZ,4789.0,46477.0,46477.0,bwanga,59564.0,31.7594384,-3.0332046,1,,,0.0,,,95,36,,,95,27,,,95,0,,,3,15639,0.0,128,128,129
TZA,TZ,4789.0,46477.0,46477.0,bwanga,59564.0,31.7594384,-3.0332046,1,,,0.0,,,33,3,,,33,8,,,33,1,,,3,15646,0.0,129,129,128
TZA,TZ,4797.0,46527.0,46527.0,bwasi,,33.32435,-1.853517,3,ward,mapping,2018.0,,,30,1,0.0,,30,0,0.0,,30,0,0.0,,1,22966,0.0,130,130,131
TZA,TZ,4797.0,46527.0,46527.0,bwasi,,33.32435,-1.853517,3,ward,mapping,2018.0,,,30,0,0.0,,30,0,0.0,,30,0,0.0,,1,22967,0.0,131,131,130
TZA,TZ,4797.0,46527.0,46527.0,bwenda b,,33.442625,-1.8644317,3,school,mapping,2017.0,11.0,15.0,30,0,0.0,0.0,30,2,0.0,0.0,30,0,0.0,0.0,1,36952,0.5575994890931237,132,132,950
TZA,TZ,4789.0,46477.0,46477.0,bwera,59565.0,31.682199,-2.9888101,3,,,2004.0,,,60,45,,,60,1,,,60,1,,,2,15644,2219.4901972085013,133,133,133
TZA,TZ,4797.0,46528.0,46528.0,bweri,,33.81339,-1.549167,3,ward,mapping,2018.0,,,27,0,0.0,,27,3,0.0,,27,0,0.0,,1,23002,0.0,134,134,135
TZA,TZ,4797.0,46528.0,46528.0,bweri,,33.81339,-1.549167,3,school,mapping,2017.0,9.0,15.0,27,0,0.0,0.0,27,3,0.0,0.0,27,0,0.0,0.0,1,36997,0.0,135,135,134
TZA,TZ,4797.0,46528.0,46528.0,bweri,,33.81339,-1.549167,3,ward,mapping,2018.0,,,30,0,0.0,,30,3,0.0,,30,0,0.0,,1,23001,0.0,136,136,134
TZA,TZ,4797.0,46528.0,46528.0,bweri,,33.81339,-1.549167,3,ward,mapping,2018.0,,,30,0,0.0,,30,1,0.0,,30,0,0.0,,1,23000,0.0,137,137,134
TZA,TZ,4797.0,46528.0,46528.0,bweri,,33.81339,-1.549167,3,school,sentinel site,2018.0,9.0,15.0,57,0,0.0,0.0,57,4,0.0,0.0,57,0,0.0,0.0,1,36996,0.0,138,138,134
TZA,TZ,4797.0,46528.0,46528.0,bweri,,33.81339,-1.549167,3,school,sentinel site,2017.0,8.0,13.0,60,0,0.0,0.0,60,0,0.0,0.0,60,0,0.0,0.0,1,36995,0.0,139,139,134
TZA,TZ,4797.0,46528.0,46528.0,bweri,,33.81339,-1.549167,3,school,sentinel site,2016.0,7.0,13.0,55,0,0.0,0.0,55,0,0.0,0.0,55,0,0.0,0.0,1,36994,0.0,140,140,134
TZA,TZ,4789.0,46477.0,46477.0,bwina,59566.0,31.822771,-2.6145091,3,,,0.0,,,48,33,,,48,15,,,48,1,,,3,15643,0.0,141,141,142
TZA,TZ,4789.0,46477.0,46477.0,bwina,59566.0,31.822771,-2.6145091,3,,,0.0,,,155,41,,,155,0,,,155,0,,,3,15647,0.0,142,142,141
TZA,TZ,4797.0,46526.0,46526.0,bwiregi,,34.06585,-1.588788,3,ward,mapping,2018.0,,,30,1,0.0,,30,0,0.0,,30,0,0.0,,1,22936,0.0,143,143,144
TZA,TZ,4797.0,46526.0,46526.0,bwiregi,,34.06585,-1.588788,3,ward,mapping,2018.0,,,30,0,0.0,,30,0,0.0,,30,0,0.0,,1,22935,0.0,144,144,143
TZA,TZ,4797.0,46530.0,46530.0,bwitengi,,34.66069,-1.8950183,3,school,mapping,2017.0,10.0,14.0,30,0,0.0,0.0,30,0,0.0,0.0,30,0,0.0,0.0,1,37081,5077.135921247714,145,145,145
TZA,TZ,4810.0,46619.0,46619.0,bwiti,59740.0,38.816667,-4.783333,1,,,1996.0,,,45,20,,,45,6,,,45,10,,,3,16017,5145.25812664042,146,146,146
TZA,TZ,4791.0,46489.0,46489.0,chabuhora,59613.0,30.9751,-1.81133,3,,,2004.0,,,60,50,,,60,0,,,60,0,,,2,15686,12853.918521371348,147,147,147
TZA,TZ,4797.0,46525.0,46525.0,chamakapo,,33.511495,-2.100875,3,school,mapping,2017.0,11.0,15.0,30,0,0.0,0.0,30,0,0.0,0.0,30,0,0.0,0.0,1,36846,0.5565974535420537,148,148,730
TZA,TZ,4791.0,46489.0,46489.0,chamchuzi,,30.85969,-1.81501,3,school,sentinel site,2017.0,9.0,15.0,60,5,0.0,0.0,60,2,0.0,0.0,60,1,0.0,0.0,1,36801,0.0,149,149,150
TZA,TZ,4791.0,46489.0,46489.0,chamchuzi,,30.85969,-1.81501,3,school,sentinel site,2018.0,10.0,15.0,60,0,0.0,0.0,60,2,0.0,0.0,60,0,0.0,0.0,1,36804,0.0,150,150,149
TZA,TZ,4791.0,46489.0,46489.0,chamchuzi,,30.85969,-1.81501,3,school,sentinel site,2016.0,6.0,14.0,53,0,0.0,0.0,53,1,0.0,0.0,53,0,0.0,0.0,1,36800,0.0,151,151,149
TZA,TZ,4797.0,46525.0,46525.0,chamtigiti,,34.0563917,-1.9982517,3,school,mapping,2017.0,12.0,15.0,30,0,0.0,0.0,30,0,0.0,0.0,30,0,0.0,0.0,1,36847,2843.7411853018093,152,152,152
TZA,TZ,4801.0,46560.0,46560.0,chandulu,59670.0,33.602699,-2.6696899,3,,,1997.0,,,120,62,,,120,0,,,120,0,,,3,15765,2017.5196208925493,153,153,153
TZA,TZ,4797.0,46631.0,46631.0,changuge,,33.980625,-2.0271283,3,school,mapping,2017.0,10.0,15.0,30,1,0.0,0.0,30,0,0.0,0.0,30,0,0.0,0.0,1,36888,0.5575996812648673,154,154,555
TZA,TZ,4809.0,46610.0,46610.0,chekeleni,59846.0,32.004799,-5.0475202,3,,,2004.0,,,60,28,,,60,0,,,60,0,,,2,15982,7145.703777588817,155,155,155
TZA,TZ,4806.0,46591.0,46591.0,chibe,,33.35764,-3.59736,3,school,sentinel site,2018.0,9.0,15.0,60,0,0.0,0.0,60,0,0.0,0.0,60,0,0.0,0.0,1,37229,2294.7318459681383,156,156,156
TZA,TZ,4789.0,46478.0,46478.0,chibingo,59572.0,32.000893,-2.9564221,3,,,0.0,,,195,59,,,195,0,,,195,0,,,3,15656,0.0,157,157,158
TZA,TZ,4789.0,46478.0,46478.0,chibingo,59572.0,32.000893,-2.9564221,3,,,0.0,,,50,8,,,50,0,,,50,0,,,3,15653,0.0,158,158,157
TZA,TZ,4797.0,46527.0,46527.0,chimati b,,33.3504817,-1.8832733,3,school,mapping,2017.0,10.0,15.0,30,0,0.0,0.0,30,0,0.0,0.0,30,0,0.0,0.0,1,36953,0.1921703737050727,159,159,510
TZA,TZ,4797.0,46631.0,46631.0,chiringe b,,33.8779967,-2.0170533,3,school,mapping,2017.0,10.0,15.0,30,2,0.0,0.0,30,0,0.0,0.0,30,0,0.0,0.0,1,36889,0.36887106504158285,160,160,77
TZA,TZ,4797.0,46527.0,46527.0,chirorwe,,33.6726183,-1.8200583,3,school,mapping,2017.0,12.0,15.0,30,0,0.0,0.0,30,1,0.0,0.0,30,0,0.0,0.0,1,36954,4132.2900733954075,161,161,161
TZA,TZ,4797.0,46631.0,46631.0,chitengule,,33.43539,-2.109638,3,ward,mapping,2018.0,,,30,0,0.0,,30,0,0.0,,30,0,0.0,,1,22863,0.03341849660500884,162,162,719
TZA,TZ,4807.0,46595.0,46595.0,chumve,59530.0,33.709599,-2.2774401,3,,,1997.0,,,119,35,,,119,0,,,119,0,,,3,15906,1302.3981753765447,163,163,163
TZA,TZ,4810.0,46619.0,46619.0,daluni,59741.0,38.771198,-4.7750602,3,,,1996.0,,,51,34,,,51,2,,,51,14,,,3,16016,5145.25812664042,164,164,164
TZA,TZ,4797.0,46531.0,46531.0,destiny,,34.596485,-1.3505167,3,school,mapping,2017.0,11.0,15.0,30,0,0.0,0.0,30,0,0.0,0.0,30,0,0.0,0.0,1,37150,563.7931874522036,165,165,165
TZA,TZ,4797.0,46530.0,46530.0,enyamai,,34.6542683,-1.8264683,3,school,mapping,2017.0,11.0,15.0,30,0,0.0,0.0,30,0,0.0,0.0,30,0,0.0,0.0,1,37082,2354.462978846232,166,166,166
TZA,TZ,4797.0,46529.0,46529.0,erengo,,33.9618117,-1.3672133,3,school,mapping,2017.0,11.0,15.0,30,0,0.0,0.0,30,0,0.0,0.0,30,0,0.0,0.0,1,37026,458.97477357235704,167,167,167
TZA,TZ,4797.0,46527.0,46527.0,etaro,,33.69398,-1.496807,3,ward,mapping,2018.0,,,30,15,0.0,,30,1,0.0,,30,0,0.0,,1,22969,0.0,168,168,169
TZA,TZ,4797.0,46527.0,46527.0,etaro,,33.69398,-1.496807,3,ward,mapping,2018.0,,,30,0,0.0,,30,0,0.0,,30,0,0.0,,1,22968,0.0,169,169,168
TZA,TZ,4797.0,46530.0,46530.0,fort ikoma,,34.6382883,-2.0847183,3,school,mapping,2017.0,9.0,14.0,30,0,0.0,0.0,30,0,0.0,0.0,30,0,0.0,0.0,1,37083,0.19217107998674518,170,170,220
TZA,TZ,4797.0,46529.0,46529.0,gabimori,,33.9197867,-1.274335,3,school,mapping,2017.0,11.0,15.0,30,2,0.0,0.0,30,0,0.0,0.0,30,0,0.0,0.0,1,37027,0.3673543184995651,171,171,466
TZA,TZ,4801.0,46560.0,46560.0,galamugi (nyang'hang,59671.0,33.498699,-2.6884301,3,,,1997.0,,,121,75,,,121,0,,,121,0,,,3,15753,6202.045943659101,172,172,172
TZA,TZ,4797.0,46531.0,46531.0,gamasara,59840.0,34.333333,-1.333333,1,,,0.0,,,157,20,,,157,3,,,157,0,,,3,15723,0.0,173,173,174
TZA,TZ,4797.0,46531.0,46531.0,gamasara,59840.0,34.333333,-1.333333,1,,,0.0,,,43,0,,,43,0,,,43,0,,,3,15722,0.0,174,174,173
TZA,TZ,4797.0,46532.0,46532.0,ganyange,,34.59833,-1.355233,3,ward,mapping,2018.0,,,30,0,0.0,,30,1,0.0,,30,0,0.0,,1,23140,0.0,175,175,176
TZA,TZ,4797.0,46532.0,46532.0,ganyange,,34.59833,-1.355233,3,ward,mapping,2018.0,,,30,0,0.0,,30,0,0.0,,30,0,0.0,,1,23139,0.0,176,176,175
TZA,TZ,4797.0,46530.0,46530.0,gesarya,,34.6206167,-1.7086633,3,school,mapping,2017.0,10.0,15.0,30,0,0.0,0.0,30,0,0.0,0.0,30,0,0.0,0.0,1,37084,0.36887053466530145,177,177,947
TZA,TZ,4797.0,46530.0,46530.0,getasamo,,34.62414,-1.783518,3,ward,mapping,2018.0,,,31,0,0.0,,31,0,0.0,,31,0,0.0,,1,23078,0.19217004970399706,178,178,242
TZA,TZ,4797.0,46531.0,46531.0,gibasisi,,34.6732517,-1.432715,3,school,mapping,2017.0,10.0,15.0,30,0,0.0,0.0,30,0,0.0,0.0,30,0,0.0,0.0,1,37151,0.1892431345768273,179,179,183
TZA,TZ,4807.0,46595.0,46595.0,gininiga,59531.0,33.7,-2.433333,1,,,1997.0,,,118,50,,,118,0,,,118,0,,,3,15923,2996.209190673623,180,180,180
TZA,TZ,4797.0,46529.0,46529.0,goribe,,34.22543,-1.137095,3,ward,mapping,2018.0,,,30,5,0.0,,30,1,0.0,,30,1,0.0,,1,23030,0.0,181,181,182
TZA,TZ,4797.0,46529.0,46529.0,goribe,,34.22543,-1.137095,3,ward,mapping,2018.0,,,30,0,0.0,,30,0,0.0,,30,0,0.0,,1,23029,0.0,182,182,181
TZA,TZ,4797.0,46532.0,46532.0,gorong'a,,34.67325,-1.432715,3,ward,mapping,2018.0,,,30,1,0.0,,30,0,0.0,,30,0,0.0,,1,23142,0.0,183,183,184
TZA,TZ,4797.0,46532.0,46532.0,gorong'a,,34.67325,-1.432715,3,ward,mapping,2018.0,,,30,0,0.0,,30,0,0.0,,30,0,0.0,,1,23141,0.0,184,184,183
TZA,TZ,4809.0,46611.0,46611.0,goweko,59852.0,33.133333,-5.333333,1,,,2004.0,,,61,32,,,61,0,,,61,0,,,2,15992,19666.459379805692,185,185,185
TZA,TZ,4807.0,46595.0,46595.0,gusama,59532.0,33.8214,-2.35903,3,,,1997.0,,,113,42,,,113,0,,,113,0,,,3,15917,5572.130475826132,186,186,186
TZA,TZ,4797.0,46525.0,46525.0,guta,59526.0,33.741417,-2.0755849,3,,,0.0,,,125,3,,,125,0,,,125,0,,,3,15710,0.0,187,187,188
TZA,TZ,4797.0,46525.0,46525.0,guta,59526.0,33.741417,-2.0755849,3,,,0.0,,,39,0,,,39,0,,,39,0,,,3,15712,0.0,188,188,187
TZA,TZ,4797.0,46631.0,46631.0,guta,,33.71536,-2.020932,3,ward,mapping,2018.0,,,30,0,0.0,,30,0,0.0,,30,0,0.0,,1,22903,0.1921708491367832,189,189,367
TZA,TZ,4797.0,46631.0,46631.0,guta b,,33.7296683,-2.076155,3,school,mapping,2017.0,11.0,15.0,30,0,0.0,0.0,30,0,0.0,0.0,30,0,0.0,0.0,1,36890,1309.4001783390736,190,190,190
TZA,TZ,4797.0,46531.0,46531.0,gwitiryo,,34.48467,-1.2689267,3,school,mapping,2017.0,11.0,15.0,30,0,0.0,0.0,30,0,0.0,0.0,30,0,0.0,0.0,1,37152,0.0334040395100601,191,191,930
TZA,TZ,4797.0,46631.0,46631.0,hunyari,,34.1476,-1.975975,3,ward,mapping,2018.0,,,30,1,0.0,,30,0,0.0,,30,0,0.0,,1,22866,0.0,192,192,193
TZA,TZ,4797.0,46631.0,46631.0,hunyari,,34.1476,-1.975975,3,ward,mapping,2018.0,,,30,0,0.0,,30,0,0.0,,30,0,0.0,,1,22865,0.0,193,193,192
TZA,TZ,4806.0,46643.0,46643.0,ibambala,,32.2537486,-4.1338126,3,school,sentinel site,2018.0,10.0,15.0,60,1,0.0,0.0,60,0,0.0,0.0,60,0,0.0,0.0,1,37240,12177.455975177649,194,194,194
TZA,TZ,4791.0,46493.0,46493.0,ibuga,,30.4928467,-2.656275,3,school,sentinel site,2017.0,8.0,14.0,62,0,0.0,0.0,62,14,0.0,0.0,62,1,0.0,0.0,1,36813,0.0,195,195,196
TZA,TZ,4791.0,46493.0,46493.0,ibuga,,30.4928467,-2.656275,3,school,sentinel site,2016.0,10.0,15.0,59,41,0.0,0.0,59,4,0.0,0.0,59,4,0.0,0.0,1,36812,0.0,196,196,195
TZA,TZ,4791.0,46493.0,46493.0,ibuga,,30.4928467,-2.656275,3,school,sentinel site,2018.0,10.0,15.0,60,1,0.0,0.0,60,1,0.0,0.0,60,0,0.0,0.0,1,36816,0.0,197,197,195
TZA,TZ,4809.0,46606.0,46606.0,ichemba,59605.0,32.3559,-4.7526698,3,,,2004.0,,,60,26,,,60,0,,,60,0,,,2,15952,7224.875743902672,198,198,198
TZA,TZ,4806.0,46590.0,46590.0,idukilo,,33.5421333,-3.50588,3,school,sentinel site,2017.0,9.0,13.0,61,0,0.0,0.0,61,2,0.0,0.0,61,0,0.0,0.0,1,37223,0.0,199,199,200
TZA,TZ,4806.0,46590.0,46590.0,idukilo,,33.5421333,-3.50588,3,school,sentinel site,2016.0,7.0,15.0,54,0,0.0,0.0,54,1,0.0,0.0,54,0,0.0,0.0,1,37222,0.0,200,200,199
TZA,TZ,4806.0,46590.0,46590.0,idukilo,,33.5421333,-3.50588,3,school,sentinel site,2018.0,10.0,15.0,60,0,0.0,0.0,60,0,0.0,0.0,60,0,0.0,0.0,1,37226,0.0,201,201,199
TZA,TZ,4789.0,46480.0,46480.0,ifugandi,59778.0,32.649502,-3.0393801,3,,,2004.0,,,60,40,,,60,0,,,60,0,,,2,15665,10094.349491426496,202,202,202
TZA,TZ,4797.0,46527.0,46527.0,ifulifu,,33.71062,-1.623833,3,ward,mapping,2018.0,,,28,0,0.0,,28,3,0.0,,28,0,0.0,,1,22970,0.0,203,203,204
TZA,TZ,4797.0,46527.0,46527.0,ifulifu,,33.71062,-1.623833,3,ward,mapping,2018.0,,,30,0,0.0,,30,3,0.0,,30,0,0.0,,1,22971,0.0,204,204,203
TZA,TZ,4809.0,46606.0,46606.0,igagala,59606.0,31.6306,-4.93329,3,,,2004.0,,,60,24,,,60,0,,,60,0,,,2,15953,22953.257553902327,205,205,205
TZA,TZ,4807.0,46595.0,46595.0,igalukio (nyangili),59533.0,33.771,-2.41904,3,,,1997.0,,,114,20,,,114,0,,,114,0,,,3,15905,5789.16383077283,206,206,206
TZA,TZ,4801.0,46560.0,46560.0,igekemaja,59673.0,33.056702,-2.6040299,3,,,2004.0,,,60,41,,,60,4,,,60,0,,,2,15766,0.0,207,207,208
TZA,TZ,4801.0,46560.0,46560.0,igekemaja,59672.0,33.056702,-2.6040299,3,,,1997.0,,,119,48,,,119,0,,,119,0,,,3,15778,0.0,208,208,207
TZA,TZ,4797.0,46530.0,46530.0,igina,,34.6669917,-1.80958,3,school,mapping,2017.0,10.0,15.0,30,0,0.0,0.0,30,0,0.0,0.0,30,0,0.0,0.0,1,37085,0.1892431336455047,209,209,550
TZA,TZ,4809.0,46605.0,46605.0,igogo,59582.0,33.7631,-4.2953401,3,,,2004.0,,,61,8,,,61,2,,,61,0,,,2,15943,31946.200981935235,210,210,210
TZA,TZ,4791.0,46487.0,46487.0,igoma,59516.0,31.459,-1.5506999,3,,,2004.0,,,60,37,,,60,0,,,60,7,,,2,15679,16175.35027463843,211,211,211
TZA,TZ,4801.0,46560.0,46560.0,igombe,59674.0,32.95,-2.4,1,,,1997.0,,,113,28,,,113,0,,,113,1,,,3,15762,10547.765645151534,212,212,212
TZA,TZ,4797.0,46631.0,46631.0,igundu,,33.30492,-2.044617,3,ward,mapping,2018.0,,,28,2,0.0,,28,0,0.0,,28,0,0.0,,1,22869,0.0,213,213,214
TZA,TZ,4797.0,46631.0,46631.0,igundu,,33.30492,-2.044617,3,ward,mapping,2018.0,,,30,2,0.0,,30,0,0.0,,30,0,0.0,,1,22868,0.0,214,214,213
TZA,TZ,4801.0,46560.0,46560.0,ihale,59675.0,33.516667,-2.6,1,,,1997.0,,,121,32,,,121,1,,,121,0,,,3,15774,2399.2818046215975,215,215,215
TZA,TZ,4806.0,46591.0,46591.0,ihalo,59803.0,33.028599,-3.7344301,3,,,2004.0,,,60,24,,,60,0,,,60,0,,,2,15896,15062.1533148983,216,216,216
TZA,TZ,4797.0,46530.0,46530.0,iharara,,34.328775,-2.0124083,3,school,mapping,2017.0,11.0,15.0,31,0,0.0,0.0,31,0,0.0,0.0,31,0,0.0,0.0,1,37086,0.5575996641597484,217,217,718
TZA,TZ,4789.0,46480.0,46480.0,ihushi,59779.0,32.521599,-3.0236399,3,,,2004.0,,,60,42,,,60,0,,,60,0,,,2,15667,14345.80725237543,218,218,218
TZA,TZ,4797.0,46529.0,46529.0,ikoma (rorya dc),,34.30367,-1.173647,3,ward,mapping,2018.0,,,28,0,0.0,,28,0,0.0,,28,0,0.0,,1,23031,0.3688698234416949,219,219,433
TZA,TZ,4797.0,46530.0,46530.0,ikoma (serengeti dc),,34.63829,-2.084718,3,ward,mapping,2018.0,,,30,0,0.0,,30,0,0.0,,30,0,0.0,,1,23080,0.19217107998674518,220,220,170
TZA,TZ,4797.0,46530.0,46530.0,ikorongo,,34.4238417,-1.5888300000000002,3,school,mapping,2017.0,11.0,15.0,30,0,0.0,0.0,30,2,0.0,0.0,30,0,0.0,0.0,1,37087,0.1892431336455047,221,221,95
TZA,TZ,4801.0,46560.0,46560.0,ilendeja,59676.0,33.042099,-2.5471301,3,,,1997.0,,,117,46,,,117,0,,,117,1,,,3,15750,1576.3759474883154,222,222,222
TZA,TZ,4801.0,46560.0,46560.0,ilumya,59677.0,33.44619,-2.5897521,1,,,1997.0,,,125,33,,,125,0,,,125,1,,,3,15769,186.2521916362871,223,223,223
TZA,TZ,4797.0,46528.0,46528.0,imanuel,,33.7881033,-1.52143,3,school,mapping,2017.0,11.0,15.0,30,0,0.0,0.0,30,0,0.0,0.0,30,0,0.0,0.0,1,36998,1208.8865025088874,224,224,224
TZA,TZ,4809.0,46606.0,46606.0,imara,59607.0,32.232899,-4.5377002,3,,,2004.0,,,60,23,,,60,0,,,60,0,,,2,15949,19146.54628652401,225,225,225
TZA,TZ,4797.0,46529.0,46529.0,ingri chini,,34.1703667,-1.2898583,3,school,mapping,2017.0,10.0,15.0,30,2,0.0,0.0,30,0,0.0,0.0,30,0,0.0,0.0,1,37028,5716.417665957813,226,226,226
TZA,TZ,4806.0,46643.0,46643.0,iponyanholo,59596.0,32.340199,-3.8712201,3,,,2004.0,,,61,55,,,61,0,,,61,0,,,2,15879,5395.841401913918,227,227,227
TZA,TZ,4797.0,46631.0,46631.0,iramba,,33.43499,-2.0295,3,ward,mapping,2018.0,,,30,0,0.0,,30,0,0.0,,30,0,0.0,,1,22870,0.367354319896549,228,228,706
TZA,TZ,4797.0,46530.0,46530.0,iramba,,34.28343,-1.6938282999999998,3,school,mapping,2017.0,12.0,15.0,30,0,0.0,0.0,30,0,0.0,0.0,30,0,0.0,0.0,1,37088,3202.980144693936,229,229,229
TZA,TZ,4797.0,46528.0,46528.0,iringo,,33.8047,-1.499827,3,ward,mapping,2018.0,,,29,0,0.0,,29,2,0.0,,29,0,0.0,,1,23004,0.0,230,230,231
TZA,TZ,4797.0,46528.0,46528.0,iringo,,33.8047,-1.499827,3,ward,mapping,2018.0,,,29,0,0.0,,29,0,0.0,,29,0,0.0,,1,23003,0.0,231,231,230
TZA,TZ,4797.0,46528.0,46528.0,iringo a,,33.804715,-1.49922,3,school,mapping,2017.0,10.0,15.0,29,0,0.0,0.0,29,0,0.0,0.0,29,0,0.0,0.0,1,36999,67.57322477605744,232,232,232
TZA,TZ,4797.0,46528.0,46528.0,iringo b,,33.8047033,-1.4998266999999998,3,school,mapping,2017.0,9.0,15.0,29,0,0.0,0.0,29,2,0.0,0.0,29,0,0.0,0.0,1,37000,0.36887022585661094,233,233,230
TZA,TZ,4791.0,46486.0,46486.0,isambara,,31.561535,-2.890255,3,school,sentinel site,2016.0,9.0,16.0,60,36,0.0,0.0,60,0,0.0,0.0,60,1,0.0,0.0,1,36788,0.0,234,234,235
TZA,TZ,4791.0,46486.0,46486.0,isambara,,31.561535,-2.890255,3,school,sentinel site,2017.0,9.0,14.0,60,5,0.0,0.0,60,0,0.0,0.0,60,0,0.0,0.0,1,36789,0.0,235,235,234
TZA,TZ,4791.0,46486.0,46486.0,isambara,,31.561535,-2.890255,3,school,sentinel site,2018.0,10.0,15.0,60,3,0.0,0.0,60,0,0.0,0.0,60,0,0.0,0.0,1,36792,0.0,236,236,234
TZA,TZ,4797.0,46530.0,46530.0,iseresere,,34.3751483,-1.5774133,3,school,mapping,2017.0,11.0,15.0,30,0,0.0,0.0,30,0,0.0,0.0,30,0,0.0,0.0,1,37089,0.19216943646995888,237,237,507
TZA,TZ,4809.0,46609.0,46609.0,isike,59828.0,32.8103149,-5.0229931,1,,,2004.0,,,62,5,,,62,0,,,62,0,,,2,15980,16749.496690483247,238,238,238
TZA,TZ,4797.0,46530.0,46530.0,issenye,,34.33144,-1.97159,3,ward,mapping,2018.0,,,30,0,0.0,,30,0,0.0,,30,0,0.0,,1,23081,0.3673543189652264,239,239,825
TZA,TZ,4809.0,46609.0,46609.0,itaga,59829.0,32.730808,-4.89573,1,,,2004.0,,,60,27,,,60,0,,,60,0,,,2,15981,16749.496690483247,240,240,240
TZA,TZ,4797.0,46532.0,46532.0,itiryo,,34.6814,-1.4123,3,ward,mapping,2018.0,,,30,0,0.0,,30,0,0.0,,30,0,0.0,,1,23143,0.3673543184995651,241,241,279
TZA,TZ,4797.0,46530.0,46530.0,itununu,,34.6241417,-1.7835183,3,school,mapping,2017.0,10.0,15.0,31,0,0.0,0.0,31,0,0.0,0.0,31,0,0.0,0.0,1,37090,0.19217004970399706,242,242,178
TZA,TZ,4807.0,46597.0,46597.0,jija 'a',59705.0,33.612202,-2.85461,3,,,2004.0,,,60,14,,,60,0,,,60,0,,,2,15932,10871.42171724985,243,243,243
TZA,TZ,4809.0,46610.0,46610.0,jionee,59847.0,32.169399,-4.9394999,3,,,2004.0,,,60,18,,,60,0,,,60,0,,,2,15983,14880.3100557805,244,244,244
TZA,TZ,4807.0,46595.0,46595.0,jisesa,59534.0,33.8526,-2.5138099,3,,,1997.0,,,116,13,,,116,0,,,116,1,,,3,15909,1927.113409870896,245,245,245
TZA,TZ,4801.0,46560.0,46560.0,kabale,59678.0,29.9856157,-1.241956,1,,,1997.0,,,118,61,,,118,0,,,118,0,,,3,15755,94588.5181984899,246,246,246
TZA,TZ,4791.0,46487.0,46487.0,kabalenzi,59517.0,31.5236,-1.38827,3,,,2004.0,,,60,39,,,60,11,,,60,18,,,2,15681,15733.273726088108,247,247,247
TZA,TZ,4797.0,46631.0,46631.0,kabarimu b,,33.8728333,-2.018335,3,school,mapping,2017.0,10.0,15.0,30,2,0.0,0.0,30,0,0.0,0.0,30,0,0.0,0.0,1,36891,592.2520539405939,248,248,248
TZA,TZ,4797.0,46631.0,46631.0,kabasa,,33.8221,-1.99453,3,ward,mapping,2018.0,,,29,0,0.0,,29,0,0.0,,29,0,0.0,,1,22906,0.3673543203622103,249,249,882
TZA,TZ,4807.0,46595.0,46595.0,kabatia,59535.0,33.6394,-2.3257201,3,,,1997.0,,,119,40,,,119,0,,,119,0,,,3,15914,8570.68899212874,250,250,250
TZA,TZ,4801.0,46560.0,46560.0,kabila,59679.0,33.615501,-2.7230899,3,,,1997.0,,,117,39,,,117,0,,,117,0,,,3,15746,4393.444417984758,251,251,251
TZA,TZ,4791.0,46486.0,46486.0,kabindi,59508.0,31.463301,-2.7959599,3,,,2004.0,,,60,50,,,60,1,,,60,1,,,2,15673,4847.03110780078,252,252,252
TZA,TZ,4797.0,46525.0,46525.0,kabirizi,,33.2615183,-2.09577,3,school,mapping,2017.0,10.0,15.0,30,0,0.0,0.0,30,0,0.0,0.0,30,0,0.0,0.0,1,36848,0.1892431336455047,253,253,722
TZA,TZ,4789.0,46477.0,46477.0,kachwamba,59567.0,31.5781,-2.65272,3,,,2004.0,,,60,32,,,60,0,,,60,0,,,2,15642,5941.419154696341,254,254,254
TZA,TZ,4791.0,46489.0,46489.0,kafungo,,30.8917567,-1.59187,3,school,sentinel site,2017.0,8.0,14.0,60,2,0.0,0.0,60,2,0.0,0.0,60,1,0.0,0.0,1,36803,0.0,255,255,256
TZA,TZ,4791.0,46489.0,46489.0,kafungo,,30.8917567,-1.59187,3,school,sentinel site,2018.0,10.0,15.0,60,2,0.0,0.0,60,0,0.0,0.0,60,1,0.0,0.0,1,36805,0.0,256,256,255
TZA,TZ,4791.0,46489.0,46489.0,kafungo,,30.8917567,-1.59187,3,school,sentinel site,2016.0,9.0,14.0,55,0,0.0,0.0,55,0,0.0,0.0,55,0,0.0,0.0,1,36802,0.0,257,257,255
TZA,TZ,4793.0,46503.0,46503.0,kagera,,29.698985,-4.9148817,3,school,sentinel site,2018.0,9.0,15.0,60,5,0.0,0.0,60,2,0.0,0.0,60,1,0.0,0.0,1,36841,0.0,258,258,259
TZA,TZ,4793.0,46503.0,46503.0,kagera,,29.698985,-4.9148817,3,school,sentinel site,2017.0,9.0,15.0,60,2,0.0,0.0,60,2,0.0,0.0,60,8,0.0,0.0,1,36839,0.0,259,259,258
TZA,TZ,4793.0,46503.0,46503.0,kagera,,29.698985,-4.9148817,3,school,sentinel site,2016.0,9.0,14.0,58,11,0.0,0.0,58,0,0.0,0.0,58,1,0.0,0.0,1,36838,0.0,260,260,258
TZA,TZ,4791.0,46486.0,46486.0,kagoma,59509.0,31.716667,-1.733333,1,,,2004.0,,,60,47,,,60,3,,,60,0,,,2,15677,2019.7074601003126,261,261,261
TZA,TZ,4791.0,46492.0,46492.0,kahengere,59757.0,31.70833,-1.74944,3,,,0.0,,,41,5,,,41,15,,,41,2,,,3,15701,2019.7074601003126,262,262,262
TZA,TZ,4801.0,46563.0,46563.0,kalebezo,59796.0,32.65,-2.5027563,1,,,2004.0,,,60,29,,,60,0,,,60,0,,,2,15800,9744.36979090677,263,263,263
TZA,TZ,4809.0,46610.0,46610.0,kalemela,59848.0,32.048302,-5.0005002,3,,,2004.0,,,60,25,,,60,0,,,60,0,,,2,15987,7145.703777588817,264,264,264
TZA,TZ,4809.0,46605.0,46605.0,kalemela,59583.0,33.448898,-4.5430398,3,,,2004.0,,,60,26,,,60,0,,,60,0,,,2,15942,13026.101807434936,265,265,265
TZA,TZ,4809.0,46606.0,46606.0,kaliua,59608.0,31.7936207,-5.0590626,1,,,2004.0,,,63,25,,,63,0,,,63,0,,,2,15946,1407.7387248058278,266,266,266
TZA,TZ,4797.0,46527.0,46527.0,kamatondo,,33.6569167,-1.87591,3,school,mapping,2017.0,10.0,15.0,29,3,0.0,0.0,29,1,0.0,0.0,29,0,0.0,0.0,1,36955,0.367354319896549,267,267,809
TZA,TZ,4797.0,46530.0,46530.0,kambarage,,34.6845933,-1.833015,3,school,mapping,2017.0,10.0,15.0,30,1,0.0,0.0,30,0,0.0,0.0,30,0,0.0,0.0,1,37091,0.3673543203622103,268,268,1010
TZA,TZ,4797.0,46528.0,46528.0,kambarage a,,33.8305,-1.53617,3,school,mapping,2017.0,10.0,14.0,30,0,0.0,0.0,30,1,0.0,0.0,30,0,0.0,0.0,1,37001,2391.73170163315,269,269,269
TZA,TZ,4797.0,46525.0,46525.0,kambubu,,33.9978867,-1.9402417,3,school,mapping,2017.0,10.0,15.0,30,0,0.0,0.0,30,0,0.0,0.0,30,0,0.0,0.0,1,36849,0.3688709238893798,270,270,802
TZA,TZ,4797.0,46526.0,46526.0,kamimange,,34.10489,-1.8048083,3,school,mapping,2017.0,10.0,15.0,29,3,0.0,0.0,29,0,0.0,0.0,29,0,0.0,0.0,1,36911,0.03341242321766913,271,271,586
TZA,TZ,4797.0,46526.0,46526.0,kamugegi,,33.7927183,-1.7343067,3,school,mapping,2017.0,11.0,15.0,29,0,0.0,0.0,29,0,0.0,0.0,29,0,0.0,0.0,1,36912,0.19216989656417383,272,272,442
TZA,TZ,4797.0,46528.0,46528.0,kamunyonge,,33.80034,-1.508438,3,ward,mapping,2018.0,,,30,2,0.0,,30,1,0.0,,30,0,0.0,,1,23006,0.0,273,273,274
TZA,TZ,4797.0,46528.0,46528.0,kamunyonge,,33.80034,-1.508438,3,ward,mapping,2018.0,,,30,0,0.0,,30,0,0.0,,30,0,0.0,,1,23005,0.0,274,274,273
TZA,TZ,4797.0,46528.0,46528.0,kamunyonge a,,33.80025,-1.5084917,3,school,mapping,2017.0,6.0,14.0,30,0,0.0,0.0,30,0,0.0,0.0,30,0,0.0,0.0,1,37002,11.336253270792142,275,275,275
TZA,TZ,4797.0,46528.0,46528.0,kamunyonge b,,33.8003367,-1.5084383,3,school,mapping,2017.0,10.0,15.0,30,2,0.0,0.0,30,1,0.0,0.0,30,0,0.0,0.0,1,37003,0.3688702367956572,276,276,273
TZA,TZ,4797.0,46527.0,46527.0,kanderema,,33.7365383,-1.90184,3,school,mapping,2017.0,10.0,15.0,29,0,0.0,0.0,29,0,0.0,0.0,29,0,0.0,0.0,1,36956,0.1892431336455047,277,277,39
TZA,TZ,4810.0,46613.0,46613.0,kang'ata,59578.0,37.8913,-5.6838102,3,,,1996.0,,,49,36,,,49,0,,,49,1,,,3,15997,13500.727273772787,278,278,278
TZA,TZ,4797.0,46531.0,46531.0,kangariani,,34.6813967,-1.4123,3,school,mapping,2017.0,10.0,15.0,30,0,0.0,0.0,30,0,0.0,0.0,30,0,0.0,0.0,1,37153,0.3673543184995651,279,279,241
TZA,TZ,4797.0,46531.0,46531.0,karakatonga,,34.6806183,-1.5198033,3,school,mapping,2017.0,10.0,15.0,29,0,0.0,0.0,29,0,0.0,0.0,29,0,0.0,0.0,1,37154,0.19216927767269826,280,280,874
TZA,TZ,4797.0,46525.0,46525.0,karukekere b,,33.5442933,-2.0681383,3,school,mapping,2017.0,10.0,14.0,30,1,0.0,0.0,30,0,0.0,0.0,30,0,0.0,0.0,1,36850,5160.27956140186,281,281,281
TZA,TZ,4789.0,46478.0,46478.0,kasamwa,59573.0,32.43333,-2.85,1,,,0.0,,,129,19,,,129,0,,,129,0,,,3,15651,0.0,282,282,283
TZA,TZ,4789.0,46478.0,46478.0,kasamwa,59573.0,32.43333,-2.85,1,,,0.0,,,45,4,,,45,0,,,45,0,,,3,15652,0.0,283,283,282
TZA,TZ,4809.0,46608.0,46608.0,kasandalala,59806.0,32.746399,-5.42978,3,,,2004.0,,,60,27,,,60,0,,,60,0,,,2,15969,9183.897526395343,284,284,284
TZA,TZ,4791.0,46486.0,46486.0,kasato,59510.0,31.1628,-3.0875001,3,,,2004.0,,,60,44,,,60,0,,,60,0,,,2,15672,40551.730763922475,285,285,285
TZA,TZ,4791.0,46492.0,46492.0,kasheno,59758.0,31.6789,-1.8885601,3,,,2004.0,,,60,34,,,60,24,,,60,33,,,2,15692,6083.153282727889,286,286,286
TZA,TZ,4791.0,46492.0,46492.0,kashozi,59759.0,31.809685,-1.2859103,1,,,2004.0,,,60,46,,,60,17,,,60,9,,,2,15703,4762.204633847473,287,287,287
TZA,TZ,4797.0,46527.0,46527.0,kasoma,,33.5709667,-1.7903633,3,school,mapping,2017.0,11.0,15.0,30,0,0.0,0.0,30,0,0.0,0.0,30,0,0.0,0.0,1,36957,0.36887066649420885,288,288,836
TZA,TZ,4791.0,46486.0,46486.0,kasozibakaya,,31.687295,-2.81123,3,school,sentinel site,2018.0,9.0,15.0,60,22,0.0,0.0,60,4,0.0,0.0,60,1,0.0,0.0,1,36793,0.0,289,289,290
TZA,TZ,4791.0,46486.0,46486.0,kasozibakaya,,31.687295,-2.81123,3,school,sentinel site,2017.0,10.0,14.0,60,5,0.0,0.0,60,1,0.0,0.0,60,0,0.0,0.0,1,36791,0.0,290,290,289
TZA,TZ,4791.0,46486.0,46486.0,kasozibakaya,,31.687295,-2.81123,3,school,sentinel site,2016.0,9.0,15.0,57,47,0.0,0.0,57,0,0.0,0.0,57,0,0.0,0.0,1,36790,0.0,291,291,289
TZA,TZ,4797.0,46525.0,46525.0,kasuguti,,33.5919583,-2.1690567,3,school,mapping,2017.0,9.0,15.0,27,0,0.0,0.0,27,0,0.0,0.0,27,0,0.0,0.0,1,36854,0.0,292,292,293
TZA,TZ,4797.0,46525.0,46525.0,kasuguti,,33.5919583,-2.1690567,3,school,sentinel site,2016.0,8.0,13.0,60,2,0.0,0.0,60,0,0.0,0.0,60,0,0.0,0.0,1,36851,0.0,293,293,292
TZA,TZ,4797.0,46525.0,46525.0,kasuguti,,33.5919583,-2.1690567,3,school,sentinel site,2018.0,9.0,15.0,55,1,0.0,0.0,55,0,0.0,0.0,55,0,0.0,0.0,1,36853,0.0,294,294,292
TZA,TZ,4797.0,46631.0,46631.0,kasuguti,,33.58254,-2.13019,3,ward,mapping,2018.0,,,30,1,0.0,,30,0,0.0,,30,0,0.0,,1,22872,0.0,295,295,296
TZA,TZ,4797.0,46631.0,46631.0,kasuguti,,33.58254,-2.13019,3,ward,mapping,2018.0,,,27,0,0.0,,27,0,0.0,,27,0,0.0,,1,22873,0.0,296,296,295
TZA,TZ,4801.0,46563.0,46563.0,kasungamile,59797.0,32.733333,-2.583333,1,,,2004.0,,,60,29,,,60,0,,,60,0,,,2,15796,2848.31004966449,297,297,297
TZA,TZ,4797.0,46527.0,46527.0,kataryo b,,33.74827,-1.7916,3,school,mapping,2017.0,11.0,15.0,30,0,0.0,0.0,30,0,0.0,0.0,30,0,0.0,0.0,1,36958,0.0,298,298,1032
TZA,TZ,4791.0,46486.0,46486.0,katoke,59511.0,31.5955039,-2.9275979,1,,,2004.0,,,60,44,,,60,0,,,60,0,,,2,15670,5623.539691338721,299,299,299
TZA,TZ,4791.0,46492.0,46492.0,katunguru,,31.6506133,-1.9389933,3,school,sentinel site,2016.0,8.0,13.0,56,2,0.0,0.0,56,14,0.0,0.0,56,8,0.0,0.0,1,36808,0.0,300,300,301
TZA,TZ,4791.0,46492.0,46492.0,katunguru,,31.6506133,-1.9389933,3,school,sentinel site,2017.0,9.0,15.0,61,0,0.0,0.0,61,15,0.0,0.0,61,12,0.0,0.0,1,36809,0.0,301,301,300
TZA,TZ,4791.0,46492.0,46492.0,katunguru,,31.6506133,-1.9389933,3,school,sentinel site,2018.0,9.0,15.0,60,4,0.0,0.02,60,4,0.0,0.0,60,1,0.0,0.0,1,36811,0.0,302,302,300
TZA,TZ,4806.0,46589.0,46589.0,kawe,59603.0,32.6367,-3.95911,3,,,2004.0,,,60,32,,,60,0,,,60,0,,,2,15884,14712.632395371827,303,303,303
TZA,TZ,4797.0,46530.0,46530.0,kebancha,,34.5656217,-1.6916967,3,school,mapping,2017.0,11.0,15.0,30,3,0.0,0.0,30,0,0.0,0.0,30,0,0.0,0.0,1,37092,0.1921697673618182,304,304,305
TZA,TZ,4797.0,46530.0,46530.0,kebancha bancha,,34.56562,-1.691697,3,ward,mapping,2018.0,,,30,3,0.0,,30,0,0.0,,30,0,0.0,,1,23083,0.0,305,305,306
TZA,TZ,4797.0,46530.0,46530.0,kebancha bancha,,34.56562,-1.691697,3,ward,mapping,2018.0,,,30,0,0.0,,30,0,0.0,,30,0,0.0,,1,23084,0.0,306,306,305
TZA,TZ,4797.0,46531.0,46531.0,kebweye,,34.5161133,-1.3392267,3,school,mapping,2017.0,10.0,15.0,30,1,0.0,0.0,30,2,0.0,0.0,30,0,0.0,0.0,1,37155,0.3688700162859965,307,307,785
TZA,TZ,4797.0,46532.0,46532.0,kemairi,,34.43901,-1.3015883,3,school,mapping,2017.0,12.0,15.0,30,0,0.0,0.0,30,1,0.0,0.0,30,0,0.0,0.0,1,37197,0.033404465444618836,308,308,741
TZA,TZ,4797.0,46531.0,46531.0,kemakorere,,34.51451,-1.3824267,3,school,mapping,2017.0,10.0,15.0,30,2,0.0,0.0,30,1,0.0,0.0,30,0,0.0,0.0,1,37156,0.03340556978946552,309,309,871
TZA,TZ,4797.0,46532.0,46532.0,kemambo,,34.52586,-1.468143,3,ward,mapping,2018.0,,,30,1,0.0,,30,1,0.0,,30,0,0.0,,1,23145,0.0,310,310,311
TZA,TZ,4797.0,46532.0,46532.0,kemambo,,34.52586,-1.468143,3,ward,mapping,2018.0,,,30,1,0.0,,30,0,0.0,,30,0,0.0,,1,23146,0.0,311,311,310
TZA,TZ,4797.0,46532.0,46532.0,kemange,,34.3494067,-1.3577383,3,school,mapping,2017.0,11.0,15.0,30,0,0.0,0.0,30,2,0.0,0.0,30,0,0.0,0.0,1,37198,0.368870038199139,312,312,850
TZA,TZ,4797.0,46531.0,46531.0,kembwi,,34.2848767,-1.4423817,3,school,sentinel site,2016.0,6.0,16.0,53,0,0.0,0.0,53,3,0.0,0.0,53,0,0.0,0.0,1,37141,0.0,313,313,314
TZA,TZ,4797.0,46531.0,46531.0,kembwi,,34.2848767,-1.4423817,3,school,sentinel site,2017.0,9.0,13.0,60,19,0.0,0.0,60,0,0.0,0.0,60,0,0.0,0.0,1,37142,0.0,314,314,313
TZA,TZ,4797.0,46531.0,46531.0,kembwi,,34.2848767,-1.4423817,3,school,sentinel site,2018.0,10.0,15.0,60,0,0.0,0.0,60,0,0.0,0.0,60,0,0.0,0.0,1,37157,0.0,315,315,313
TZA,TZ,4797.0,46530.0,46530.0,kemugongo,,34.4031567,-1.791385,3,school,mapping,2017.0,9.0,15.0,30,0,0.0,0.0,30,0,0.0,0.0,30,0,0.0,0.0,1,37093,0.367354319896549,316,316,803
TZA,TZ,4797.0,46532.0,46532.0,kenyamanyori,,34.38676,-1.384523,3,ward,mapping,2018.0,,,30,0,0.0,,30,0,0.0,,30,0,0.0,,1,23185,0.03340560122160241,317,317,633
TZA,TZ,4797.0,46530.0,46530.0,kenyamonta,,34.2667,-1.7172269999999998,3,ward,mapping,2018.0,,,30,0,0.0,,30,0,0.0,,30,0,0.0,,1,23085,0.0,318,318,319
TZA,TZ,4797.0,46530.0,46530.0,kenyamonta,,34.2667,-1.7172269999999998,3,school,mapping,2017.0,10.0,15.0,30,0,0.0,0.0,30,0,0.0,0.0,30,0,0.0,0.0,1,37094,0.0,319,319,318
TZA,TZ,4797.0,46530.0,46530.0,kenyana b,,34.4599117,-1.7049732999999998,3,school,mapping,2017.0,11.0,15.0,30,0,0.0,0.0,30,0,0.0,0.0,30,0,0.0,0.0,1,37095,3719.397724142104,320,320,320
TZA,TZ,4797.0,46531.0,46531.0,kenyangi,,34.48647,-1.4845383,3,school,mapping,2017.0,11.0,15.0,30,0,0.0,0.0,30,0,0.0,0.0,30,0,0.0,0.0,1,37158,0.033407059498131275,321,321,557
TZA,TZ,4803.0,46638.0,46638.0,kerege,59438.0,39.0541433,-6.5871667,1,,,1997.0,,,26,9,,,26,0,,,26,0,,,3,15822,2273.4724509152225,322,322,322
TZA,TZ,4797.0,46531.0,46531.0,keryoba,,34.47421,-1.26027,3,school,mapping,2017.0,10.0,15.0,30,0,0.0,0.0,30,3,0.0,0.0,30,0,0.0,0.0,1,37159,64.96464155127313,323,323,323
TZA,TZ,4797.0,46631.0,46631.0,ketare (bunda dc),,34.05057,-1.873438,3,ward,mapping,2018.0,,,30,0,0.0,,30,0,0.0,,30,0,0.0,,1,22874,0.03341370704583824,324,324,533
TZA,TZ,4797.0,46532.0,46532.0,ketare (tarime tc),,34.41835,-1.373432,3,ward,mapping,2018.0,,,30,0,0.0,,30,2,0.0,,30,0,0.0,,1,23187,0.0,325,325,326
TZA,TZ,4797.0,46532.0,46532.0,ketare (tarime tc),,34.41835,-1.373432,3,ward,mapping,2018.0,,,30,0,0.0,,30,1,0.0,,30,0,0.0,,1,23188,0.0,326,326,325
TZA,TZ,4797.0,46531.0,46531.0,kewamamba,,34.3494833,-1.3989417,3,school,mapping,2017.0,11.0,15.0,30,2,0.0,0.0,30,0,0.0,0.0,30,0,0.0,0.0,1,37160,2434.635735662745,327,327,327
TZA,TZ,4797.0,46530.0,46530.0,kewambogo,,34.5071,-1.968035,3,school,mapping,2017.0,10.0,15.0,30,2,0.0,0.0,30,0,0.0,0.0,30,0,0.0,0.0,1,37096,0.0,328,328,726
TZA,TZ,4797.0,46526.0,46526.0,kiabakari b,,33.8506717,-1.7699617,3,school,mapping,2017.0,10.0,15.0,30,3,0.0,0.0,30,0,0.0,0.0,30,0,0.0,0.0,1,36913,4480.596239435419,329,329,329
TZA,TZ,4797.0,46526.0,46526.0,kiagata,,34.1046917,-1.6463167,3,school,mapping,2017.0,10.0,15.0,30,2,0.0,0.0,30,0,0.0,0.0,30,1,0.0,0.0,1,36914,723.626142148521,330,330,330
TZA,TZ,4797.0,46528.0,46528.0,kiara,,33.7882483,-1.5349467,3,school,mapping,2017.0,10.0,15.0,29,0,0.0,0.0,29,1,0.0,0.0,29,0,0.0,0.0,1,37004,0.1921693197847957,331,331,345
TZA,TZ,4810.0,46620.0,46620.0,kibanda,59750.0,38.7757,-5.20191,3,,,1996.0,,,51,22,,,51,27,,,51,12,,,3,16018,7571.864254804407,332,332,332
TZA,TZ,4797.0,46631.0,46631.0,kibara,,33.45506,-2.150755,3,ward,mapping,2018.0,,,30,1,0.0,,30,0,0.0,,30,0,0.0,,1,22875,0.3673543194308877,333,333,334
TZA,TZ,4797.0,46525.0,46525.0,kibara a,,33.4550633,-2.150755,3,school,mapping,2017.0,11.0,15.0,30,1,0.0,0.0,30,0,0.0,0.0,30,0,0.0,0.0,1,36855,0.3673543194308877,334,334,333
TZA,TZ,4797.0,46525.0,46525.0,kibara b,,33.45497,-2.1507933,3,school,mapping,2017.0,10.0,15.0,30,1,0.0,0.0,30,0,0.0,0.0,30,0,0.0,0.0,1,36856,10.889390116376662,335,335,335
TZA,TZ,4797.0,46532.0,46532.0,kibasuka,,34.44103,-1.416995,3,ward,mapping,2018.0,,,30,0,0.0,,30,0,0.0,,30,0,0.0,,1,23147,0.3673543184995651,336,336,881
TZA,TZ,4797.0,46530.0,46530.0,kibeyo,,34.7129367,-1.8232633,3,school,mapping,2017.0,10.0,15.0,30,0,0.0,0.0,30,0,0.0,0.0,30,0,0.0,0.0,1,37097,3336.876438543746,337,337,337
TZA,TZ,4797.0,46526.0,46526.0,kibubwa,,33.96207,-1.6638733,3,school,mapping,2017.0,11.0,15.0,30,1,0.0,0.0,30,0,0.0,0.0,30,0,0.0,0.0,1,36915,0.03340993434539996,338,338,118
TZA,TZ,4797.0,46532.0,46532.0,kibumaye,,34.4183467,-1.3734317,3,school,mapping,2017.0,10.0,15.0,30,0,0.0,0.0,30,1,0.0,0.0,30,0,0.0,0.0,1,37199,0.3688700579535561,339,339,325
TZA,TZ,4801.0,46559.0,46559.0,kidashi,,33.51378,-2.7968867,3,school,sentinel site,2018.0,10.0,15.0,60,0,0.0,0.0,60,0,0.0,0.0,60,0,0.0,0.0,1,37215,0.0,340,340,341
TZA,TZ,4801.0,46559.0,46559.0,kidashi,,33.51378,-2.7968867,3,school,sentinel site,2017.0,8.0,15.0,60,0,0.0,0.0,60,0,0.0,0.0,60,0,0.0,0.0,1,37212,0.0,341,341,340
TZA,TZ,4801.0,46559.0,46559.0,kidashi,,33.51378,-2.7968867,3,school,sentinel site,2016.0,9.0,15.0,52,0,0.0,0.0,52,0,0.0,0.0,52,0,0.0,0.0,1,37211,0.0,342,342,340
TZA,TZ,4810.0,46622.0,46622.0,kigandini,59830.0,38.9722271,-5.1291451,1,,,1996.0,,,50,15,,,50,2,,,50,5,,,3,16035,521.4174222190954,343,343,343
TZA,TZ,4801.0,46560.0,46560.0,kigangama,59680.0,33.264198,-2.5181601,3,,,1997.0,,,120,58,,,120,0,,,120,0,,,3,15768,7583.725224751082,344,344,344
TZA,TZ,4797.0,46528.0,46528.0,kigera,,33.78825,-1.5349469999999998,3,ward,mapping,2018.0,,,29,0,0.0,,29,1,0.0,,29,0,0.0,,1,23007,0.0,345,345,346
TZA,TZ,4797.0,46528.0,46528.0,kigera,,33.78825,-1.5349469999999998,3,ward,mapping,2018.0,,,30,0,0.0,,30,0,0.0,,30,1,0.0,,1,23008,0.0,346,346,345
TZA,TZ,4797.0,46527.0,46527.0,kigera b,,33.6857717,-1.5788033,3,school,mapping,2017.0,12.0,15.0,30,0,0.0,0.0,30,0,0.0,0.0,30,0,0.0,0.0,1,36959,0.19216943945889112,347,347,778
TZA,TZ,4801.0,46561.0,46561.0,kigongo,59733.0,33.083328,-2.8499999,3,,,0.0,,,235,1,,,235,0,,,235,0,,,3,15786,0.0,348,348,349
TZA,TZ,4801.0,46561.0,46561.0,kigongo,59733.0,33.083328,-2.8499999,3,,,0.0,,,48,0,,,48,0,,,48,0,,,3,15783,0.0,349,349,348
TZA,TZ,4797.0,46529.0,46529.0,kigunga,,34.08292,-1.245297,3,ward,mapping,2018.0,,,30,0,0.0,,30,1,0.0,,30,0,0.0,,1,23032,0.0,350,350,351
TZA,TZ,4797.0,46529.0,46529.0,kigunga,,34.08292,-1.245297,3,ward,mapping,2018.0,,,30,0,0.0,,30,0,0.0,,30,0,0.0,,1,23033,0.0,351,351,350
TZA,TZ,4810.0,46616.0,46616.0,kijungumoto,59639.0,38.6614,-4.7593198,3,,,1996.0,,,50,31,,,50,3,,,50,4,,,3,16010,12348.480059082503,352,352,352
TZA,TZ,4809.0,46608.0,46608.0,kikungu,59807.0,32.772701,-5.7129302,3,,,2004.0,,,61,37,,,61,0,,,61,0,,,2,15964,3067.5315694305123,353,353,353
TZA,TZ,4794.0,46509.0,46509.0,kileo,,37.556301,-3.5104,3,,,1996.0,8.0,18.0,271,10,,,271,35,,,271,49,,,3,30759,0.0,354,354,355
TZA,TZ,4794.0,46509.0,46509.0,kileo,,37.556301,-3.5104,3,,,2002.0,6.0,16.0,544,9,,,544,3,,,544,45,,,2,30757,0.0,355,355,354
TZA,TZ,4797.0,46631.0,46631.0,kilimani,,33.879145,-1.9996367,3,school,mapping,2017.0,11.0,15.0,30,2,0.0,0.0,30,0,0.0,0.0,30,0,0.0,0.0,1,36892,0.557599648511143,356,356,892
TZA,TZ,4810.0,46615.0,46615.0,kilindi,59627.0,37.5534526,-5.5652084,1,,,1996.0,,,50,45,,,50,6,,,50,0,,,3,16002,19216.832589947895,357,357,357
TZA,TZ,4803.0,46575.0,46575.0,kilindoni,,39.681,-7.903,3,,,2000.0,6.0,18.0,95,49,,,95,15,,,95,58,,,3,29029,14422.968995302894,358,358,358
TZA,TZ,4809.0,46608.0,46608.0,kiloleli,59808.0,32.981701,-5.8833899,3,,,2004.0,,,60,18,,,60,0,,,60,0,,,2,15973,7011.326981470941,359,359,359
TZA,TZ,4810.0,46620.0,46620.0,kilongo,59751.0,38.678101,-5.30474,3,,,1996.0,,,48,41,,,48,6,,,48,3,,,3,16019,6573.661092538192,360,360,360
TZA,TZ,4809.0,46608.0,46608.0,kilumbi,59809.0,33.8453152,-6.2822413,1,,,2004.0,,,60,40,,,60,0,,,60,0,,,2,15976,23805.507858397243,361,361,361
TZA,TZ,4810.0,46620.0,46620.0,kimang'a,59752.0,39.015598,-5.34236,3,,,1996.0,,,48,31,,,48,11,,,48,1,,,3,16023,4289.723136455172,362,362,362
TZA,TZ,4797.0,46531.0,46531.0,kimusi,,34.6172733,-1.3563967,3,school,mapping,2017.0,12.0,15.0,30,0,0.0,0.0,30,0,0.0,0.0,30,0,0.0,0.0,1,37161,19.020535026307723,363,363,363
TZA,TZ,4797.0,46529.0,46529.0,kinesi b,,33.8599583,-1.44735,3,school,mapping,2017.0,11.0,15.0,30,0,0.0,0.0,30,0,0.0,0.0,30,0,0.0,0.0,1,37029,7593.256178697416,364,364,364
TZA,TZ,4797.0,46529.0,46529.0,kingigoro,,33.97255,-1.2946617,3,school,mapping,2017.0,11.0,15.0,30,3,0.0,0.0,30,0,0.0,0.0,30,0,0.0,0.0,1,37030,5662.525816648662,365,365,365
TZA,TZ,4789.0,46477.0,46477.0,kinsabe,59568.0,31.828199,-3.20293,3,,,2004.0,,,60,56,,,60,0,,,60,0,,,2,15648,7999.5237618316505,366,366,366
TZA,TZ,4797.0,46631.0,46631.0,kinyambwiga a,,33.7153583,-2.0209317,3,school,mapping,2017.0,10.0,15.0,30,0,0.0,0.0,30,0,0.0,0.0,30,0,0.0,0.0,1,36893,0.1921708491367832,367,367,189
TZA,TZ,4797.0,46529.0,46529.0,kinyenche,,34.02657,-1.229098,3,ward,mapping,2018.0,,,30,6,0.0,,30,0,0.0,,30,1,0.0,,1,23035,0.0,368,368,369
TZA,TZ,4797.0,46529.0,46529.0,kinyenche,,34.02657,-1.229098,3,ward,mapping,2018.0,,,30,4,0.0,,30,0,0.0,,30,0,0.0,,1,23034,0.0,369,369,368
TZA,TZ,4797.0,46532.0,46532.0,kiore,,34.3484,-1.440665,3,ward,mapping,2018.0,,,30,2,0.0,,30,0,0.0,,30,0,0.0,,1,23149,0.0,370,370,371
TZA,TZ,4797.0,46532.0,46532.0,kiore,,34.3484,-1.440665,3,ward,mapping,2018.0,,,30,0,0.0,,30,0,0.0,,30,0,0.0,,1,23150,0.0,371,371,370
TZA,TZ,4809.0,46608.0,46608.0,kipanga mlimani,59810.0,32.8181,-5.7109599,3,,,2004.0,,,60,28,,,60,1,,,60,0,,,2,15967,2113.6258136483843,372,372,372
TZA,TZ,4806.0,46643.0,46643.0,kipangu,59597.0,32.331299,-3.8236799,3,,,2004.0,,,61,53,,,61,0,,,61,0,,,2,15881,5395.841401913918,373,373,373
TZA,TZ,4809.0,46608.0,46608.0,kipili,59811.0,30.6020104,-7.4430244,1,,,2004.0,,,60,24,,,60,0,,,60,0,,,2,15972,293994.2543850996,374,374,374
TZA,TZ,4797.0,46527.0,46527.0,kiriba,,33.63309,-1.6962700000000002,3,ward,mapping,2018.0,,,30,0,0.0,,30,0,0.0,,30,0,0.0,,1,22972,0.189243134111166,375,375,376
TZA,TZ,4797.0,46527.0,46527.0,kiriba b,,33.6330917,-1.6962700000000002,3,school,mapping,2017.0,11.0,15.0,30,0,0.0,0.0,30,0,0.0,0.0,30,0,0.0,0.0,1,36960,0.189243134111166,376,376,375
TZA,TZ,4797.0,46529.0,46529.0,kirogo,,34.02218,-1.332513,3,ward,mapping,2018.0,,,30,3,0.0,,30,0,0.0,,30,0,0.0,,1,23036,0.0,377,377,378
TZA,TZ,4797.0,46529.0,46529.0,kirogo,,34.02218,-1.332513,3,ward,mapping,2018.0,,,30,2,0.0,,30,0,0.0,,30,0,0.0,,1,23037,0.0,378,378,377
TZA,TZ,4797.0,46529.0,46529.0,kirogo,,34.02218,-1.332513,3,school,mapping,2017.0,11.0,15.0,30,2,0.0,0.0,30,0,0.0,0.0,30,0,0.0,0.0,1,37031,0.0,379,379,377
TZA,TZ,4803.0,46638.0,46638.0,kiromo,59441.0,38.933998,-6.5,3,,,1997.0,,,44,34,,,44,3,,,44,3,,,3,15808,6380.2657966147535,380,380,380
TZA,TZ,4797.0,46526.0,46526.0,kirumi,,33.952905,-1.5617217,3,school,mapping,2017.0,10.0,15.0,29,2,0.0,0.0,29,0,0.0,0.0,29,0,0.0,0.0,1,36916,0.5575991726978963,381,381,51
TZA,TZ,4797.0,46530.0,46530.0,kisaka,,34.46371,-1.543092,3,ward,mapping,2018.0,,,30,0,0.0,,30,1,0.0,,30,0,0.0,,1,23087,0.0,382,382,383
TZA,TZ,4797.0,46530.0,46530.0,kisaka,,34.46371,-1.543092,3,school,mapping,2017.0,10.0,15.0,30,0,0.0,0.0,30,1,0.0,0.0,30,0,0.0,0.0,1,37098,0.0,383,383,382
TZA,TZ,4797.0,46530.0,46530.0,kisaka,,34.46371,-1.543092,3,ward,mapping,2018.0,,,29,0,0.0,,29,0,0.0,,29,1,0.0,,1,23088,0.0,384,384,382
TZA,TZ,4797.0,46526.0,46526.0,kisamwene,,33.9398783,-1.6749233,3,school,mapping,2017.0,11.0,15.0,30,0,0.0,0.0,30,0,0.0,0.0,30,0,0.0,0.0,1,36917,1419.3804816051052,385,385,385
TZA,TZ,4809.0,46608.0,46608.0,kisanga,59812.0,32.940971,-5.198263,1,,,2004.0,,,61,31,,,61,0,,,61,0,,,2,15963,24398.0963733844,386,386,386
TZA,TZ,4797.0,46530.0,46530.0,kisangura,,34.7919,-1.833303,3,ward,mapping,2018.0,,,30,0,0.0,,30,0,0.0,,30,0,0.0,,1,23089,0.36887073791030056,387,387,1024
TZA,TZ,4806.0,46590.0,46590.0,kishapu,59633.0,33.8857747,-3.8587051,1,,,2004.0,,,60,0,,,60,0,,,60,0,,,2,15894,33115.346179256034,388,388,388
TZA,TZ,4810.0,46622.0,46622.0,kisimatui,59831.0,39.002701,-5.17553,3,,,1996.0,,,45,11,,,45,9,,,45,4,,,3,16028,6195.7178206919425,389,389,389
TZA,TZ,4797.0,46525.0,46525.0,kisorya,,33.2180517,-2.10044,3,school,mapping,2017.0,10.0,15.0,30,0,0.0,0.0,30,0,0.0,0.0,30,0,0.0,0.0,1,36857,0.1892431336455047,390,390,391
TZA,TZ,4797.0,46631.0,46631.0,kisorya,,33.21805,-2.10044,3,ward,mapping,2018.0,,,30,0,0.0,,30,0,0.0,,30,0,0.0,,1,22877,0.1892431336455047,391,391,390
TZA,TZ,4797.0,46529.0,46529.0,kisumwa,,34.09126,-1.430703,3,ward,mapping,2018.0,,,29,1,0.0,,29,0,0.0,,29,0,0.0,,1,23039,0.0,392,392,393
TZA,TZ,4797.0,46529.0,46529.0,kisumwa,,34.09126,-1.430703,3,ward,mapping,2018.0,,,30,0,0.0,,30,0,0.0,,30,0,0.0,,1,23038,0.0,393,393,392
TZA,TZ,4797.0,46529.0,46529.0,kisumwa,,34.09126,-1.430703,3,school,mapping,2017.0,11.0,14.0,30,0,0.0,0.0,30,0,0.0,0.0,30,0,0.0,0.0,1,37032,0.0,394,394,392
TZA,TZ,4791.0,46492.0,46492.0,kitaba,59760.0,31.5292,-1.9526401,3,,,2004.0,,,60,49,,,60,2,,,60,4,,,2,15699,6196.278271580455,395,395,395
TZA,TZ,4797.0,46531.0,46531.0,kitagasembe,,34.4711967,-1.28658,3,school,mapping,2017.0,11.0,15.0,30,0,0.0,0.0,30,0,0.0,0.0,30,0,0.0,0.0,1,37162,2472.478964913679,396,396,396
TZA,TZ,4797.0,46528.0,46528.0,kitaji,,33.80476,-1.501682,3,ward,mapping,2018.0,,,29,1,0.0,,29,0,0.0,,29,0,0.0,,1,23009,0.0,397,397,398
TZA,TZ,4797.0,46528.0,46528.0,kitaji,,33.80476,-1.501682,3,ward,mapping,2018.0,,,30,0,0.0,,30,0,0.0,,30,0,0.0,,1,23010,0.0,398,398,397
TZA,TZ,4797.0,46529.0,46529.0,kitembe,,34.16399,-1.206123,3,ward,mapping,2018.0,,,30,5,0.0,,30,0,0.0,,30,0,0.0,,1,23041,0.0,399,399,400
TZA,TZ,4797.0,46529.0,46529.0,kitembe,,34.16399,-1.206123,3,ward,mapping,2018.0,,,30,0,0.0,,30,0,0.0,,30,0,0.0,,1,23040,0.0,400,400,399
TZA,TZ,4797.0,46529.0,46529.0,kitembe,,34.16399,-1.206123,3,school,mapping,2017.0,10.0,15.0,30,0,0.0,0.0,30,0,0.0,0.0,30,0,0.0,0.0,1,37033,0.0,401,401,399
TZA,TZ,4797.0,46531.0,46531.0,kitenga,,34.2885683,-1.2916167,3,school,mapping,2017.0,11.0,15.0,28,7,0.0,0.0,28,0,0.0,0.0,28,0,0.0,0.0,1,37163,0.19216871032221078,402,402,75
TZA,TZ,4797.0,46531.0,46531.0,kiterere,,34.2748467,-1.3296417,3,school,mapping,2017.0,11.0,15.0,30,2,0.0,0.0,30,0,0.0,0.0,30,0,0.0,0.0,1,37164,3453.1179308899923,403,403,403
TZA,TZ,4806.0,46591.0,46591.0,kituli,,33.14756,-3.870685,3,school,sentinel site,2018.0,9.0,15.0,60,0,0.0,0.0,60,0,0.0,0.0,60,0,0.0,0.0,1,37230,5520.837023582971,404,404,404
TZA,TZ,4801.0,46560.0,46560.0,kitumba,59681.0,32.8845878,-2.4990126,1,,,1997.0,,,105,43,,,105,0,,,105,0,,,3,15775,4141.3260651817845,405,405,405
TZA,TZ,4803.0,46638.0,46638.0,kiwangwa (bago a),59442.0,38.583333,-6.366667,1,,,2011.0,,,49,5,,,49,0,,,49,2,,,1,15823,0.0,406,406,407
TZA,TZ,4803.0,46638.0,46638.0,kiwangwa (bago b),59443.0,38.583333,-6.366667,1,,,2011.0,,,36,6,,,36,0,,,36,0,,,1,15811,0.0,407,407,406
TZA,TZ,4803.0,46638.0,46638.0,kiwangwa (kibaoni),59444.0,38.583333,-6.366667,2,,,2011.0,,,53,3,,,53,1,,,53,1,,,1,15804,0.0,408,408,406
TZA,TZ,4803.0,46638.0,46638.0,kiwangwa (kiembeni),59445.0,38.583333,-6.366667,2,,,2011.0,,,52,6,,,52,0,,,52,1,,,1,15840,0.0,409,409,406
TZA,TZ,4803.0,46638.0,46638.0,kiwangwa (kisebengo),59446.0,38.583333,-6.366667,2,,,2011.0,,,19,2,,,19,0,,,19,0,,,1,15845,0.0,410,410,406
TZA,TZ,4803.0,46638.0,46638.0,kiwangwa (kiwanzi),59447.0,38.583333,-6.366667,1,,,2011.0,,,50,3,,,50,0,,,50,0,,,1,15873,0.0,411,411,406
TZA,TZ,4803.0,46638.0,46638.0,kiwangwa (kwambwela),59448.0,38.583333,-6.366667,1,,,2011.0,,,51,4,,,51,0,,,51,2,,,1,15835,0.0,412,412,406
TZA,TZ,4803.0,46638.0,46638.0,kiwangwa (kwamkizi),59449.0,38.583333,-6.366667,1,,,2011.0,,,6,1,,,6,0,,,6,0,,,1,15842,0.0,413,413,406
TZA,TZ,4803.0,46638.0,46638.0,kiwangwa (kwawema),59450.0,38.583333,-6.366667,1,,,2011.0,,,2,0,,,2,0,,,2,0,,,1,15849,0.0,414,414,406
TZA,TZ,4803.0,46638.0,46638.0,kiwangwa (mambohela),59451.0,38.583333,-6.366667,1,,,2011.0,,,13,0,,,13,0,,,13,0,,,1,15850,0.0,415,415,406
TZA,TZ,4803.0,46638.0,46638.0,kiwangwa (minazi),59452.0,38.583333,-6.366667,1,,,2011.0,,,2,0,,,2,0,,,2,0,,,1,15867,0.0,416,416,406
TZA,TZ,4803.0,46638.0,46638.0,kiwangwa (misani),59453.0,38.583333,-6.366667,1,,,2011.0,,,2,0,,,2,0,,,2,0,,,1,15864,0.0,417,417,406
TZA,TZ,4803.0,46638.0,46638.0,kiwangwa (morwe),59454.0,38.583333,-6.366667,1,,,2011.0,,,41,3,,,41,0,,,41,0,,,1,15834,0.0,418,418,406
TZA,TZ,4803.0,46638.0,46638.0,kiwangwa (mwavi a),59455.0,38.583333,-6.366667,1,,,2011.0,,,25,2,,,25,0,,,25,0,,,1,15848,0.0,419,419,406
TZA,TZ,4803.0,46638.0,46638.0,kiwangwa (mwavi b),59456.0,38.583333,-6.366667,1,,,2011.0,,,13,0,,,13,0,,,13,0,,,1,15852,0.0,420,420,406
TZA,TZ,4803.0,46638.0,46638.0,kiwangwa (mwetemo b),59457.0,38.583333,-6.366667,2,,,2011.0,,,2,1,,,2,0,,,2,0,,,1,15858,0.0,421,421,406
TZA,TZ,4803.0,46638.0,46638.0,kiwangwa (ndete),59458.0,38.583333,-6.366667,1,,,2011.0,,,7,1,,,7,0,,,7,0,,,1,15843,0.0,422,422,406
TZA,TZ,4803.0,46638.0,46638.0,kiwangwa (sengasenga),59460.0,38.583333,-6.366667,1,,,2011.0,,,2,0,,,2,0,,,2,0,,,1,15829,0.0,423,423,406
TZA,TZ,4797.0,46529.0,46529.0,kongo,,34.3010867,-1.3519967,3,school,mapping,2017.0,10.0,15.0,30,0,0.0,0.0,30,0,0.0,0.0,30,0,0.0,0.0,1,37035,3837.790765093837,424,424,424
TZA,TZ,4801.0,46560.0,46560.0,kongolo,59682.0,33.116667,-2.45,1,,,1997.0,,,120,47,,,120,0,,,120,0,,,3,15751,7247.562582218099,425,425,425
TZA,TZ,4803.0,46638.0,46638.0,kiwangwa (ushirika),59461.0,38.583333,-6.366667,1,,,2011.0,,,14,3,,,14,0,,,14,0,,,1,15807,0.0,426,426,406
TZA,TZ,4803.0,46638.0,46638.0,kiwangwa (vigwaza),59462.0,38.583333,-6.366667,1,,,2011.0,,,6,1,,,6,0,,,6,0,,,1,15818,0.0,427,427,406
TZA,TZ,4803.0,46638.0,46638.0,kiwangwa (zongomelo),59463.0,38.583333,-6.366667,1,,,2011.0,,,2,0,,,2,0,,,2,0,,,1,15828,0.0,428,428,406
TZA,TZ,4810.0,46618.0,46618.0,kiwanja,59654.0,38.302799,-4.4144702,3,,,1996.0,,,48,13,,,48,10,,,48,0,,,3,16012,2331.7213184576053,429,429,429
TZA,TZ,4809.0,46608.0,46608.0,kiyombo,59813.0,33.940601,-6.0919099,3,,,2004.0,,,60,30,,,60,0,,,60,0,,,2,15975,23805.507858397243,430,430,430
TZA,TZ,4791.0,46492.0,46492.0,kiziramuyaga,59761.0,31.66556,-2.1730599,3,,,0.0,,,126,75,,,126,21,,,126,9,,,3,15693,0.0,431,431,432
TZA,TZ,4791.0,46492.0,46492.0,kiziramuyaga,59761.0,31.66556,-2.1730599,3,,,0.0,,,65,43,,,65,0,,,65,5,,,3,15700,0.0,432,432,431
TZA,TZ,4797.0,46529.0,46529.0,kogaja,,34.3036733,-1.1736467,3,school,mapping,2017.0,11.0,15.0,28,0,0.0,0.0,28,0,0.0,0.0,28,0,0.0,0.0,1,37034,0.3688698234416949,433,433,219
TZA,TZ,4797.0,46532.0,46532.0,komaswa,,34.18674,-1.462952,3,ward,mapping,2018.0,,,30,0,0.0,,30,0,0.0,,30,0,0.0,,1,23151,0.1921691283908507,434,434,814
TZA,TZ,4797.0,46527.0,46527.0,kome,,33.32426,-1.8532383,3,school,mapping,2017.0,11.0,15.0,30,1,0.0,0.0,30,0,0.0,0.0,30,0,0.0,0.0,1,36961,32.61775468386263,435,435,435
TZA,TZ,4797.0,46527.0,46527.0,kome b,,33.3243533,-1.8535167,3,school,mapping,2017.0,10.0,15.0,30,0,0.0,0.0,30,0,0.0,0.0,30,0,0.0,0.0,1,36962,0.3688707723086159,436,436,130
TZA,TZ,4797.0,46529.0,46529.0,komuge,,33.98585,-1.4892,3,ward,mapping,2018.0,,,30,0,0.0,,30,0,0.0,,30,0,0.0,,1,23042,0.0,437,437,449
TZA,TZ,4797.0,46526.0,46526.0,kongoto,,34.1916567,-1.6121833,3,school,mapping,2017.0,11.0,15.0,30,0,0.0,0.0,30,0,0.0,0.0,30,0,0.0,0.0,1,36918,0.3688703862278851,438,438,112
TZA,TZ,4797.0,46530.0,46530.0,koreri,,34.70416,-1.77605,3,school,mapping,2017.0,10.0,15.0,29,7,0.0,0.0,29,0,0.0,0.0,29,0,0.0,0.0,1,37099,0.0,439,439,563
TZA,TZ,4797.0,46529.0,46529.0,koryo,,34.25216,-1.308492,3,ward,mapping,2018.0,,,30,1,0.0,,30,1,0.0,,30,0,0.0,,1,23044,0.0,440,440,441
TZA,TZ,4797.0,46529.0,46529.0,koryo,,34.25216,-1.308492,3,ward,mapping,2018.0,,,30,1,0.0,,30,0,0.0,,30,0,0.0,,1,23045,0.0,441,441,440
TZA,TZ,4797.0,46526.0,46526.0,kukirango,,33.79272,-1.7343069999999998,3,ward,mapping,2018.0,,,30,3,0.0,,30,0,0.0,,30,0,0.0,,1,22938,0.0,442,442,443
TZA,TZ,4797.0,46526.0,46526.0,kukirango,,33.79272,-1.7343069999999998,3,ward,mapping,2018.0,,,30,2,0.0,,30,0,0.0,,30,0,0.0,,1,22939,0.0,443,443,442
TZA,TZ,4797.0,46526.0,46526.0,kukirango,,33.79272,-1.7343069999999998,3,ward,mapping,2018.0,,,29,0,0.0,,29,0,0.0,,29,0,0.0,,1,22937,0.0,444,444,442
TZA,TZ,4797.0,46631.0,46631.0,kunzugu,,33.91113,-2.048825,3,ward,mapping,2018.0,,,30,1,0.0,,30,1,0.0,,30,0,0.0,,1,22910,0.0,445,445,446
TZA,TZ,4797.0,46631.0,46631.0,kunzugu,,33.91113,-2.048825,3,school,mapping,2017.0,10.0,15.0,30,1,0.0,0.0,30,1,0.0,0.0,30,0,0.0,0.0,1,36894,0.0,446,446,445
TZA,TZ,4797.0,46631.0,46631.0,kunzugu,,33.91113,-2.048825,3,ward,mapping,2018.0,,,30,0,0.0,,30,0,0.0,,30,0,0.0,,1,22909,0.0,447,447,445
TZA,TZ,4797.0,46527.0,46527.0,kurugongo,,33.378685,-1.8230483,3,school,mapping,2017.0,11.0,15.0,29,0,0.0,0.0,29,1,0.0,0.0,29,0,0.0,0.0,1,36963,2729.5876274893985,448,448,448
TZA,TZ,4797.0,46529.0,46529.0,kuruya,,33.98585,-1.4892,3,school,mapping,2017.0,10.0,15.0,30,0,0.0,0.0,30,0,0.0,0.0,30,0,0.0,0.0,1,37036,0.0,449,449,437
TZA,TZ,4797.0,46527.0,46527.0,kusenyi,,33.643485,-1.797065,3,school,mapping,2017.0,11.0,15.0,29,1,0.0,0.0,29,0,0.0,0.0,29,0,0.0,0.0,1,36964,3646.0034412880423,450,450,450
TZA,TZ,4810.0,46616.0,46616.0,kwagunda,59640.0,38.3815,-5.0502801,3,,,1996.0,,,46,27,,,46,16,,,46,11,,,3,16005,7169.31415854907,451,451,451
TZA,TZ,4810.0,46615.0,46615.0,kwamaligwa,59628.0,37.4666667,-5.4166667,1,,,1996.0,,,51,41,,,51,0,,,51,1,,,3,15999,8304.65762419804,452,452,452
TZA,TZ,4797.0,46528.0,46528.0,kwangwa,,33.803915,-1.5355433,3,school,mapping,2017.0,10.0,15.0,30,0,0.0,0.0,30,0,0.0,0.0,30,1,0.0,0.0,1,37005,725.9108658988553,453,453,453
TZA,TZ,4810.0,46613.0,46613.0,kwangwe,59579.0,38.585701,-5.3717799,3,,,1996.0,,,51,44,,,51,23,,,51,2,,,3,15995,12727.157747365836,454,454,454
TZA,TZ,4810.0,46613.0,46613.0,kwedizinga,59580.0,38.4697,-5.5237398,3,,,1996.0,,,49,39,,,49,13,,,49,2,,,3,15996,21342.6152260721,455,455,455
TZA,TZ,4810.0,46613.0,46613.0,kweingoma,59581.0,38.400799,-5.2354102,3,,,1996.0,,,43,33,,,43,18,,,43,0,,,3,15994,13840.021883388301,456,456,456
TZA,TZ,4797.0,46527.0,46527.0,kwibara,,33.7062567,-1.6851017,3,school,mapping,2017.0,9.0,15.0,30,0,0.0,0.0,30,0,0.0,0.0,30,0,0.0,0.0,1,36965,1222.5243976781396,457,457,457
TZA,TZ,4797.0,46531.0,46531.0,kwigenge,,34.3851883,-1.2060917,3,school,mapping,2017.0,11.0,15.0,29,0,0.0,0.0,29,0,0.0,0.0,29,0,0.0,0.0,1,37165,4193.8740595191975,458,458,458
TZA,TZ,4797.0,46527.0,46527.0,kwikuba,,33.6709517,-1.7343567,3,school,mapping,2017.0,11.0,15.0,30,1,0.0,0.0,30,4,0.0,0.0,30,0,0.0,0.0,1,36966,0.1921698968962414,459,459,93
TZA,TZ,4797.0,46526.0,46526.0,kwisaro,,34.10725,-1.6403433,3,school,mapping,2017.0,11.0,15.0,29,1,0.0,0.0,29,0,0.0,0.0,29,0,0.0,0.0,1,36919,0.03340953841689043,460,460,819
TZA,TZ,4797.0,46530.0,46530.0,kwitete,,34.6151283,-1.8276333,3,school,mapping,2017.0,11.0,15.0,30,0,0.0,0.0,30,0,0.0,0.0,30,0,0.0,0.0,1,37100,0.1921701904246487,461,461,832
TZA,TZ,4797.0,46530.0,46530.0,kyambahi,,34.58133,-1.943435,3,ward,mapping,2018.0,,,30,1,0.0,,30,1,0.0,,30,0,0.0,,1,23092,0.0,462,462,463
TZA,TZ,4797.0,46530.0,46530.0,kyambahi,,34.58133,-1.943435,3,ward,mapping,2018.0,,,30,0,0.0,,30,0,0.0,,30,0,0.0,,1,23091,0.0,463,463,462
TZA,TZ,4797.0,46526.0,46526.0,kyamuko,,34.1084383,-1.7102217,3,school,mapping,2017.0,8.0,15.0,29,2,0.0,0.0,29,0,0.0,0.0,29,0,0.0,0.0,1,36920,7129.135491965893,464,464,464
TZA,TZ,4797.0,46529.0,46529.0,kyang'ombe,,33.86299,-1.338953,3,ward,mapping,2018.0,,,30,0,0.0,,30,0,0.0,,30,0,0.0,,1,23046,0.19216882112832548,465,465,908
TZA,TZ,4797.0,46529.0,46529.0,kyangasaga,,33.91979,-1.274335,3,ward,mapping,2018.0,,,33,4,0.0,,33,0,0.0,,33,0,0.0,,1,23049,0.0,466,466,467
TZA,TZ,4797.0,46529.0,46529.0,kyangasaga,,33.91979,-1.274335,3,ward,mapping,2018.0,,,30,2,0.0,,30,0,0.0,,30,0,0.0,,1,23048,0.0,467,467,466
TZA,TZ,4791.0,46489.0,46489.0,kyanyamisa,59614.0,31.1318,-1.82235,3,,,2004.0,,,60,43,,,60,1,,,60,1,,,2,15685,17486.889857627546,468,468,468
TZA,TZ,4797.0,46526.0,46526.0,kyanyari,,33.85081,-1.810192,3,ward,mapping,2018.0,,,30,1,0.0,,30,0,0.0,,30,0,0.0,,1,22940,0.0,469,469,470
TZA,TZ,4797.0,46526.0,46526.0,kyanyari,,33.85081,-1.810192,3,ward,mapping,2018.0,,,30,0,0.0,,30,0,0.0,,30,0,0.0,,1,22941,0.0,470,470,469
TZA,TZ,4797.0,46529.0,46529.0,kyariko,,34.0752433,-1.188305,3,school,mapping,2017.0,10.0,15.0,30,0,0.0,0.0,30,0,0.0,0.0,30,0,0.0,0.0,1,37037,0.3673543194308877,471,471,925
TZA,TZ,4791.0,46491.0,46491.0,kyazi,59730.0,31.6423,-1.21408,3,,,2004.0,,,60,36,,,60,6,,,60,16,,,2,15690,14948.182425921234,472,472,472
TZA,TZ,4791.0,46492.0,46492.0,kyenshama,59762.0,31.65444,-1.83972,3,,,0.0,,,47,12,,,47,31,,,47,4,,,3,15702,0.0,473,473,474
TZA,TZ,4791.0,46492.0,46492.0,kyenshama,59762.0,31.65444,-1.83972,3,,,0.0,,,125,25,,,125,32,,,125,0,,,3,15695,0.0,474,474,473
TZA,TZ,4807.0,46596.0,46596.0,laini a,59592.0,34.263699,-2.8082399,3,,,2004.0,,,62,29,,,62,0,,,62,0,,,2,15928,8506.21523982951,475,475,475
TZA,TZ,4810.0,46618.0,46618.0,langoni,59655.0,38.278599,-4.4288101,3,,,1996.0,,,37,22,,,37,8,,,37,0,,,3,16013,3133.8013814519286,476,476,476
TZA,TZ,4797.0,46631.0,46631.0,ligamba,,33.9010567,-2.0113583,3,school,mapping,2017.0,11.0,15.0,30,0,0.0,0.0,30,0,0.0,0.0,30,0,0.0,0.0,1,36895,0.36887105438200074,477,477,974
TZA,TZ,4797.0,46530.0,46530.0,little flower,,34.6692583,-1.8457967,3,school,mapping,2017.0,10.0,13.0,30,0,0.0,0.0,30,0,0.0,0.0,30,0,0.0,0.0,1,37101,0.1921702486426468,478,478,612
TZA,TZ,4801.0,46561.0,46561.0,lubuga,59734.0,33.153801,-2.8940699,3,,,2004.0,,,60,25,,,60,0,,,60,0,,,2,15782,9255.93077398292,479,479,479
TZA,TZ,4791.0,46491.0,46491.0,luhano,59731.0,31.761101,-1.1515,3,,,2004.0,,,60,48,,,60,6,,,60,6,,,2,15689,14948.182425921234,480,480,480
TZA,TZ,4806.0,46590.0,46590.0,luhumbo,59634.0,33.616669,-3.5666699,3,,,0.0,,,188,12,,,188,0,,,188,0,,,3,15889,0.0,481,481,482
TZA,TZ,4806.0,46590.0,46590.0,luhumbo,59634.0,33.616669,-3.5666699,3,,,0.0,,,31,0,,,31,0,,,31,0,,,3,15890,0.0,482,482,481
TZA,TZ,4809.0,46608.0,46608.0,lukula,59814.0,32.8,-5.716667,1,,,2004.0,,,60,24,,,60,2,,,60,0,,,2,15966,2113.6258136483843,483,483,483
TZA,TZ,4807.0,46595.0,46595.0,lukungu,59536.0,33.860001,-2.22803,3,,,1997.0,,,117,62,,,117,0,,,117,0,,,3,15924,3855.476666746383,484,484,484
TZA,TZ,4801.0,46560.0,46560.0,lumeji,59684.0,33.44453,-2.5899611,3,,,0.0,,,37,8,,,37,0,,,37,0,,,3,15749,0.0,485,485,486
TZA,TZ,4801.0,46560.0,46560.0,lumeji,59683.0,33.44453,-2.5899611,3,,,0.0,,,95,2,,,95,0,,,95,0,,,3,15752,0.0,486,486,485
TZA,TZ,4807.0,46595.0,46595.0,lunala,59537.0,33.771999,-2.36709,3,,,1997.0,,,121,48,,,121,0,,,121,0,,,3,15907,5572.130475826132,487,487,487
TZA,TZ,4810.0,46618.0,46618.0,lunguza,59656.0,38.402,-4.501925,1,,,1996.0,,,49,28,,,49,5,,,49,2,,,3,16014,14741.187347645475,488,488,488
TZA,TZ,4807.0,46595.0,46595.0,lwangwe,59538.0,33.6735,-2.39469,3,,,1997.0,,,121,41,,,121,0,,,121,0,,,3,15921,5219.193205802768,489,489,489
TZA,TZ,4789.0,46476.0,46476.0,lyambamgongo,59523.0,31.987101,-3.49436,3,,,2004.0,,,60,26,,,60,0,,,60,0,,,2,15637,12509.615041229139,490,490,490
TZA,TZ,4797.0,46527.0,46527.0,lyasembe,,33.471345,-1.849855,3,school,mapping,2017.0,11.0,15.0,30,0,0.0,0.0,30,0,0.0,0.0,30,0,0.0,0.0,1,36967,0.556597454007715,491,491,652
TZA,TZ,4797.0,46527.0,46527.0,mabuimerafuru,,33.5467467,-1.8695517,3,school,mapping,2017.0,11.0,15.0,30,0,0.0,0.0,30,0,0.0,0.0,30,0,0.0,0.0,1,36968,0.36887080015578705,492,492,663
TZA,TZ,4797.0,46530.0,46530.0,maburi,,34.3717133,-1.81219,3,school,mapping,2017.0,10.0,14.0,30,4,0.0,0.0,30,0,0.0,0.0,30,0,0.0,0.0,1,37102,0.3673543203622103,493,493,812
TZA,TZ,4797.0,46530.0,46530.0,machochwe,,34.69227,-1.671175,3,ward,mapping,2018.0,,,30,1,0.0,,30,2,0.0,,30,0,0.0,,1,23093,0.0,494,494,495
TZA,TZ,4797.0,46530.0,46530.0,machochwe,,34.69227,-1.671175,3,school,mapping,2017.0,10.0,15.0,30,1,0.0,0.0,30,2,0.0,0.0,30,0,0.0,0.0,1,37103,0.0,495,495,494
TZA,TZ,4797.0,46530.0,46530.0,machochwe,,34.69227,-1.671175,3,ward,mapping,2018.0,,,30,2,0.0,,30,1,0.0,,30,1,0.0,,1,23094,0.0,496,496,494
TZA,TZ,4810.0,46621.0,46621.0,madanga,59787.0,38.9772109,-5.345721,1,,,1996.0,,,45,40,,,45,1,,,45,0,,,3,16027,3068.823838350366,497,497,497
TZA,TZ,4810.0,46619.0,46619.0,maforoni,59742.0,39.102402,-4.6779099,3,,,1996.0,,,50,28,,,50,1,,,50,11,,,3,16015,33917.68665310271,498,498,498
TZA,TZ,4797.0,46525.0,46525.0,mafwele,,33.327565,-2.12574,3,school,mapping,2017.0,10.0,15.0,28,1,0.0,0.0,28,0,0.0,0.0,28,0,0.0,0.0,1,36858,0.5565974544733763,499,499,724
TZA,TZ,4797.0,46526.0,46526.0,magana,,33.965765,-1.61209,3,school,mapping,2017.0,12.0,15.0,30,0,0.0,0.0,30,0,0.0,0.0,30,0,0.0,0.0,1,36921,5781.464343429127,500,500,500
TZA,TZ,4797.0,46530.0,46530.0,magange,,34.36111,-1.7406700000000002,3,ward,mapping,2018.0,,,30,0,0.0,,30,0,0.0,,30,0,0.0,,1,23095,0.0,501,501,502
TZA,TZ,4797.0,46530.0,46530.0,magange,,34.36111,-1.7406700000000002,3,school,mapping,2017.0,11.0,15.0,30,0,0.0,0.0,30,0,0.0,0.0,30,0,0.0,0.0,1,37104,0.0,502,502,501
TZA,TZ,4797.0,46530.0,46530.0,maghaka,,34.5813333,-1.943435,3,school,mapping,2017.0,10.0,15.0,30,0,0.0,0.0,30,0,0.0,0.0,30,0,0.0,0.0,1,37105,0.3673543184995651,503,503,462
TZA,TZ,4810.0,46616.0,46616.0,magunga,59641.0,35.3205609,-8.0589129,1,,,1996.0,,,47,13,,,47,20,,,47,6,,,3,16009,258278.91545240622,504,504,504
TZA,TZ,4809.0,46607.0,46607.0,mahene,59782.0,32.914398,-4.0816398,3,,,2004.0,,,60,39,,,60,1,,,60,2,,,2,15957,25556.501750173044,505,505,505
TZA,TZ,4797.0,46529.0,46529.0,majengo,,33.9772633,-1.12273,3,school,mapping,2017.0,9.0,14.0,30,0,0.0,0.0,30,2,0.0,0.0,30,0,0.0,0.0,1,37038,6332.113552657213,506,506,506
TZA,TZ,4797.0,46530.0,46530.0,majimoto,,34.37515,-1.577413,3,ward,mapping,2018.0,,,30,0,0.0,,30,0,0.0,,30,0,0.0,,1,23097,0.0,507,507,508
TZA,TZ,4797.0,46530.0,46530.0,majimoto,,34.37515,-1.577413,3,school,mapping,2017.0,11.0,15.0,30,0,0.0,0.0,30,0,0.0,0.0,30,0,0.0,0.0,1,37106,0.0,508,508,507
TZA,TZ,4797.0,46527.0,46527.0,majita b,,33.4054167,-1.8093567,3,school,mapping,2017.0,11.0,15.0,30,0,0.0,0.0,30,2,0.0,0.0,30,0,0.0,0.0,1,36969,0.3688706977020929,509,509,55
TZA,TZ,4797.0,46527.0,46527.0,makojo,,33.35048,-1.883273,3,ward,mapping,2018.0,,,30,0,0.0,,30,0,0.0,,30,0,0.0,,1,22974,0.0,510,510,511
TZA,TZ,4797.0,46527.0,46527.0,makojo,,33.35048,-1.883273,3,school,mapping,2017.0,11.0,15.0,28,0,0.0,0.0,28,0,0.0,0.0,28,0,0.0,0.0,1,36970,0.0,511,511,510
TZA,TZ,4797.0,46528.0,46528.0,makoko,,33.76415,-1.495638,3,ward,mapping,2018.0,,,30,0,0.0,,30,0,0.0,,30,0,0.0,,1,23011,0.033407229668227956,512,512,54
TZA,TZ,4809.0,46607.0,46607.0,makomero,59783.0,32.9753,-4.3024001,3,,,2004.0,,,61,1,,,61,0,,,61,0,,,2,15955,15265.316408163158,513,513,513
TZA,TZ,4797.0,46526.0,46526.0,makore,,33.97178,-1.764675,3,school,mapping,2017.0,11.0,15.0,30,2,0.0,0.0,30,0,0.0,0.0,30,0,0.0,0.0,1,36922,5654.969403636759,514,514,514
TZA,TZ,4810.0,46616.0,46616.0,makumba,59642.0,38.607601,-4.9779,3,,,1996.0,,,52,31,,,52,4,,,52,3,,,3,16007,14640.35338728646,515,515,515
TZA,TZ,4797.0,46529.0,46529.0,malkia wa shirati,,34.0294967,-1.16381,3,school,mapping,2017.0,10.0,15.0,30,0,0.0,0.0,30,0,0.0,0.0,30,0,0.0,0.0,1,37039,0.3673543189652264,516,516,593
TZA,TZ,4797.0,46525.0,46525.0,manchimweru b,,34.2867833,-1.8697867,3,school,mapping,2017.0,11.0,15.0,30,0,0.0,0.0,30,0,0.0,0.0,30,0,0.0,0.0,1,36859,3787.3942024662865,517,517,517
TZA,TZ,4797.0,46530.0,46530.0,manchira,,34.72999,-1.884233,3,ward,mapping,2018.0,,,30,0,0.0,,30,0,0.0,,30,0,0.0,,1,23099,0.0334139135084115,518,518,957
TZA,TZ,4810.0,46620.0,46620.0,mandera,59753.0,38.674,-5.2460799,3,,,1996.0,,,50,41,,,50,10,,,50,8,,,3,16022,6573.661092538192,519,519,519
TZA,TZ,4797.0,46532.0,46532.0,manga,,34.25547,-1.437075,3,ward,mapping,2018.0,,,30,0,0.0,,30,1,0.0,,30,0,0.0,,1,23153,0.0,520,520,22
TZA,TZ,4797.0,46532.0,46532.0,manga,,34.25547,-1.437075,3,ward,mapping,2018.0,,,30,0,0.0,,30,0,0.0,,30,0,0.0,,1,23154,0.0,521,521,22
TZA,TZ,4797.0,46529.0,46529.0,mangore,,34.2521583,-1.3084917,3,school,mapping,2017.0,11.0,15.0,30,1,0.0,0.0,30,1,0.0,0.0,30,0,0.0,0.0,1,37040,0.1921687503088394,522,522,440
TZA,TZ,4797.0,46531.0,46531.0,mangucha,,34.7299333,-1.4092717,3,school,mapping,2017.0,9.0,15.0,30,0,0.0,0.0,30,0,0.0,0.0,30,0,0.0,0.0,1,37166,0.36887010341438065,523,523,869
TZA,TZ,4806.0,46591.0,46591.0,manheigana,,32.988095,-3.427945,3,school,sentinel site,2018.0,10.0,15.0,60,0,0.0,0.0,60,0,0.0,0.0,60,0,0.0,0.0,1,37231,20384.813625709194,524,524,524
TZA,TZ,4797.0,46529.0,46529.0,manyanyi,,33.9731383,-1.1895567,3,school,mapping,2017.0,11.0,15.0,30,0,0.0,0.0,30,0,0.0,0.0,30,0,0.0,0.0,1,37041,0.19216848720788865,525,525,767
TZA,TZ,4797.0,46529.0,46529.0,manyara,,34.1523733,-1.3620217,3,school,mapping,2017.0,10.0,15.0,28,0,0.0,0.0,28,1,0.0,0.0,28,0,0.0,0.0,1,37042,1837.0199087992326,526,526,526
TZA,TZ,4797.0,46530.0,46530.0,manyata,,34.6828983,-1.6995133,3,school,mapping,2017.0,10.0,15.0,30,2,0.0,0.0,30,1,0.0,0.0,30,1,0.0,0.0,1,37107,3323.9322496525774,527,527,527
TZA,TZ,4809.0,46610.0,46610.0,mapinduzi,59849.0,32.316299,-5.0894299,3,,,2004.0,,,60,24,,,60,0,,,60,0,,,2,15984,14413.50218657209,528,528,528
TZA,TZ,4789.0,46478.0,46478.0,mapinduzi,59574.0,31.9242,-2.6758499,3,,,2004.0,,,60,52,,,60,0,,,60,1,,,2,15657,13199.021740078198,529,529,529
TZA,TZ,4797.0,46532.0,46532.0,mapinduzi,,34.6695267,-1.8441483,3,school,mapping,2017.0,10.0,15.0,30,0,0.0,0.0,30,2,0.0,0.0,30,0,0.0,0.0,1,37200,0.0,530,530,531
TZA,TZ,4797.0,46530.0,46530.0,mapinduzi,,34.6695267,-1.8441483,3,school,mapping,2017.0,10.0,14.0,30,0,0.0,0.0,30,0,0.0,0.0,30,0,0.0,0.0,1,37108,0.0,531,531,530
TZA,TZ,4803.0,46638.0,46638.0,mapinga,59465.0,39.0601559,-6.6065553,1,,,1997.0,,,18,12,,,18,1,,,18,2,,,3,15815,2273.4724509152225,532,532,532
TZA,TZ,4797.0,46525.0,46525.0,marambeka,,34.05057,-1.8734383,3,school,mapping,2017.0,11.0,15.0,30,0,0.0,0.0,30,0,0.0,0.0,30,0,0.0,0.0,1,36860,0.03341370704583824,533,533,324
TZA,TZ,4797.0,46529.0,46529.0,marasibora,59790.0,34.151531,-1.486118,3,,,0.0,,,147,9,,,147,0,,,147,0,,,3,15719,4692.0697152059365,534,534,534
TZA,TZ,4797.0,46531.0,46531.0,marasibora,59841.0,34.549999,-1.5,3,,,0.0,,,44,0,,,44,0,,,44,0,,,3,15721,4450.304672907213,535,535,535
TZA,TZ,4797.0,46530.0,46530.0,marasomoche,,34.5714833,-1.602615,3,school,mapping,2017.0,12.0,15.0,30,0,0.0,0.0,30,0,0.0,0.0,30,0,0.0,0.0,1,37109,0.3673543194308877,536,536,864
TZA,TZ,4797.0,46525.0,46525.0,mariwanda b,,34.1476017,-1.975975,3,school,mapping,2017.0,11.0,15.0,30,1,0.0,0.0,30,0,0.0,0.0,30,0,0.0,0.0,1,36861,0.18924313504248857,537,537,192
TZA,TZ,4797.0,46526.0,46526.0,masaba,,33.99698,-1.882145,3,ward,mapping,2018.0,,,30,0,0.0,,30,1,0.0,,30,0,0.0,,1,22942,0.0,538,538,539
TZA,TZ,4797.0,46526.0,46526.0,masaba,,33.99698,-1.882145,3,ward,mapping,2018.0,,,30,0,0.0,,30,0,0.0,,30,0,0.0,,1,22943,0.0,539,539,538
TZA,TZ,4810.0,46621.0,46621.0,masaika,59788.0,38.857101,-5.2811499,3,,,1996.0,,,50,39,,,50,5,,,50,0,,,3,16025,12671.820141537864,540,540,540
TZA,TZ,4797.0,46530.0,46530.0,masangura,,34.5461883,-1.7896432999999998,3,school,mapping,2017.0,12.0,15.0,30,0,0.0,0.0,30,0,0.0,0.0,30,0,0.0,0.0,1,37110,6932.918398854035,541,541,541
TZA,TZ,4791.0,46487.0,46487.0,mashule,59518.0,31.386999,-1.42453,3,,,2004.0,,,60,44,,,60,3,,,60,0,,,2,15678,15733.273726088108,542,542,542
TZA,TZ,4797.0,46529.0,46529.0,masike,,34.0439583,-1.3123467,3,school,mapping,2017.0,10.0,15.0,30,0,0.0,0.0,30,0,0.0,0.0,30,0,0.0,0.0,1,37043,3304.5031646392767,543,543,543
TZA,TZ,4803.0,46638.0,46638.0,masuguru (masuguru a),59467.0,38.411369,-11.3462099,1,,,2011.0,,,16,1,,,16,0,,,16,1,,,1,15809,413720.431324439,544,544,544
TZA,TZ,4789.0,46479.0,46479.0,masumbwe,59712.0,32.164207,-3.6461599,3,,,0.0,,,194,25,,,194,0,,,194,0,,,3,15658,0.0,545,545,546
TZA,TZ,4789.0,46479.0,46479.0,masumbwe,59712.0,32.164207,-3.6461599,3,,,0.0,,,49,6,,,49,0,,,49,0,,,3,15660,0.0,546,546,545
TZA,TZ,4797.0,46531.0,46531.0,masurura,,34.6657217,-1.4577933,3,school,mapping,2017.0,11.0,15.0,30,1,0.0,0.0,30,0,0.0,0.0,30,0,0.0,0.0,1,37167,2915.628915703025,547,547,547
TZA,TZ,4809.0,46608.0,46608.0,matale,59815.0,32.702702,-5.7369499,3,,,2004.0,,,61,31,,,61,0,,,61,1,,,2,15965,8242.608587693809,548,548,548
TZA,TZ,4801.0,46560.0,46560.0,matale,59685.0,33.101002,-2.5243399,3,,,1997.0,,,109,59,,,109,0,,,109,1,,,3,15780,4854.366533024072,549,549,549
TZA,TZ,4797.0,46530.0,46530.0,matare,,34.66699,-1.80958,3,ward,mapping,2018.0,,,30,0,0.0,,30,0,0.0,,30,0,0.0,,1,23101,0.0,550,550,551
TZA,TZ,4797.0,46530.0,46530.0,matare,,34.66699,-1.80958,3,school,mapping,2017.0,11.0,15.0,30,0,0.0,0.0,30,0,0.0,0.0,30,0,0.0,0.0,1,37111,0.0,551,551,550
TZA,TZ,4801.0,46560.0,46560.0,matela,59686.0,33.156601,-2.54462,3,,,1997.0,,,119,4,,,119,0,,,119,0,,,3,15744,2538.368261760721,552,552,552
TZA,TZ,4797.0,46531.0,46531.0,matemankwe,,34.3275817,-1.23871,3,school,mapping,2017.0,11.0,15.0,30,0,0.0,0.0,30,0,0.0,0.0,30,0,0.0,0.0,1,37168,0.1892431345768273,553,553,1023
TZA,TZ,4809.0,46605.0,46605.0,matinje,59584.0,33.468399,-4.0322399,3,,,2004.0,,,61,3,,,61,0,,,61,0,,,2,15945,34579.57923148463,554,554,554
TZA,TZ,4797.0,46631.0,46631.0,mcharo,,33.98063,-2.027128,3,ward,mapping,2018.0,,,30,1,0.0,,30,0,0.0,,30,0,0.0,,1,22911,0.5575996812648673,555,555,154
TZA,TZ,4797.0,46525.0,46525.0,mchigondo,,33.304915,-2.0446167,3,school,mapping,2017.0,11.0,15.0,28,2,0.0,0.0,28,0,0.0,0.0,28,0,0.0,0.0,1,36862,0.5575997039306375,556,556,213
TZA,TZ,4797.0,46532.0,46532.0,matongo,,34.48647,-1.484538,3,ward,mapping,2018.0,,,30,2,0.0,,30,0,0.0,,30,0,0.0,,1,23156,0.0,557,557,558
TZA,TZ,4797.0,46532.0,46532.0,matongo,,34.48647,-1.484538,3,ward,mapping,2018.0,,,30,0,0.0,,30,0,0.0,,30,0,0.0,,1,23155,0.0,558,558,557
TZA,TZ,4807.0,46595.0,46595.0,mayega,59539.0,33.709702,-2.28913,3,,,1997.0,,,118,30,,,118,0,,,118,3,,,3,15904,1302.3981753765447,559,559,559
TZA,TZ,4801.0,46562.0,46562.0,mazoezi,59775.0,32.916668,-2.583333,3,,,0.0,,,175,13,,,175,0,,,175,0,,,3,15788,0.0,560,560,561
TZA,TZ,4801.0,46562.0,46562.0,mazoezi,59774.0,32.916668,-2.583333,3,,,0.0,,,18,0,,,18,0,,,18,0,,,3,15790,0.0,561,561,560
TZA,TZ,4810.0,46622.0,46622.0,mazola kilifi,59832.0,39.067001,-4.9890699,3,,,1996.0,,,49,49,,,49,1,,,49,0,,,3,16030,10283.47491196987,562,562,562
TZA,TZ,4797.0,46530.0,46530.0,mbalibali,,34.70416,-1.77605,3,ward,mapping,2018.0,,,29,7,0.0,,29,0,0.0,,29,0,0.0,,1,23103,0.0,563,563,439
TZA,TZ,4797.0,46530.0,46530.0,mbalibali,,34.70416,-1.77605,3,ward,mapping,2018.0,,,30,3,0.0,,30,0,0.0,,30,0,0.0,,1,23104,0.0,564,564,439
TZA,TZ,4797.0,46530.0,46530.0,mbalibali,,34.70416,-1.77605,3,school,mapping,2017.0,10.0,15.0,30,3,0.0,0.0,30,0,0.0,0.0,30,0,0.0,0.0,1,37112,0.0,565,565,439
TZA,TZ,4797.0,46529.0,46529.0,mbatamo,,33.9583033,-1.49078,3,school,mapping,2017.0,12.0,15.0,30,0,0.0,0.0,30,0,0.0,0.0,30,0,0.0,0.0,1,37044,3071.5280070368485,566,566,566
TZA,TZ,4797.0,46530.0,46530.0,mbilikiri,,34.81249,-1.8410417,3,school,mapping,2017.0,10.0,15.0,30,6,0.0,0.0,30,0,0.0,0.0,30,0,0.0,0.0,1,37113,2448.768683231133,567,567,567
TZA,TZ,4797.0,46532.0,46532.0,mbogi,,34.54282,-1.321727,3,ward,mapping,2018.0,,,30,0,0.0,,30,1,0.0,,30,0,0.0,,1,23157,0.0,568,568,569
TZA,TZ,4797.0,46532.0,46532.0,mbogi,,34.54282,-1.321727,3,ward,mapping,2018.0,,,30,0,0.0,,30,0,0.0,,30,0,0.0,,1,23158,0.0,569,569,568
TZA,TZ,4789.0,46477.0,46477.0,mbuye,59569.0,31.7859,-2.6341,3,,,2004.0,,,60,41,,,60,2,,,60,0,,,2,15645,4648.9454580948295,570,570,570
TZA,TZ,4797.0,46525.0,46525.0,mekomariro a,,34.2164233,-1.8361367,3,school,mapping,2017.0,10.0,14.0,30,0,0.0,0.0,30,0,0.0,0.0,30,0,0.0,0.0,1,36863,0.3688707436990902,571,571,580
TZA,TZ,4810.0,46615.0,46615.0,mgera,59629.0,37.533333,-5.383333,1,,,1996.0,,,47,39,,,47,2,,,47,2,,,3,16001,8304.65762419804,572,572,572
TZA,TZ,4810.0,46616.0,46616.0,mgila,59643.0,38.4827,-5.01893,3,,,1996.0,,,49,37,,,49,7,,,49,7,,,3,16003,11797.711196349563,573,573,573
TZA,TZ,4810.0,46616.0,46616.0,mgobe,59644.0,38.375599,-5.1141601,3,,,1996.0,,,43,33,,,43,26,,,43,10,,,3,16004,7169.31415854907,574,574,574
TZA,TZ,4807.0,46598.0,46598.0,mhumunu,59719.0,34.1418,-3.1501999,3,,,2004.0,,,60,1,,,60,0,,,60,0,,,2,15940,11469.097280692366,575,575,575
TZA,TZ,4810.0,46622.0,46622.0,miembeni,59833.0,39.013302,-5.11654,3,,,1996.0,,,46,18,,,46,5,,,46,5,,,3,16036,3229.8323151977265,576,576,576
TZA,TZ,4797.0,46631.0,46631.0,miembeni a,,33.8638133,-2.013945,3,school,mapping,2017.0,10.0,14.0,30,1,0.0,0.0,30,0,0.0,0.0,30,0,0.0,0.0,1,36896,0.3673543194308877,577,577,78
TZA,TZ,4803.0,46638.0,46638.0,miembesaba,59475.0,38.866667,-6.533333,1,,,1997.0,,,27,16,,,27,3,,,27,0,,,3,15803,6295.693125935682,578,578,578
TZA,TZ,4797.0,46631.0,46631.0,mihale,,34.0407117,-2.0184067,3,school,mapping,2017.0,11.0,15.0,30,1,0.0,0.0,30,0,0.0,0.0,30,0,0.0,0.0,1,36897,2843.7411853018093,579,579,579
TZA,TZ,4797.0,46631.0,46631.0,mihingo,,34.21642,-1.836137,3,ward,mapping,2018.0,,,30,0,0.0,,30,0,0.0,,30,0,0.0,,1,22879,0.3688707436990902,580,580,571
TZA,TZ,4791.0,46486.0,46486.0,mihongora,59512.0,30.957199,-2.7871799,3,,,2004.0,,,60,35,,,60,1,,,60,1,,,2,15674,40551.730763922475,581,581,581
TZA,TZ,4797.0,46527.0,46527.0,mikuyu,,33.6106583,-1.858405,3,school,mapping,2017.0,12.0,15.0,30,1,0.0,0.0,30,0,0.0,0.0,30,0,0.0,0.0,1,36971,5506.198085210454,582,582,582
TZA,TZ,4797.0,46529.0,46529.0,minigo,59791.0,34.0028674,-1.1766988,1,,,0.0,,,145,28,,,145,1,,,145,1,,,3,15720,0.0,583,583,584
TZA,TZ,4797.0,46531.0,46531.0,minigo,59842.0,34.0028674,-1.1766988,1,,,0.0,,,44,1,,,44,0,,,44,0,,,3,15724,0.0,584,584,583
TZA,TZ,4797.0,46529.0,46529.0,mirare,,34.21108,-1.217263,3,ward,mapping,2018.0,,,30,2,0.0,,30,0,0.0,,30,0,0.0,,1,23050,0.55759888039223,585,585,1012
TZA,TZ,4797.0,46526.0,46526.0,mirwa,,34.10489,-1.804808,3,ward,mapping,2018.0,,,29,3,0.0,,29,0,0.0,,29,0,0.0,,1,22944,0.0,586,586,587
TZA,TZ,4797.0,46526.0,46526.0,mirwa,,34.10489,-1.804808,3,ward,mapping,2018.0,,,30,0,0.0,,30,0,0.0,,30,0,0.0,,1,22945,0.0,587,587,586
TZA,TZ,4801.0,46560.0,46560.0,misambo,59687.0,33.194801,-2.60973,3,,,1997.0,,,122,69,,,122,0,,,122,0,,,3,15773,6872.854779517549,588,588,588
TZA,TZ,4797.0,46529.0,46529.0,mkengwa,,33.7965117,-1.4088500000000002,3,school,mapping,2017.0,12.0,15.0,30,1,0.0,0.0,30,1,0.0,0.0,30,0,0.0,0.0,1,37045,0.1892431345768273,589,589,840
TZA,TZ,4797.0,46526.0,46526.0,mkiringo,,33.883175,-1.577055,3,school,mapping,2017.0,11.0,15.0,30,2,0.0,0.0,30,0,0.0,0.0,30,0,0.0,0.0,1,36923,0.556597454007715,590,590,855
TZA,TZ,4797.0,46527.0,46527.0,mkirira,,33.7704317,-1.5574717,3,school,mapping,2017.0,11.0,15.0,30,0,0.0,0.0,30,0,0.0,0.0,30,0,0.0,0.0,1,36972,3197.7510515938893,591,591,591
TZA,TZ,4809.0,46608.0,46608.0,mkola,59816.0,33.208801,-6.8464499,3,,,2004.0,,,60,28,,,60,0,,,60,0,,,2,15958,94961.44070429415,592,592,592
TZA,TZ,4797.0,46529.0,46529.0,mkoma,,34.0295,-1.16381,3,ward,mapping,2018.0,,,30,0,0.0,,30,2,0.0,,30,0,0.0,,1,23053,0.0,593,593,594
TZA,TZ,4797.0,46529.0,46529.0,mkoma,,34.0295,-1.16381,3,ward,mapping,2018.0,,,30,0,0.0,,30,0,0.0,,30,0,0.0,,1,23052,0.0,594,594,593
TZA,TZ,4801.0,46563.0,46563.0,mkomba,59798.0,32.842602,-2.7316599,3,,,2004.0,,,60,44,,,60,1,,,60,0,,,2,15799,17846.71975866736,595,595,595
TZA,TZ,4797.0,46526.0,46526.0,mkono,,33.99698,-1.882145,3,school,mapping,2017.0,11.0,14.0,30,0,0.0,0.0,30,1,0.0,0.0,30,0,0.0,0.0,1,36924,0.0,596,596,538
TZA,TZ,4807.0,46595.0,46595.0,mkula,59540.0,33.883333,-2.3,1,,,1997.0,,,119,14,,,119,0,,,119,0,,,3,15915,3663.1223214226757,597,597,597
TZA,TZ,4810.0,46621.0,46621.0,mkuyu,59789.0,38.266667,-4.966667,1,,,1996.0,,,51,31,,,51,2,,,51,25,,,3,16024,15833.789569080092,598,598,598
TZA,TZ,4789.0,46479.0,46479.0,mlange,59713.0,32.256802,-3.4707799,3,,,2004.0,,,61,43,,,61,0,,,61,0,,,2,15662,12467.24831248465,599,599,599
TZA,TZ,4810.0,46620.0,46620.0,mlingoti,59754.0,38.798401,-5.092,3,,,1996.0,,,49,39,,,49,13,,,49,11,,,3,16020,9831.715382400836,600,600,600
TZA,TZ,4809.0,46608.0,46608.0,mlogolo,59817.0,32.730301,-5.5853601,3,,,2004.0,,,60,21,,,60,0,,,60,0,,,2,15978,5009.23105073327,601,601,601
TZA,TZ,4797.0,46527.0,46527.0,mmahare,,33.742505,-1.5003967,3,school,sentinel site,2017.0,8.0,13.0,60,3,0.0,0.0,60,0,0.0,0.0,60,0,0.0,0.0,1,36974,0.0,602,602,603
TZA,TZ,4797.0,46527.0,46527.0,mmahare,,33.742505,-1.5003967,3,school,sentinel site,2016.0,9.0,13.0,61,1,0.0,0.0,61,0,0.0,0.0,61,0,0.0,0.0,1,36973,0.0,603,603,602
TZA,TZ,4797.0,46527.0,46527.0,mmahare,,33.742505,-1.5003967,3,school,sentinel site,2018.0,11.0,15.0,60,0,0.0,0.0,60,0,0.0,0.0,60,0,0.0,0.0,1,36975,0.0,604,604,602
TZA,TZ,4810.0,46616.0,46616.0,mngaza,59645.0,38.5896,-5.1963501,3,,,1996.0,,,51,35,,,51,13,,,51,6,,,3,16006,10916.7274346505,605,605,605
TZA,TZ,4810.0,46618.0,46618.0,mnyandege,59657.0,38.300098,-4.3937602,3,,,1996.0,,,50,13,,,50,9,,,50,0,,,3,16011,2331.7213184576053,606,606,606
TZA,TZ,4809.0,46608.0,46608.0,moleblock,59818.0,32.617001,-5.4006701,3,,,2004.0,,,60,27,,,60,0,,,60,0,,,2,15960,4627.3514397466215,607,607,607
TZA,TZ,4809.0,46608.0,46608.0,molekiloleni,59819.0,32.621399,-5.4418201,3,,,2004.0,,,60,22,,,60,0,,,60,0,,,2,15968,2907.7696886077138,608,608,608
TZA,TZ,4809.0,46608.0,46608.0,molemlimani,59820.0,32.595402,-5.43929,3,,,2004.0,,,60,33,,,60,0,,,60,0,,,2,15974,2907.7696886077138,609,609,609
TZA,TZ,4797.0,46530.0,46530.0,moningori,,34.36111,-1.7406700000000002,3,school,mapping,2017.0,11.0,15.0,30,0,0.0,0.0,30,0,0.0,0.0,30,0,0.0,0.0,1,37114,0.0,610,610,501
TZA,TZ,4797.0,46530.0,46530.0,monuna,,34.3777033,-1.8715867,3,school,mapping,2017.0,11.0,15.0,30,2,0.0,0.0,30,0,0.0,0.0,30,1,0.0,0.0,1,37115,5031.408290844088,611,611,611
TZA,TZ,4797.0,46530.0,46530.0,morotonga,,34.66926,-1.845797,3,ward,mapping,2018.0,,,30,0,0.0,,30,0,0.0,,30,0,0.0,,1,23105,0.1921702486426468,612,612,478
TZA,TZ,4797.0,46530.0,46530.0,mosongo,,34.42439,-1.809748,3,ward,mapping,2018.0,,,29,0,0.0,,29,0,0.0,,29,0,0.0,,1,23107,0.36887069832424574,613,613,804
TZA,TZ,4809.0,46610.0,46610.0,mpigwa,59850.0,32.178398,-5.07236,3,,,2004.0,,,62,35,,,62,0,,,62,0,,,2,15985,11127.674435578443,614,614,614
TZA,TZ,4809.0,46608.0,46608.0,mpombwe,59821.0,32.6959,-5.36483,3,,,2004.0,,,62,36,,,62,0,,,62,0,,,2,15979,9183.897526395343,615,615,615
TZA,TZ,4803.0,46638.0,46638.0,msata (barabarani),59476.0,38.3850445,-6.3362339,1,,,2011.0,,,1,0,,,1,0,,,1,0,,,1,15825,0.0,616,616,617
TZA,TZ,4803.0,46638.0,46638.0,msata (hembetini),59477.0,38.3850445,-6.3362339,2,,,2011.0,,,8,1,,,8,0,,,8,0,,,1,15812,0.0,617,617,616
TZA,TZ,4803.0,46638.0,46638.0,msata (kibadangwe),59478.0,38.3850445,-6.3362339,2,,,2011.0,,,25,1,,,25,0,,,25,0,,,1,15813,0.0,618,618,616
TZA,TZ,4803.0,46638.0,46638.0,msata (kiduruduru),59479.0,38.3850445,-6.3362339,1,,,2011.0,,,1,0,,,1,0,,,1,0,,,1,15874,0.0,619,619,616
TZA,TZ,4803.0,46638.0,46638.0,msata (kihangaiko),59480.0,38.3850445,-6.3362339,1,,,2011.0,,,24,2,,,24,0,,,24,0,,,1,15830,0.0,620,620,616
TZA,TZ,4803.0,46638.0,46638.0,msata (kisanga),59481.0,38.3850445,-6.3362339,1,,,2011.0,,,7,0,,,7,0,,,7,0,,,1,15872,0.0,621,621,616
TZA,TZ,4803.0,46638.0,46638.0,msata (mabungo),59482.0,38.3850445,-6.3362339,2,,,2011.0,,,4,0,,,4,0,,,4,0,,,1,15869,0.0,622,622,616
TZA,TZ,4803.0,46638.0,46638.0,msata (madukani),59483.0,38.3850445,-6.3362339,1,,,2011.0,,,12,0,,,12,0,,,12,0,,,1,15862,0.0,623,623,616
TZA,TZ,4803.0,46638.0,46638.0,msata (mdogwa),59484.0,38.3850445,-6.3362339,1,,,2011.0,,,1,0,,,1,0,,,1,0,,,1,15871,0.0,624,624,616
TZA,TZ,4803.0,46638.0,46638.0,msata (udoeni),59486.0,38.3850445,-6.3362339,1,,,2011.0,,,11,0,,,11,0,,,11,1,,,1,15824,0.0,625,625,616
TZA,TZ,4806.0,46589.0,46589.0,mseki,59604.0,32.580002,-3.8399999,3,,,0.0,,,15,5,,,15,0,,,15,0,,,3,15882,0.0,626,626,59
TZA,TZ,4806.0,46589.0,46589.0,mseki,59604.0,32.580002,-3.8399999,3,,,0.0,,,197,14,,,197,0,,,197,0,,,3,15886,0.0,627,627,59
TZA,TZ,4797.0,46528.0,46528.0,mshikamano a,,33.8049867,-1.5291133,3,school,mapping,2017.0,11.0,15.0,30,0,0.0,0.0,30,1,0.0,0.0,30,0,0.0,0.0,1,37006,0.3688702663381619,628,628,781
TZA,TZ,4797.0,46528.0,46528.0,mshikamano b,,33.8049083,-1.5288533,3,school,mapping,2017.0,11.0,15.0,30,0,0.0,0.0,30,0,0.0,0.0,30,0,0.0,0.0,1,37007,30.240144662377727,629,629,629
TZA,TZ,4797.0,46528.0,46528.0,mukendo,,33.80487,-1.498235,3,school,mapping,2017.0,9.0,15.0,30,0,0.0,0.0,30,0,0.0,0.0,30,0,0.0,0.0,1,37009,0.0,630,630,649
TZA,TZ,4791.0,46493.0,46493.0,mukibogoye,,30.579225,-2.585035,3,school,sentinel site,2018.0,9.0,15.0,60,22,0.0,0.0,60,11,0.0,0.0,60,2,0.0,0.0,1,36817,0.0,631,631,632
TZA,TZ,4791.0,46493.0,46493.0,mukibogoye,,30.579225,-2.585035,3,school,sentinel site,2017.0,9.0,14.0,60,3,0.0,0.0,60,2,0.0,0.0,60,1,0.0,0.0,1,36815,0.0,632,632,631
TZA,TZ,4797.0,46532.0,46532.0,mtahuru,,34.38676,-1.3845233,3,school,mapping,2017.0,11.0,15.0,30,0,0.0,0.0,30,0,0.0,0.0,30,0,0.0,0.0,1,37201,0.03340560122160241,633,633,317
TZA,TZ,4797.0,46528.0,46528.0,mtakuja a,,33.7828767,-1.5050583,3,school,mapping,2017.0,11.0,15.0,30,0,0.0,0.0,30,0,0.0,0.0,30,0,0.0,0.0,1,37008,0.36887023226728255,634,634,707
TZA,TZ,4787.0,46466.0,46466.0,mtambani,59587.0,39.233002,-6.8509998,3,,,1997.0,,,25,10,,,25,0,,,25,0,,,3,15631,33481.21924881857,635,635,635
TZA,TZ,4797.0,46532.0,46532.0,mturu,,34.38979,-1.3527233,3,school,mapping,2017.0,10.0,15.0,30,0,0.0,0.0,30,2,0.0,0.0,30,0,0.0,0.0,1,37202,0.033405158086679876,636,636,1037
TZA,TZ,4791.0,46493.0,46493.0,mubuhenge,59772.0,30.549101,-2.5140901,3,,,2004.0,,,60,48,,,60,0,,,60,2,,,2,15706,8587.21048732838,637,637,637
TZA,TZ,4797.0,46527.0,46527.0,mugane,,33.70199,-1.6952167,3,school,mapping,2017.0,11.0,15.0,29,0,0.0,0.0,29,1,0.0,0.0,29,0,0.0,0.0,1,36976,1222.5243976781396,638,638,638
TZA,TZ,4797.0,46527.0,46527.0,mugango,,33.68112,-1.687325,3,ward,mapping,2018.0,,,29,0,0.0,,29,1,0.0,,29,0,0.0,,1,22977,0.0,639,639,640
TZA,TZ,4797.0,46527.0,46527.0,mugango,,33.68112,-1.687325,3,ward,mapping,2018.0,,,30,0,0.0,,30,0,0.0,,30,0,0.0,,1,22976,0.0,640,640,639
TZA,TZ,4797.0,46527.0,46527.0,mugango,,33.68112,-1.687325,3,school,mapping,2017.0,11.0,15.0,30,0,0.0,0.0,30,0,0.0,0.0,30,0,0.0,0.0,1,36977,0.0,641,641,639
TZA,TZ,4797.0,46525.0,46525.0,mugara b,,33.404375,-1.9749817,3,school,mapping,2017.0,10.0,15.0,30,0,0.0,0.0,30,0,0.0,0.0,30,0,0.0,0.0,1,36864,6963.615773639994,642,642,642
TZA,TZ,4797.0,46525.0,46525.0,mugeta,,34.2173817,-1.93609,3,school,mapping,2017.0,10.0,15.0,30,0,0.0,0.0,30,0,0.0,0.0,30,0,0.0,0.0,1,36865,6655.579348151136,643,643,643
TZA,TZ,4797.0,46631.0,46631.0,mugeta,,34.1775,-1.891572,3,ward,mapping,2018.0,,,30,0,0.0,,30,0,0.0,,30,0,0.0,,1,22881,0.19217040120060389,644,644,924
TZA,TZ,4797.0,46530.0,46530.0,mugumu,,34.66953,-1.844148,3,ward,mapping,2018.0,,,30,0,0.0,,30,0,0.0,,30,0,0.0,,1,23109,0.3688707571019651,645,645,530
TZA,TZ,4797.0,46530.0,46530.0,mugumu b,,34.678155,-1.84723,3,school,mapping,2017.0,10.0,14.0,30,0,0.0,0.0,30,0,0.0,0.0,30,0,0.0,0.0,1,37117,1002.967288685882,646,646,646
TZA,TZ,4797.0,46529.0,46529.0,muharango,,33.9362517,-1.2367367,3,school,mapping,2017.0,11.0,15.0,30,0,0.0,0.0,30,0,0.0,0.0,30,0,0.0,0.0,1,37046,3130.234609569865,647,647,647
TZA,TZ,4797.0,46527.0,46527.0,muhoji,,33.67825,-1.945145,3,school,mapping,2017.0,11.0,15.0,30,0,0.0,0.0,30,0,0.0,0.0,30,0,0.0,0.0,1,36978,0.0,648,648,42
TZA,TZ,4797.0,46528.0,46528.0,mukendo,,33.80487,-1.498235,3,ward,mapping,2018.0,,,30,0,0.0,,30,0,0.0,,30,0,0.0,,1,23013,0.0,649,649,630
TZA,TZ,4791.0,46493.0,46493.0,mukibogoye,,30.579225,-2.585035,3,school,sentinel site,2016.0,9.0,15.0,58,10,0.0,0.0,58,0,0.0,0.0,58,1,0.0,0.0,1,36814,0.0,650,650,631
TZA,TZ,4797.0,46525.0,46525.0,mumagunga,,33.4589967,-2.1212167,3,school,mapping,2017.0,12.0,15.0,30,0,0.0,0.0,30,0,0.0,0.0,30,0,0.0,0.0,1,36866,2927.3397266192437,651,651,651
TZA,TZ,4797.0,46527.0,46527.0,murangi,,33.47134,-1.849855,3,ward,mapping,2018.0,,,30,0,0.0,,30,0,0.0,,30,0,0.0,,1,22979,0.0,652,652,653
TZA,TZ,4797.0,46527.0,46527.0,murangi,,33.47134,-1.849855,3,school,mapping,2017.0,11.0,15.0,30,0,0.0,0.0,30,0,0.0,0.0,30,0,0.0,0.0,1,36979,0.0,653,653,652
TZA,TZ,4797.0,46526.0,46526.0,muriaza,,34.00387,-1.672988,3,ward,mapping,2018.0,,,30,1,0.0,,30,0,0.0,,30,0,0.0,,1,22947,0.0,654,654,655
TZA,TZ,4797.0,46526.0,46526.0,muriaza,,34.00387,-1.672988,3,ward,mapping,2018.0,,,30,0,0.0,,30,0,0.0,,30,0,0.0,,1,22946,0.0,655,655,654
TZA,TZ,4797.0,46531.0,46531.0,muriba,,34.6304583,-1.3939667,3,school,mapping,2017.0,11.0,15.0,29,0,0.0,0.0,29,0,0.0,0.0,29,0,0.0,0.0,1,37169,1829.113113563836,656,656,656
TZA,TZ,4797.0,46532.0,46532.0,muriba,,34.64688,-1.394657,3,ward,mapping,2018.0,,,30,0,0.0,,30,0,0.0,,30,0,0.0,,1,23159,0.5575990221141164,657,657,11
TZA,TZ,4793.0,46500.0,46500.0,murubona,,30.0988867,-4.5712117,3,school,sentinel site,2016.0,7.0,13.0,59,3,0.0,0.0,59,2,0.0,0.0,59,0,0.0,0.0,1,36818,0.0,658,658,659
TZA,TZ,4793.0,46500.0,46500.0,murubona,,30.0988867,-4.5712117,3,school,sentinel site,2018.0,9.0,15.0,60,1,0.0,0.0,60,1,0.0,0.0,60,0,0.0,0.0,1,36820,0.0,659,659,658
TZA,TZ,4793.0,46500.0,46500.0,murubona,,30.0988867,-4.5712117,3,school,sentinel site,2017.0,8.0,13.0,60,0,0.0,0.0,60,0,0.0,0.0,60,0,0.0,0.0,1,36819,0.0,660,660,658
TZA,TZ,4797.0,46527.0,46527.0,murugee,,33.75128,-1.86752,3,school,mapping,2017.0,11.0,15.0,30,1,0.0,0.0,30,1,0.0,0.0,30,0,0.0,0.0,1,36980,0.0,661,661,1013
TZA,TZ,4797.0,46527.0,46527.0,murunyigo,,33.71062,-1.6238332999999998,3,school,mapping,2017.0,11.0,15.0,28,0,0.0,0.0,28,3,0.0,0.0,28,0,0.0,0.0,1,36981,0.0334092631819658,662,662,203
TZA,TZ,4797.0,46527.0,46527.0,musanja,,33.54675,-1.869552,3,ward,mapping,2018.0,,,30,0,0.0,,30,0,0.0,,30,0,0.0,,1,22981,0.36887080015578705,663,663,492
