iso3,iso2,admin1_id,admin2_id,iu_id,location,site_id,longitude,latitude,georeliability,location_type,survey_type,year,age_start,age_end,hk_examined,hk_positive,hk_perc_highinfection,hk_perc_moderateinfection,asc_examined,asc_positive,asc_perc_highinfection,asc_perc_moderateinfection,tt_examined,tt_positive,tt_perc_highinfection,tt_perc_moderateinfection,quality,sn,shortest,id,src,dst
ZMB,ZM,5335.0,50876.0,50876.0,batunga,59914.0,26.133333,-15.533333,1,,,2005,,,61,51,,,61,0,,,61,0,,,2,18321,16654.190226022205,0,0,0
ZMB,ZM,5339.0,53177.0,53177.0,bbakasa,59902.0,28.7857,-16.360500000000002,3,,,2005,,,72,1,,,72,1,,,72,0,,,2,18354,14020.947137893148,1,1,1
ZMB,ZM,5337.0,50837.0,50837.0,chamanda,59871.0,32.740101,-13.3024,3,,,2002,,,54,25,,,54,0,,,54,0,,,2,18284,7811.176808705324,2,2,2
ZMB,ZM,5335.0,50823.0,50823.0,changachanga basic,59959.0,27.451799,-15.5184,3,,,2005,,,62,19,,,62,4,,,62,0,,,2,18260,11416.56312762301,3,3,3
ZMB,ZM,5342.0,50877.0,50877.0,chawila,59936.0,26.2894,-16.5011,3,,,2005,,,61,0,,,61,1,,,61,0,,,2,18330,3483.3063754164614,4,4,4
ZMB,ZM,5337.0,50837.0,50837.0,chikoka,59872.0,32.686901,-13.3512,3,,,2002,,,53,26,,,53,0,,,53,0,,,2,18275,8138.750820518597,5,5,5
ZMB,ZM,5342.0,50874.0,50874.0,chilube community,59904.0,27.194599,-16.7936,3,,,2005,,,61,4,,,61,0,,,61,0,,,2,18306,18496.06228288735,6,6,6
ZMB,ZM,5337.0,50837.0,50837.0,chingazi,59873.0,32.3386,-13.8725,3,,,2002,,,66,36,,,66,1,,,66,0,,,2,18289,6054.53259842858,7,7,7
ZMB,ZM,5337.0,50837.0,50837.0,chipangali,59874.0,32.763401,-13.2175,3,,,2002,,,45,27,,,45,1,,,45,1,,,2,18281,8308.231213939434,8,8,8
ZMB,ZM,5337.0,50837.0,50837.0,chipata,59875.0,32.6447001,-13.6445104,1,,,2002,,,60,33,,,60,0,,,60,2,,,2,18264,633.9787403152319,9,9,9
ZMB,ZM,5337.0,50837.0,50837.0,dzoole,59876.0,32.857201,-13.4181,3,,,2002,,,40,12,,,40,0,,,40,0,,,2,18261,3732.425174516847,10,10,10
ZMB,ZM,5342.0,50877.0,50877.0,goodhope basic,59937.0,26.3403,-17.0468,3,,,2005,,,58,4,,,58,0,,,58,0,,,2,18332,6973.379634168896,11,11,11
ZMB,ZM,5342.0,53186.0,53186.0,habeenzu middle basic,59966.0,27.4375,-16.7748,3,,,2005,,,60,4,,,60,0,,,60,1,,,2,18358,14089.423181862288,12,12,12
ZMB,ZM,5335.0,50876.0,50876.0,habulile community,59915.0,26.3098,-16.2154,3,,,2005,,,55,11,,,55,0,,,55,0,,,2,18318,8734.303181090265,13,13,13
ZMB,ZM,5342.0,50874.0,50874.0,hamubwatu,59905.0,26.9285,-16.4495,3,,,2005,,,59,3,,,59,0,,,59,0,,,2,18302,12061.189714215343,14,14,14
ZMB,ZM,5337.0,50837.0,50837.0,hillside,59877.0,32.643501,-13.6391,3,,,2002,,,63,31,,,63,2,,,63,1,,,2,18286,633.9787403152319,15,15,15
ZMB,ZM,5342.0,50877.0,50877.0,inkumbi basic,59938.0,26.3277,-17.1521,3,,,2005,,,61,4,,,61,0,,,61,0,,,2,18329,12344.014820439446,16,16,16
ZMB,ZM,5335.0,50876.0,50876.0,itezhizhi basic,59916.0,26.0542,-16.0468,3,,,2005,,,59,15,,,59,2,,,59,0,,,2,18317,3693.9207824991418,17,17,17
ZMB,ZM,5342.0,50878.0,50878.0,james siachitema,59946.0,25.5044,-17.2594,3,,,2005,,,62,6,,,62,0,,,62,0,,,2,18338,21520.754798996008,18,18,18
ZMB,ZM,5342.0,50880.0,50880.0,kaabo mid basic,59954.0,27.556101,-15.487,3,,,2005,,,59,14,,,59,0,,,59,0,,,2,18339,2488.959117714523,19,19,19
ZMB,ZM,5335.0,50876.0,50876.0,kaanzwa middle basic,59917.0,26.0623,-15.3864,3,,,2005,,,60,36,,,60,0,,,60,1,,,2,18322,3572.3833926786538,20,20,20
ZMB,ZM,5342.0,50883.0,50883.0,kabbila community,59972.0,28.7302,-16.4692,3,,,2005,,,59,8,,,59,2,,,59,1,,,2,18344,10701.604242793623,21,21,21
ZMB,ZM,5343.0,53194.0,53194.0,kabilulwe,59965.0,25.3333,-14.7833,3,,,2007,,,51,18,,,51,0,,,51,0,,,1,18364,86386.37567902719,22,22,22
ZMB,ZM,5335.0,50876.0,50876.0,kabombo community,59918.0,26.155199,-16.1966,3,,,2005,,,41,14,,,41,0,,,41,0,,,2,18313,16300.494617869752,23,23,23
ZMB,ZM,5335.0,50876.0,50876.0,kachinka basic,59919.0,26.0695,-16.0185,3,,,2005,,,60,38,,,60,0,,,60,0,,,2,18323,3693.9207824991418,24,24,24
ZMB,ZM,5342.0,50881.0,50881.0,kangila basic,59957.0,27.4641,-16.0186,3,,,2005,,,60,18,,,60,0,,,60,0,,,2,18342,49276.176054371695,25,25,25
ZMB,ZM,5337.0,50837.0,50837.0,kanzutu,59878.0,32.4076,-13.6624,3,,,2002,,,27,16,,,27,0,,,27,0,,,2,18277,4276.428679482355,26,26,26
ZMB,ZM,5337.0,50837.0,50837.0,kapara,59879.0,32.516667,-13.516667,1,,,2002,,,60,38,,,60,0,,,60,0,,,2,18266,6844.400157329429,27,27,27
ZMB,ZM,5337.0,50837.0,50837.0,kapatamoyo,59880.0,32.6666669,-13.566667,1,,,2002,,,48,18,,,48,0,,,48,1,,,2,18272,6428.259907887277,28,28,28
ZMB,ZM,5337.0,50837.0,50837.0,kapita,59881.0,32.4547,-13.5183,3,,,2002,,,68,35,,,68,0,,,68,0,,,2,18283,6900.668112473453,29,29,29
ZMB,ZM,5335.0,50876.0,50876.0,kaponde,59920.0,26.1841,-16.0587,3,,,2005,,,60,34,,,60,0,,,60,0,,,2,18311,13580.408632004463,30,30,30
ZMB,ZM,5343.0,53192.0,53192.0,kasaya mid basic,59962.0,25.0328,-17.2842,3,,,2005,,,61,6,,,61,0,,,61,0,,,2,18363,25459.632419143316,31,31,31
ZMB,ZM,5337.0,50837.0,50837.0,kasenengwa,59882.0,32.32,-13.7156,3,,,2002,,,69,51,,,69,0,,,69,0,,,2,18268,10767.06456647997,32,32,32
ZMB,ZM,5342.0,50878.0,50878.0,kasensa primary school,59947.0,25.2615,-17.286,3,,,2005,,,60,19,,,60,0,,,60,0,,,2,18335,10391.101598855043,33,33,33
ZMB,ZM,5344.0,50864.0,50864.0,kasyasya,,32.949001,-10.167,3,,,1983,1.0,65.0,53,17,,,53,1,,,53,0,,,3,31102,97140.692047209,34,34,34
ZMB,ZM,5337.0,50837.0,50837.0,katawa,59883.0,32.377899,-13.909,3,,,2002,,,41,12,,,41,0,,,41,0,,,2,18271,6054.53259842858,35,35,35
ZMB,ZM,5337.0,50837.0,50837.0,katopola,59884.0,32.6329,-13.6122,3,,,2002,,,66,42,,,66,0,,,66,0,,,2,18270,3299.4704704345722,36,36,36
ZMB,ZM,5343.0,50889.0,50889.0,kaunga lweti,59969.0,23.549,-15.732,3,,,2007,,,49,9,,,49,0,,,49,0,,,1,18351,20656.698870343804,37,37,37
ZMB,ZM,5337.0,50837.0,50837.0,kawambe,59885.0,32.6889,-13.5112,3,,,2002,,,46,17,,,46,0,,,46,2,,,2,18279,6816.253722609961,38,38,38
ZMB,ZM,5341.0,50872.0,50872.0,kayambi,59961.0,32.0,-9.45,3,,,2007,,,60,30,,,60,2,,,60,0,,,1,18300,82530.11277181942,39,39,39
ZMB,ZM,5337.0,50837.0,50837.0,langa,59886.0,32.366901,-13.6095,3,,,2002,,,37,5,,,37,0,,,37,0,,,2,18285,3643.281015148506,40,40,40
ZMB,ZM,5343.0,53189.0,53189.0,luampa,59952.0,24.4076771,-15.0632854,1,,,2007,,,51,15,,,51,0,,,51,0,,,1,18361,26099.01405024266,41,41,41
ZMB,ZM,5337.0,50837.0,50837.0,lukhalo,59887.0,32.605,-13.4157,3,,,2002,,,36,19,,,36,0,,,36,0,,,2,18269,5798.261403290269,42,42,42
ZMB,ZM,5342.0,50878.0,50878.0,lunungu community,59948.0,25.2903,-17.2012,3,,,2005,,,60,14,,,60,0,,,60,0,,,2,18337,10391.101598855043,43,43,43
ZMB,ZM,5337.0,50837.0,50837.0,lutembwe,,32.646099,-13.6715,3,school,mapping,2013,10.0,14.0,30,1,0.0,0.0,30,0,0.0,0.0,30,0,0.0,0.0,1,27970,0.0,44,44,45
ZMB,ZM,5337.0,50837.0,50837.0,lutembwe,59888.0,32.646099,-13.6715,3,,,2002,,,72,22,,,72,2,,,72,1,,,2,18291,0.0,45,45,44
ZMB,ZM,5342.0,50877.0,50877.0,mafuta basic,59939.0,27.65,-15.566667,1,,,2005,,,60,1,,,60,0,,,60,0,,,2,18324,13927.736415001174,46,46,46
ZMB,ZM,5337.0,50837.0,50837.0,maguya,,32.613171,-13.84961,1,school,mapping,2013,9.0,14.0,30,1,0.0,0.0,30,0,0.0,0.0,30,0,0.0,0.0,1,27971,0.0,47,47,48
ZMB,ZM,5337.0,50837.0,50837.0,maguya,59889.0,32.613171,-13.84961,1,,,2002,,,51,16,,,51,4,,,51,0,,,2,18280,0.0,48,48,47
ZMB,ZM,5337.0,50837.0,50837.0,magwero,59890.0,32.7831,-13.6633,3,,,2002,,,65,38,,,65,2,,,65,0,,,2,18265,15279.787289235952,49,49,49
ZMB,ZM,5342.0,50875.0,50875.0,makuyu,59910.0,27.8839,-16.5892,3,,,2005,,,64,28,,,64,2,,,64,0,,,2,18308,13370.710300122999,50,50,50
ZMB,ZM,5337.0,50837.0,50837.0,makwe,59891.0,32.653198,-13.8089,3,,,2002,,,49,18,,,49,0,,,49,0,,,2,18273,6452.587913294168,51,51,51
ZMB,ZM,5335.0,50876.0,50876.0,mamvu page school,59921.0,26.4797,-15.548,3,,,2005,,,60,52,,,60,0,,,60,0,,,2,18320,20277.797993581433,52,52,52
ZMB,ZM,5335.0,50876.0,50876.0,masasabi,59922.0,26.0933,-15.3944,3,,,2005,,,56,29,,,56,0,,,56,0,,,2,18312,3572.3833926786538,53,53,53
ZMB,ZM,5343.0,50889.0,50889.0,matongo,59970.0,23.3,-15.716667,1,,,2007,,,48,35,,,48,0,,,48,0,,,1,18352,27775.213885557725,54,54,54
ZMB,ZM,5342.0,50883.0,50883.0,matuwa,59973.0,28.6666667,-16.4,1,,,2005,,,60,4,,,60,10,,,60,0,,,2,18345,10701.604242793623,55,55,55
ZMB,ZM,5342.0,50878.0,50878.0,maunga middle basic,59949.0,25.4623,-17.4395,3,,,2005,,,60,17,,,60,6,,,60,0,,,2,18334,21520.754798996008,56,56,56
ZMB,ZM,5337.0,50837.0,50837.0,mnukwa,59892.0,32.566667,-13.45,1,,,2002,,,48,19,,,48,1,,,48,0,,,2,18276,4661.054198487761,57,57,57
ZMB,ZM,5344.0,50873.0,50873.0,moses,,32.731998,-9.334,3,,,1983,1.0,65.0,46,4,,,46,0,,,46,0,,,3,31098,82530.11277181942,58,58,58
ZMB,ZM,5342.0,50883.0,50883.0,mpango basic,59974.0,28.5348,-16.4828,3,,,2005,,,62,4,,,62,0,,,62,0,,,2,18346,17545.345838862366,59,59,59
ZMB,ZM,5337.0,50837.0,50837.0,mshawa,59893.0,32.377079,-13.63973,1,,,2002,,,31,4,,,31,1,,,31,0,,,2,18282,3643.281015148506,60,60,60
ZMB,ZM,5337.0,50837.0,50837.0,mtaya,59894.0,32.506802,-13.576,3,,,2002,,,65,31,,,65,5,,,65,0,,,2,18288,6882.102330712481,61,61,61
ZMB,ZM,5337.0,50837.0,50837.0,mtizwa,59895.0,32.522999,-13.7453,3,,,2002,,,68,20,,,68,0,,,68,0,,,2,18290,9929.3244486423,62,62,62
ZMB,ZM,5342.0,50877.0,50877.0,muchenje basic,59940.0,26.2894,-16.5311,3,,,2005,,,57,4,,,57,0,,,57,0,,,2,18328,3483.3063754164614,63,63,63
ZMB,ZM,5342.0,50877.0,50877.0,mukwela basic,59941.0,26.3939,-17.0158,3,,,2005,,,61,11,,,61,0,,,61,0,,,2,18331,6973.379634168896,64,64,64
ZMB,ZM,5335.0,50876.0,50876.0,munkolo basic,59923.0,26.3678,-16.2838,3,,,2005,,,60,2,,,60,0,,,60,0,,,2,18316,0.0,65,65,85
ZMB,ZM,5342.0,50884.0,50884.0,munyati,59975.0,27.5097,-17.0864,3,,,2005,,,65,15,,,65,0,,,65,0,,,2,18347,34046.71114816982,66,66,66
ZMB,ZM,5342.0,50874.0,50874.0,mwanachilenga basic,59906.0,26.993401,-17.1042,3,,,2005,,,60,3,,,60,1,,,60,0,,,2,18305,31709.843840021753,67,67,67
ZMB,ZM,5337.0,50837.0,50837.0,mwita,59896.0,32.807098,-13.2821,3,,,2002,,,69,37,,,69,2,,,69,0,,,2,18287,3452.638080247272,68,68,68
ZMB,ZM,5342.0,53186.0,53186.0,nachibanga,59967.0,27.3333,-16.706,3,,,2005,,,61,10,,,61,0,,,61,1,,,2,18359,14089.423181862288,69,69,69
ZMB,ZM,5342.0,50882.0,50882.0,nakamboma basic,59964.0,26.5868,-16.073,3,,,2005,,,61,48,,,61,0,,,61,0,,,2,18343,34515.84078130275,70,70,70
ZMB,ZM,5342.0,50877.0,50877.0,namabondo,59942.0,26.2523,-16.3773,3,,,2005,,,59,6,,,59,0,,,59,0,,,2,18326,4006.8873906644903,71,71,71
ZMB,ZM,5335.0,50876.0,50876.0,namankubaula community,59924.0,26.298901,-15.5694,3,,,2005,,,61,48,,,61,0,,,61,0,,,2,18314,18896.24483218172,72,72,72
ZMB,ZM,5343.0,53189.0,53189.0,namasheshe,59953.0,24.549999,-14.8833,3,,,2007,,,51,37,,,51,1,,,51,0,,,1,18362,25005.55333901779,73,73,73
ZMB,ZM,5335.0,50823.0,50823.0,nanga basic,59960.0,27.552099,-15.4658,3,,,2005,,,60,9,,,60,2,,,60,0,,,2,18259,2488.959117714523,74,74,74
ZMB,ZM,5342.0,50878.0,50878.0,nazibula community,59950.0,25.5861,-16.5805,3,,,2005,,,60,2,,,60,0,,,60,0,,,2,18336,58787.04795287586,75,75,75
ZMB,ZM,5342.0,53185.0,53185.0,ngandu basic,59870.0,28.126699,-16.1422,3,,,2005,,,64,1,,,64,0,,,64,0,,,2,18356,58481.74213119618,76,76,76
ZMB,ZM,5335.0,50876.0,50876.0,ngoma basic,59925.0,25.57,-15.5475,3,,,2005,,,61,23,,,61,1,,,61,0,,,2,18319,57875.39012027504,77,77,77
ZMB,ZM,5337.0,50837.0,50837.0,nkhoto,59897.0,32.8255,-13.2578,3,,,2002,,,17,4,,,17,4,,,17,0,,,2,18262,3452.638080247272,78,78,78
ZMB,ZM,5337.0,50837.0,50837.0,nsingo,59898.0,32.6115,-13.7345,3,,,2002,,,69,39,,,69,1,,,69,1,,,2,18267,8181.83789275045,79,79,79
ZMB,ZM,5343.0,50886.0,50886.0,nyango,59945.0,24.5667,-14.6667,3,,,2007,,,54,33,,,54,0,,,54,0,,,1,18349,25005.55333901779,80,80,80
ZMB,ZM,5337.0,50837.0,50837.0,nyaviombo,59899.0,32.571899,-13.4904,3,,,2002,,,52,24,,,52,2,,,52,0,,,2,18274,4661.054198487761,81,81,81
ZMB,ZM,5342.0,50875.0,50875.0,siakazembwe community,59911.0,27.6868,-16.5927,3,,,2005,,,65,0,,,65,1,,,65,0,,,2,18307,9746.17834706877,82,82,82
ZMB,ZM,5342.0,50877.0,50877.0,siamankuli basic,59943.0,26.265301,-16.4095,3,,,2005,,,60,3,,,60,0,,,60,0,,,2,18327,4006.8873906644903,83,83,83
ZMB,ZM,5339.0,53177.0,53177.0,siangweemu,59903.0,28.662701,-15.9778,3,,,2005,,,62,0,,,62,1,,,62,0,,,2,18355,46421.84590890504,84,84,84
ZMB,ZM,5335.0,50876.0,50876.0,siantete,59926.0,26.3678,-16.2838,3,,,2005,,,61,4,,,61,0,,,61,0,,,2,18310,0.0,85,85,65
ZMB,ZM,5342.0,50874.0,50874.0,sibanyati basic,59907.0,26.806299,-16.8305,3,,,2005,,,59,7,,,59,3,,,59,0,,,2,18303,20048.262727061083,86,86,86
ZMB,ZM,5335.0,50876.0,50876.0,sichimbwali basic,59927.0,26.3393,-16.2852,3,,,2005,,,60,5,,,60,0,,,60,0,,,2,18315,3176.757258660693,87,87,87
ZMB,ZM,5342.0,53186.0,53186.0,sikalonga basic,59968.0,27.2344,-16.959,3,,,2005,,,61,3,,,61,0,,,61,13,,,2,18357,19744.41887169245,88,88,88
ZMB,ZM,5342.0,50880.0,50880.0,sikalozia basic,,27.5158,-15.5956,3,school,mapping,2013,10.0,15.0,30,1,0.0,0.0,30,0,0.0,0.0,30,0,0.0,0.0,1,28458,0.0,89,89,90
ZMB,ZM,5342.0,50880.0,50880.0,sikalozia basic,59955.0,27.5158,-15.5956,3,,,2005,,,61,0,,,61,0,,,61,0,,,2,18340,0.0,90,90,89
ZMB,ZM,5343.0,50889.0,50889.0,sikumbi,59971.0,23.6833,-16.6667,3,,,2007,,,52,21,,,52,0,,,52,0,,,1,18353,109380.18070912866,91,91,91
ZMB,ZM,5342.0,53187.0,53187.0,simalundu,59977.0,26.3395,-17.4188,3,,,2005,,,59,0,,,59,0,,,59,0,,,2,18360,31120.960040909566,92,92,92
ZMB,ZM,5342.0,50878.0,50878.0,simukombo,59951.0,25.267599,-17.4589,3,,,2005,,,61,20,,,61,1,,,61,0,,,2,18333,20178.515712138418,93,93,93
ZMB,ZM,5342.0,50877.0,50877.0,simuumbwe community,59944.0,26.1141,-16.59,3,,,2005,,,45,7,,,45,0,,,45,0,,,2,18325,20678.495153877466,94,94,94
ZMB,ZM,5343.0,50888.0,50888.0,situnga,59956.0,23.615,-15.565,3,,,2007,,,51,34,,,51,0,,,51,0,,,1,18350,20656.698870343804,95,95,95
ZMB,ZM,5342.0,50874.0,50874.0,sivubwa basic,59908.0,27.0212,-16.3957,3,,,2005,,,59,23,,,59,0,,,59,7,,,2,18304,12061.189714215343,96,96,96
ZMB,ZM,5342.0,50875.0,50875.0,st patricks basic,59912.0,27.7688,-16.6221,3,,,2005,,,61,10,,,61,1,,,61,0,,,2,18309,9746.17834706877,97,97,97
ZMB,ZM,5342.0,50874.0,50874.0,swan basic,59909.0,26.9839,-16.8019,3,,,2005,,,60,5,,,60,20,,,60,0,,,2,18301,20048.262727061083,98,98,98
ZMB,ZM,5342.0,50884.0,50884.0,syankondobbo,59976.0,27.223101,-17.3242,3,,,2005,,,60,3,,,60,0,,,60,0,,,2,18348,36210.18001380313,99,99,99
ZMB,ZM,5337.0,50837.0,50837.0,tamanda,59900.0,32.883999,-13.4377,3,,,2002,,,45,12,,,45,0,,,45,0,,,2,18278,3732.425174516847,100,100,100
ZMB,ZM,5337.0,50837.0,50837.0,vizenge,59901.0,32.882599,-13.3043,3,,,2002,,,51,15,,,51,4,,,51,0,,,2,18263,8287.89588863308,101,101,101
