iso3,iso2,admin1_id,admin2_id,iu_id,location,site_id,longitude,latitude,georeliability,location_type,survey_type,year,age_start,age_end,hk_examined,hk_positive,hk_perc_highinfection,hk_perc_moderateinfection,asc_examined,asc_positive,asc_perc_highinfection,asc_perc_moderateinfection,tt_examined,tt_positive,tt_perc_highinfection,tt_perc_moderateinfection,quality,sn
BDI,BI,706.0,6389.0,6389.0,bitare,,29.333333,-2.883333,1,school,mapping,2014.0,12.0,14.0,50,2,0.0,0.0,50,3,0.0,0.0,50,0,0.0,0.0,1,23394
BDI,BI,715.0,6414.0,6414.0,buhiga ii,,29.7915,-2.906027778,3,school,mapping,2016.0,13.0,14.0,50,0,0.0,0.0,50,9,0.0,0.02,50,24,0.0,0.04,1,23577
BDI,BI,702.0,6378.0,6378.0,buhina,10243.0,29.438,-3.4523,1,,,2014.0,,,47,0,,,47,12,,,47,9,,,1,18499
BDI,BI,717.0,6418.0,6418.0,buhonga,,30.333333,-3.65,1,school,mapping,2014.0,12.0,16.0,50,1,0.0,0.0,50,1,0.0,0.0,50,0,0.0,0.0,1,23613
BDI,BI,710.0,6402.0,6402.0,burarana,,30.0882,-2.6908000000000003,1,school,mapping,2014.0,12.0,15.0,50,1,0.0,0.0,50,2,0.0,0.0,50,0,0.0,0.0,1,23476
BDI,BI,710.0,6402.0,6402.0,burarana,10373.0,30.0882,-2.6908000000000003,1,,,2014.0,,,50,1,,,50,1,,,50,0,,,1,18630
BDI,BI,709.0,6396.0,6396.0,bushoka,,29.808,-3.0943,3,school,mapping,2014.0,13.0,14.0,50,2,0.0,0.0,50,4,0.0,0.0,50,0,0.0,0.0,1,23438
BDI,BI,717.0,6419.0,6419.0,busoro,,30.4327029,-3.2515663,1,school,mapping,2014.0,12.0,16.0,50,2,0.0,0.0,50,3,0.0,0.0,50,0,0.0,0.0,1,23623
BDI,BI,705.0,6387.0,6387.0,busumanyi,,30.6339,-3.0634,3,school,mapping,2014.0,12.0,15.0,50,7,0.0,0.0,50,0,0.0,0.0,50,0,0.0,0.0,1,23371
BDI,BI,705.0,6387.0,6387.0,busumanyi,10314.0,30.6339,-3.0634,3,,,2014.0,,,50,6,,,50,0,,,50,0,,,1,2185
BDI,BI,717.0,6417.0,6417.0,butezi,,30.182022,-3.3603962,1,school,mapping,2014.0,12.0,15.0,50,1,0.0,0.0,50,28,0.0,0.02,50,7,0.0,0.0,1,23610
BDI,BI,710.0,6401.0,6401.0,butihinda,,30.1857,-2.6413,1,school,mapping,2014.0,12.0,15.0,50,3,0.0,0.0,50,5,0.0,0.0,50,4,0.0,0.0,1,23472
BDI,BI,710.0,6401.0,6401.0,butihinda,10305.0,30.1857,-2.6413,1,,,2014.0,,,50,3,,,50,5,,,50,3,,,1,18623
BDI,BI,709.0,6397.0,6397.0,buziraguhindwa,10254.0,29.5733,-2.9652000000000003,3,,,2014.0,,,50,0,,,50,0,,,50,0,,,1,2207
BDI,BI,715.0,6414.0,6414.0,bwiza bweranka,,29.884,-2.945111111,3,school,mapping,2016.0,13.0,14.0,50,0,0.0,0.0,50,7,0.0,0.0,50,11,0.0,0.02,1,23579
BDI,BI,702.0,6377.0,6377.0,bwumba,,29.5145,-3.4234,3,school,mapping,2014.0,12.0,16.0,50,2,0.0,0.0,50,26,0.0,0.16,50,14,0.0,0.0,1,23225
BDI,BI,702.0,6377.0,6377.0,bwumba,10240.0,29.5145,-3.4234,3,,,2014.0,,,50,2,,,50,25,,,50,12,,,1,2149
BDI,BI,703.0,6381.0,6381.0,cibitoke ii,,29.3769066,-3.3422586,3,school,mapping,2014.0,12.0,16.0,50,0,0.0,0.0,50,0,0.0,0.0,50,5,0.0,0.0,1,23256
BDI,BI,704.0,6384.0,6384.0,condi,,29.8279,-3.8073,3,school,mapping,2014.0,12.0,15.0,50,0,0.0,0.0,50,19,0.0,0.04,50,1,0.0,0.0,1,23312
BDI,BI,704.0,6384.0,6384.0,condi,,29.8279,-3.8073,3,school,sentinel site,2009.0,6.0,16.0,389,3,0.0,0.0,389,182,0.0,0.0026000000000000003,389,38,0.0,0.0,1,23309
BDI,BI,704.0,6384.0,6384.0,condi,,29.8279,-3.8073,3,school,sentinel site,2007.0,6.0,20.0,300,4,0.0,0.0,300,93,0.0,0.06,300,39,0.0,0.0,1,23307
BDI,BI,704.0,6384.0,6384.0,condi,,29.8279,-3.8073,3,school,sentinel site,2010.0,5.0,17.0,424,3,0.0,0.0024000000000000002,424,129,0.0,0.033,424,27,0.0,0.0,1,23310
BDI,BI,704.0,6384.0,6384.0,condi,,29.8279,-3.8073,3,school,sentinel site,2011.0,6.0,18.0,410,1,0.0,0.0,410,113,0.0,0.029300000000000003,410,22,0.0,0.0,1,23311
BDI,BI,714.0,6410.0,6410.0,ecofo kibimba i,,29.62705556,-3.582222222,3,school,mapping,2016.0,10.0,14.0,48,1,0.0,0.0,48,9,0.0,0.020800000000000003,48,3,0.0,0.0,1,23532
BDI,BI,714.0,6411.0,6411.0,ecofo kibumbu ii,,29.74636111,-3.532416667,3,school,mapping,2016.0,11.0,13.0,50,0,0.0,0.0,50,7,0.0,0.04,50,2,0.0,0.0,1,23542
BDI,BI,715.0,6413.0,6413.0,ep kidasha,,30.05902778,-2.787166667,3,school,mapping,2016.0,12.0,14.0,50,0,0.0,0.0,50,4,0.0,0.0,50,7,0.0,0.0,1,23566
BDI,BI,715.0,6413.0,6413.0,ep kigomero,,30.02330556,-2.922305556,3,school,mapping,2016.0,12.0,14.0,50,1,0.0,0.0,50,6,0.0,0.02,50,4,0.0,0.0,1,23567
BDI,BI,715.0,6413.0,6413.0,ep myando,,29.99461111,-2.939888889,3,school,mapping,2016.0,12.0,14.0,50,1,0.0,0.0,50,9,0.0,0.0,50,8,0.0,0.0,1,23568
BDI,BI,704.0,6385.0,6385.0,ep kizuga,,29.54527778,-3.760277778,3,school,sentinel site,2017.0,6.0,15.0,120,0,0.0,0.0,120,16,0.0,0.0,120,0,0.0,0.0,1,23340
BDI,BI,702.0,6377.0,6377.0,ep maramvya,,29.34833333,-3.296666667,3,school,sentinel site,2017.0,6.0,15.0,120,2,0.0,0.0,120,1,0.0,0.0,120,4,0.0,0.0,1,23226
BDI,BI,706.0,6388.0,6388.0,ep mirombero,,29.30416667,-2.971666667,3,school,sentinel site,2017.0,6.0,15.0,120,0,0.0,0.0,120,1,0.0,0.0,120,1,0.0,0.0,1,23376
BDI,BI,704.0,6385.0,6385.0,ep mudende,,29.513333330000002,-3.891388889,3,school,sentinel site,2017.0,6.0,15.0,120,0,0.0,0.0,120,2,0.0,0.0,120,1,0.0,0.0,1,23341
BDI,BI,711.0,6403.0,6403.0,ep mugeni,,30.05777778,-4.119166667,3,school,sentinel site,2017.0,6.0,14.0,120,1,0.0,0.0,120,3,0.0,0.0,120,0,0.0,0.0,1,23482
BDI,BI,706.0,6388.0,6388.0,ep munyika,,29.12083333,-2.8311111110000002,3,school,sentinel site,2017.0,6.0,15.0,120,0,0.0,0.0,120,0,0.0,0.0,120,0,0.0,0.0,1,23377
BDI,BI,701.0,6376.0,6376.0,ep musenyi,,29.40444444,-3.195833333,3,school,sentinel site,2017.0,6.0,14.0,120,0,0.0,0.0,120,0,0.0,0.0,120,0,0.0,0.0,1,23211
BDI,BI,704.0,6385.0,6385.0,ep nyamibu,,29.39722222,-3.896944444,3,school,sentinel site,2017.0,5.0,15.0,120,6,0.0,0.0,120,2,0.0,0.0,120,1,0.0,0.0,1,23342
BDI,BI,717.0,6418.0,6418.0,ep nyamusasa,,30.39111111,-3.675555556,3,school,sentinel site,2017.0,5.0,14.0,120,5,0.0,0.0,120,3,0.0,0.0,120,2,0.0,0.0,1,23614
BDI,BI,704.0,6385.0,6385.0,ep rukinga i,,29.44083333,-3.964166667,3,school,sentinel site,2017.0,6.0,15.0,120,4,0.0,0.0,120,5,0.0,0.0,120,2,0.0,0.0,1,23343
BDI,BI,701.0,6375.0,6375.0,ep ruzibira,,29.41805556,-2.9847222220000003,3,school,sentinel site,2017.0,6.0,17.0,120,0,0.0,0.0,120,5,0.0,0.0,120,0,0.0,0.0,1,23199
BDI,BI,707.0,6393.0,6393.0,gahe,,29.8497,-3.5867,3,school,mapping,2014.0,13.0,14.0,50,0,0.0,0.0,50,25,0.0,0.02,50,2,0.0,0.0,1,23418
BDI,BI,713.0,6409.0,6409.0,gahemba i,,30.2794444,-3.4186111,1,school,mapping,2014.0,11.0,14.0,50,9,0.0,0.0,50,3,0.0,0.02,50,3,0.0,0.0,1,23523
BDI,BI,713.0,6409.0,6409.0,gahemba i,10328.0,30.2794444,-3.4186111,1,,,2014.0,,,50,7,,,50,3,,,50,3,,,1,18663
BDI,BI,716.0,6415.0,6415.0,gakungu,,30.3211533,-3.7509575,3,school,mapping,2014.0,13.0,14.0,50,9,0.0,0.0,50,3,0.0,0.0,50,0,0.0,0.0,1,23590
BDI,BI,706.0,6388.0,6388.0,gasenyi,,29.2,-2.966667,1,school,mapping,2014.0,12.0,15.0,50,2,0.0,0.0,50,0,0.0,0.0,50,0,0.0,0.0,1,23378
BDI,BI,713.0,6407.0,6407.0,gasorwe ii,,30.2209801,-2.8521841,1,school,mapping,2014.0,12.0,14.0,50,1,0.0,0.0,50,21,0.0,0.04,50,16,0.0,0.0,1,23513
BDI,BI,713.0,6407.0,6407.0,gasorwe ii,10219.0,30.2209801,-2.8521841,1,,,2014.0,,,50,1,,,50,21,,,50,15,,,1,2234
BDI,BI,713.0,6407.0,6407.0,gasorwe iii,,30.2209801,-2.8521841,1,school,mapping,2014.0,13.0,14.0,50,2,0.0,0.0,50,13,0.0,0.0,50,6,0.0,0.0,1,23514
BDI,BI,710.0,6402.0,6402.0,gatanga,,29.7929048,-4.3495219,1,school,mapping,2014.0,12.0,15.0,50,6,0.0,0.0,50,0,0.0,0.0,50,0,0.0,0.0,1,23477
BDI,BI,708.0,6395.0,6395.0,gatonde,10334.0,30.1773,-3.2562,3,,,2014.0,,,50,0,,,50,4,,,50,0,,,1,2202
BDI,BI,704.0,6384.0,6384.0,gatwe,,29.4858333,-3.5577778,1,school,mapping,2014.0,12.0,15.0,50,3,0.0,0.0,50,11,0.0,0.1,50,4,0.0,0.0,1,23318
BDI,BI,704.0,6384.0,6384.0,gatwe,,29.4858333,-3.5577778,1,school,sentinel site,2009.0,6.0,18.0,456,23,0.0,0.0,456,103,0.0,0.011,456,13,0.0,0.0,1,23315
BDI,BI,704.0,6384.0,6384.0,gatwe,,29.4858333,-3.5577778,1,school,sentinel site,2010.0,5.0,20.0,431,4,0.0,0.0,431,68,0.0,0.0162,431,9,0.0,0.0,1,23316
BDI,BI,704.0,6384.0,6384.0,gatwe,,29.4858333,-3.5577778,1,school,sentinel site,2011.0,6.0,18.0,359,0,0.0,0.0,359,55,0.0,0.0251,359,4,0.0,0.0,1,23317
BDI,BI,704.0,6384.0,6384.0,gatwe,,29.4858333,-3.5577778,1,school,sentinel site,2007.0,5.0,18.0,300,3,0.0,0.0,300,38,0.0,0.0033,300,9,0.0,0.0,1,23313
BDI,BI,704.0,6384.0,6384.0,gatwe,10292.0,29.4858333,-3.5577778,1,,,2014.0,,,50,3,,,50,10,,,50,4,,,1,18530
BDI,BI,716.0,6415.0,6415.0,giharo,,30.2382911,-3.7733787,1,school,mapping,2014.0,13.0,14.0,50,4,0.0,0.0,50,1,0.0,0.0,50,0,0.0,0.0,1,23591
BDI,BI,708.0,6395.0,6395.0,gihogazi ii,50198.0,29.9971769,-3.1552575,1,,,2007.0,,,60,4,,,60,24,,,60,4,,,1,2128
BDI,BI,708.0,6395.0,6395.0,gikombe,10335.0,29.7630556,-4.0944444,1,,,2014.0,,,50,1,,,50,12,,,50,3,,,1,18593
BDI,BI,707.0,6390.0,6390.0,gisebuzi,,29.8428,-3.3707000000000003,3,school,mapping,2014.0,13.0,14.0,50,10,0.0,0.0,50,21,0.0,0.0,50,18,0.0,0.0,1,23399
BDI,BI,707.0,6390.0,6390.0,gisebuzi,10229.0,29.8428,-3.3707000000000003,3,,,2014.0,,,50,10,,,50,20,,,50,18,,,1,2192
BDI,BI,708.0,6394.0,6394.0,gisenyi,,30.2032,-3.0966,1,school,mapping,2014.0,12.0,16.0,50,1,0.0,0.0,50,8,0.0,0.0,50,0,0.0,0.0,1,23423
BDI,BI,716.0,6416.0,6416.0,gisuriro,,30.068,-3.7458,3,school,mapping,2014.0,12.0,14.0,50,2,0.0,0.0,50,17,0.0,0.02,50,4,0.0,0.0,1,23602
BDI,BI,716.0,6416.0,6416.0,gisuriro,,30.068,-3.7458,3,school,sentinel site,2008.0,6.0,16.0,300,25,0.0,0.0,300,82,0.0,0.03,300,68,0.0,0.0,1,23599
BDI,BI,716.0,6416.0,6416.0,gisuriro,,30.068,-3.7458,3,school,sentinel site,2011.0,2.0,18.0,503,9,0.0,0.0,503,101,0.0,0.0199,503,54,0.0,0.0,1,23601
BDI,BI,713.0,6409.0,6409.0,gitaramuka,,30.1358346,-2.9757159,1,school,mapping,2014.0,13.0,14.0,50,7,0.0,0.0,50,1,0.0,0.0,50,3,0.0,0.0,1,23524
BDI,BI,713.0,6409.0,6409.0,gitaramuka,10329.0,30.1358346,-2.9757159,1,,,2014.0,,,50,8,,,50,2,,,50,3,,,1,2239
BDI,BI,702.0,6378.0,6378.0,gitaza ii,,29.3460869,-3.617381,1,school,mapping,2014.0,12.0,15.0,50,0,0.0,0.0,50,1,0.0,0.0,50,7,0.0,0.0,1,23233
BDI,BI,702.0,6378.0,6378.0,gitaza ii,10244.0,29.3460869,-3.617381,1,,,2014.0,,,50,1,,,50,1,,,50,5,,,1,2151
BDI,BI,713.0,6408.0,6408.0,gitega,,30.2713,-2.7141,1,school,mapping,2014.0,12.0,14.0,50,4,0.0,0.0,50,13,0.0,0.04,50,14,0.0,0.0,1,23518
BDI,BI,702.0,6378.0,6378.0,gitenga,,29.3942,-3.5302,3,school,mapping,2014.0,13.0,14.0,50,17,0.0,0.0,50,1,0.0,0.0,50,1,0.0,0.0,1,23234
BDI,BI,702.0,6378.0,6378.0,gitenga,10245.0,29.3942,-3.5302,3,,,2014.0,,,50,17,,,50,1,,,50,2,,,1,2155
BDI,BI,704.0,6384.0,6384.0,gitobo,,29.8235,-3.9825,3,school,mapping,2014.0,12.0,15.0,50,0,0.0,0.0,50,9,0.0,0.08,50,1,0.0,0.0,1,23325
BDI,BI,704.0,6384.0,6384.0,gitobo,,29.8235,-3.9825,3,school,sentinel site,2009.0,5.0,19.0,465,2,0.0,0.0,465,117,0.0,0.0258,465,3,0.0,0.0,1,23322
BDI,BI,704.0,6384.0,6384.0,gitobo,,29.8235,-3.9825,3,school,sentinel site,2010.0,6.0,19.0,444,1,0.0,0.0,444,109,0.0,0.0383,444,6,0.0,0.0,1,23323
BDI,BI,704.0,6384.0,6384.0,gitobo,,29.8235,-3.9825,3,school,sentinel site,2011.0,5.0,18.0,490,0,0.0,0.0,490,112,0.0,0.0388,490,6,0.0,0.0,1,23324
BDI,BI,704.0,6384.0,6384.0,gitobo,,29.8235,-3.9825,3,school,sentinel site,2008.0,6.0,17.0,331,2,0.0,0.0,331,66,0.003,0.0151,331,3,0.0,0.0,1,23321
BDI,BI,704.0,6384.0,6384.0,gitobo,10294.0,29.8235,-3.9825,3,,,2014.0,,,50,0,,,50,8,,,50,1,,,1,2172
BDI,BI,706.0,6389.0,6389.0,gitukura,,29.1230716,-2.8878427,2,school,mapping,2014.0,12.0,14.0,50,2,0.0,0.0,50,4,0.0,0.02,50,0,0.0,0.0,1,23395
BDI,BI,706.0,6389.0,6389.0,gitukura,10281.0,29.1230716,-2.8878427,2,,,2014.0,,,50,2,,,50,3,,,50,0,,,1,2190
BDI,BI,710.0,6401.0,6401.0,kabirizi i,,30.3167,-2.6033,3,school,mapping,2014.0,13.0,15.0,50,3,0.0,0.0,50,2,0.0,0.0,50,2,0.0,0.0,1,23473
BDI,BI,711.0,6404.0,6404.0,kabo,,29.64638889,-4.299444444,3,school,mapping,2014.0,13.0,14.0,50,6,0.0,0.0,50,2,0.0,0.0,50,2,0.0,0.0,1,23491
BDI,BI,711.0,6404.0,6404.0,kabo,,29.64638889,-4.299444444,3,school,sentinel site,2009.0,6.0,17.0,308,65,0.0,0.0,308,40,0.0,0.0,308,37,0.0,0.0,1,23493
BDI,BI,711.0,6404.0,6404.0,kabo,,29.64638889,-4.299444444,3,school,sentinel site,2008.0,5.0,17.0,300,50,0.0,0.0,300,12,0.0,0.0,300,15,0.0,0.0,1,23492
BDI,BI,711.0,6404.0,6404.0,kabo,,29.64638889,-4.299444444,3,school,sentinel site,2011.0,6.0,17.0,450,14,0.0,0.0,450,3,0.0,0.0,450,4,0.0,0.0,1,23494
BDI,BI,711.0,6404.0,6404.0,kabo,10340.0,29.64638889,-4.299444444,3,,,2014.0,,,50,6,,,50,1,,,50,2,,,1,18641
BDI,BI,710.0,6402.0,6402.0,kabuye,,30.1309,-2.7153,1,school,mapping,2014.0,12.0,15.0,50,2,0.0,0.0,50,17,0.0,0.0,50,10,0.0,0.0,1,23478
BDI,BI,710.0,6402.0,6402.0,kabuye,10375.0,30.1309,-2.7153,1,,,2014.0,,,50,2,,,50,19,,,50,8,,,1,18629
BDI,BI,715.0,6412.0,6412.0,kagoma,,29.841,-2.845055556,3,school,mapping,2016.0,13.0,14.0,50,0,0.0,0.0,50,3,0.0,0.0,50,1,0.0,0.0,1,23559
BDI,BI,704.0,6385.0,6385.0,kagongo,,29.3766,-3.8445,3,school,mapping,2014.0,13.0,14.0,50,1,0.0,0.0,50,3,0.0,0.0,50,2,0.0,0.0,1,23345
BDI,BI,703.0,6381.0,6381.0,kamenge iii,,29.3863122,-3.3455361,3,school,mapping,2014.0,12.0,14.0,50,0,0.0,0.0,50,1,0.0,0.0,50,1,0.0,0.0,1,23258
BDI,BI,701.0,6375.0,6375.0,kanazi,,29.4938889,-3.0438889,1,school,mapping,2014.0,12.0,16.0,50,1,0.0,0.0,50,8,0.0,0.0,50,0,0.0,0.0,1,23201
BDI,BI,709.0,6398.0,6398.0,karehe,,29.73793,-3.1775199,3,school,mapping,2014.0,12.0,15.0,50,3,0.0,0.0,50,12,0.0,0.0,50,1,0.0,0.0,1,23453
BDI,BI,709.0,6398.0,6398.0,karehe,,29.73793,-3.1775199,3,school,sentinel site,2008.0,6.0,19.0,300,14,0.0,0.0,300,133,0.0,0.13,300,22,0.0,0.0,1,23450
BDI,BI,709.0,6398.0,6398.0,karehe,,29.73793,-3.1775199,3,school,sentinel site,2011.0,6.0,18.0,453,4,0.0,0.0,453,99,0.0,0.0132,453,21,0.0,0.0,1,23452
BDI,BI,709.0,6398.0,6398.0,karehe,,29.73793,-3.1775199,3,school,sentinel site,2009.0,6.0,14.0,301,23,0.0,0.0,301,35,0.0,0.0166,301,50,0.0,0.0,1,23451
BDI,BI,707.0,6392.0,6392.0,karemba,,30.0076,-3.7068,1,school,mapping,2014.0,13.0,14.0,50,4,0.0,0.0,50,23,0.0,0.02,50,5,0.0,0.0,1,23414
BDI,BI,716.0,6416.0,6416.0,karinzi,,29.85430625,-3.0373625,4,school,mapping,2014.0,13.0,14.0,50,2,0.0,0.0,50,5,0.0,0.0,50,2,0.0,0.0,1,23603
BDI,BI,717.0,6419.0,6419.0,karuyigi,,30.2483881,-3.4750027,3,school,mapping,2014.0,12.0,16.0,50,0,0.0,0.0,50,1,0.0,0.0,50,0,0.0,0.0,1,23624
BDI,BI,709.0,6397.0,6397.0,kayanza ii,,29.6321188,-2.9297132,3,school,mapping,2014.0,12.0,16.0,50,0,0.0,0.0,50,6,0.0,0.04,50,1,0.0,0.0,1,23443
BDI,BI,713.0,6409.0,6409.0,kayenzi,,30.3589,-2.89833,3,,,2007.0,10.0,16.0,60,11,,,60,4,,,60,3,,,1,31272
BDI,BI,712.0,6405.0,6405.0,kibogoye,10264.0,29.6041,-3.2177,1,,,2014.0,,,50,0,,,50,13,,,50,0,,,1,18647
BDI,BI,710.0,6399.0,6399.0,kibonde,,30.1602,-2.4725,3,school,mapping,2014.0,12.0,15.0,50,5,0.0,0.0,50,2,0.0,0.0,50,2,0.0,0.0,1,23459
BDI,BI,710.0,6399.0,6399.0,kibonde,10193.0,30.1602,-2.4725,3,,,2014.0,,,50,4,,,50,1,,,50,2,,,1,2213
BDI,BI,712.0,6405.0,6405.0,kibumbu,,29.7583,-3.2179,1,school,mapping,2014.0,12.0,16.0,50,2,0.0,0.0,50,19,0.0,0.02,50,1,0.0,0.0,1,23503
BDI,BI,712.0,6405.0,6405.0,kibumbu,10265.0,29.7583,-3.2179,1,,,2014.0,,,50,2,,,50,18,,,50,1,,,1,18645
BDI,BI,711.0,6404.0,6404.0,kiderege,,29.6725,-4.2695,3,school,mapping,2014.0,12.0,16.0,50,4,0.0,0.0,50,1,0.0,0.0,50,0,0.0,0.0,1,23496
BDI,BI,711.0,6404.0,6404.0,kiderege,10342.0,29.6725,-4.2695,3,,,2014.0,,,50,1,,,50,1,,,50,0,,,1,18643
BDI,BI,708.0,6394.0,6394.0,kigarama ii,,29.716667,-2.933333,1,school,mapping,2014.0,12.0,14.0,50,0,0.0,0.0,50,7,0.0,0.0,50,0,0.0,0.0,1,23424
BDI,BI,708.0,6394.0,6394.0,kigarama ii,10166.0,29.716667,-2.933333,1,,,2014.0,,,50,0,,,50,7,,,50,1,,,1,18584
BDI,BI,710.0,6402.0,6402.0,kigobe,,30.1231,-2.6833,1,school,mapping,2014.0,13.0,14.0,50,2,0.0,0.0,50,14,0.0,0.0,50,6,0.0,0.0,1,23479
BDI,BI,710.0,6402.0,6402.0,kigobe,10376.0,30.1231,-2.6833,1,,,2014.0,,,50,2,,,50,14,,,50,5,,,1,18628
BDI,BI,713.0,6407.0,6407.0,kigoganya,,30.2941,-2.8373,3,school,mapping,2014.0,12.0,14.0,50,9,0.0,0.0,50,7,0.0,0.0,50,4,0.0,0.0,1,23515
BDI,BI,713.0,6407.0,6407.0,kigoganya,10221.0,30.2941,-2.8373,3,,,2014.0,,,50,10,,,50,7,,,50,4,,,1,2232
BDI,BI,703.0,6381.0,6381.0,kinama iii,,29.3767699,-3.3334796,3,school,mapping,2014.0,12.0,14.0,50,0,0.0,0.0,50,1,0.0,0.0,50,1,0.0,0.0,1,23259
BDI,BI,706.0,6389.0,6389.0,kinga,,29.1230716,-2.8878427,2,school,mapping,2014.0,12.0,14.0,50,1,0.0,0.0,50,11,0.0,0.0,50,5,0.0,0.0,1,23396
BDI,BI,706.0,6389.0,6389.0,kinga,10282.0,29.1230716,-2.8878427,2,,,2014.0,,,50,1,,,50,11,,,50,2,,,1,18560
BDI,BI,702.0,6378.0,6378.0,kinonko,,29.4716,-3.5377,3,school,mapping,2014.0,12.0,16.0,50,1,0.0,0.0,50,27,0.0,0.18,50,4,0.0,0.0,1,23236
BDI,BI,707.0,6391.0,6391.0,kirambi,,29.7553,-3.6292,1,school,mapping,2014.0,13.0,14.0,50,4,0.0,0.02,50,19,0.0,0.02,50,3,0.0,0.0,1,23408
BDI,BI,707.0,6393.0,6393.0,kiranzira,,29.90945,-3.41934,1,school,mapping,2014.0,13.0,14.0,50,2,0.0,0.0,50,15,0.0,0.0,50,1,0.0,0.0,1,23419
BDI,BI,716.0,6416.0,6416.0,kireka,,30.0876,-3.677,3,school,mapping,2014.0,13.0,14.0,50,2,0.0,0.0,50,20,0.0,0.0,50,1,0.0,0.0,1,23604
BDI,BI,716.0,6416.0,6416.0,kireka,10354.0,30.0876,-3.677,3,,,2014.0,,,50,2,,,50,21,,,50,1,,,1,2247
BDI,BI,702.0,6378.0,6378.0,kirombwe iii,10249.0,29.3675,-3.6227,3,,,2014.0,,,50,2,,,50,19,,,50,18,,,1,2150
BDI,BI,702.0,6378.0,6378.0,kirundo,,29.3563904,-3.3846521,1,school,mapping,2014.0,12.0,15.0,50,2,0.0,0.0,50,7,0.0,0.0,50,0,0.0,0.0,1,23237
BDI,BI,717.0,6417.0,6417.0,kivumu,,30.1166667,-3.3983333,1,school,mapping,2014.0,11.0,15.0,50,2,0.0,0.0,50,11,0.0,0.0,50,0,0.0,0.0,1,23611
BDI,BI,709.0,6398.0,6398.0,kivumu i,,29.5175,-2.8905556,1,school,mapping,2014.0,12.0,16.0,50,1,0.0,0.0,50,33,0.0,0.02,50,5,0.0,0.0,1,23454
BDI,BI,709.0,6398.0,6398.0,kivumu i,10321.0,29.5175,-2.8905556,1,,,2014.0,,,50,1,,,50,32,,,50,5,,,1,18607
BDI,BI,709.0,6396.0,6396.0,kivuruga,,29.6492,-2.9699,1,school,mapping,2014.0,12.0,14.0,50,3,0.0,0.0,50,29,0.0,0.04,50,5,0.0,0.0,1,23439
BDI,BI,709.0,6396.0,6396.0,kivuruga,10215.0,29.6492,-2.9699,1,,,2014.0,,,50,3,,,50,29,,,50,4,,,1,18595
BDI,BI,701.0,6375.0,6375.0,kivyuka ii,,29.4509403,-3.0288458,1,school,mapping,2014.0,12.0,15.0,50,5,0.0,0.0,50,6,0.0,0.0,50,0,0.0,0.0,1,23202
BDI,BI,701.0,6375.0,6375.0,kivyuka ii,10162.0,29.4509403,-3.0288458,1,,,2014.0,,,50,5,,,50,5,,,50,0,,,1,2141
BDI,BI,711.0,6403.0,6403.0,kiyange ii,,29.1288889,-2.7158333,1,school,mapping,2014.0,12.0,15.0,50,6,0.0,0.0,50,1,0.0,0.0,50,0,0.0,0.0,1,23484
BDI,BI,710.0,6400.0,6400.0,kiyanza,,30.1460157,-2.5051722,3,school,mapping,2014.0,13.0,14.0,50,7,0.0,0.0,50,5,0.0,0.02,50,2,0.0,0.0,1,23463
BDI,BI,710.0,6400.0,6400.0,kiyanza,10276.0,30.1460157,-2.5051722,3,,,2014.0,,,50,6,,,50,5,,,50,2,,,1,2217
BDI,BI,709.0,6398.0,6398.0,kiziba,,29.4922222,-3.0311111,2,school,mapping,2014.0,13.0,14.0,50,2,0.0,0.0,50,35,0.0,0.22,50,8,0.0,0.0,1,23455
BDI,BI,704.0,6385.0,6385.0,kizuga,,29.54527778,-3.760277778,3,school,mapping,2014.0,12.0,16.0,50,1,0.0,0.0,50,4,0.0,0.0,50,0,0.0,0.0,1,23346
BDI,BI,704.0,6385.0,6385.0,kizuga/nkizi,,29.54527778,-3.760277778,3,school,sentinel site,2007.0,6.0,19.0,300,51,0.0,0.0033,300,143,0.0033,0.08,300,12,0.0,0.0,1,23347
BDI,BI,704.0,6385.0,6385.0,kizuga/nkizi,,29.54527778,-3.760277778,3,school,sentinel site,2009.0,6.0,18.0,446,19,0.0,0.0,446,201,0.0,0.015700000000000002,446,19,0.0,0.0,1,23349
BDI,BI,704.0,6385.0,6385.0,kizuga/nkizi,,29.54527778,-3.760277778,3,school,sentinel site,2011.0,6.0,19.0,350,5,0.0,0.0,350,88,0.0,0.0514,350,9,0.0,0.0,1,23351
BDI,BI,704.0,6385.0,6385.0,kizuga/nkizi,,29.54527778,-3.760277778,3,school,sentinel site,2010.0,5.0,18.0,454,3,0.0,0.0,454,87,0.0,0.011,454,7,0.0,0.0,1,23350
BDI,BI,704.0,6385.0,6385.0,kizuga/nkizi,,29.54527778,-3.760277778,3,school,sentinel site,2008.0,6.0,18.0,343,10,0.0,0.0,343,54,0.0029000000000000002,0.008700000000000001,343,7,0.0,0.0,1,23348
BDI,BI,713.0,6408.0,6408.0,kobero,,30.4103505,-2.664491,1,school,mapping,2014.0,13.0,14.0,50,2,0.0,0.0,50,1,0.0,0.0,50,4,0.0,0.0,1,23519
BDI,BI,707.0,6390.0,6390.0,kwibuka,,29.9093794,-3.4073509,3,school,mapping,2014.0,13.0,14.0,50,3,0.0,0.0,50,11,0.0,0.02,50,6,0.0,0.0,1,23400
BDI,BI,703.0,6380.0,6380.0,lumiere kinindo,10172.0,29.3513824,-3.4120317,3,,,2014.0,,,50,0,,,50,0,,,50,0,,,1,18510
BDI,BI,702.0,6378.0,6378.0,magara ii,,29.317042,-3.7249768,1,school,mapping,2014.0,12.0,15.0,50,0,0.0,0.0,50,3,0.0,0.02,50,0,0.0,0.0,1,23238
BDI,BI,702.0,6378.0,6378.0,magara ii,10251.0,29.317042,-3.7249768,1,,,2014.0,,,50,1,,,50,4,,,50,1,,,1,2153
BDI,BI,715.0,6414.0,6414.0,makaba,,29.82047222,-2.994388889,3,school,mapping,2016.0,13.0,14.0,50,5,0.0,0.0,50,2,0.0,0.0,50,0,0.0,0.0,1,23581
BDI,BI,707.0,6391.0,6391.0,maramvya,,29.966667,-3.55,1,school,mapping,2014.0,13.0,14.0,50,1,0.0,0.0,50,12,0.0,0.0,50,0,0.0,0.0,1,23410
BDI,BI,702.0,6377.0,6377.0,maramvya i,,29.3771856,-3.3927199,2,school,mapping,2014.0,12.0,13.0,50,0,0.0,0.0,50,0,0.0,0.0,50,2,0.0,0.0,1,23231
BDI,BI,702.0,6377.0,6377.0,maramvya i,,29.3771856,-3.3927199,2,school,sentinel site,2008.0,6.0,18.0,300,39,0.0,0.0,300,39,0.0,0.0,300,16,0.0,0.0,1,23228
BDI,BI,702.0,6377.0,6377.0,maramvya i,,29.3771856,-3.3927199,2,school,sentinel site,2009.0,6.0,14.0,331,31,0.0,0.0,331,8,0.0,0.0,331,34,0.0,0.0,1,23229
BDI,BI,702.0,6377.0,6377.0,maramvya i,,29.3771856,-3.3927199,2,school,sentinel site,2011.0,6.0,19.0,495,13,0.0,0.0,495,4,0.0,0.0,495,1,0.0,0.0,1,23230
BDI,BI,708.0,6394.0,6394.0,masabo,,30.066667,-3.133333,1,school,mapping,2014.0,12.0,15.0,50,0,0.0,0.0,50,7,0.0,0.0,50,0,0.0,0.0,1,23425
BDI,BI,704.0,6384.0,6384.0,matana,,29.6832329,-3.7676289,1,school,mapping,2014.0,12.0,15.0,50,0,0.0,0.0,50,12,0.0,0.06,50,2,0.0,0.0,1,23327
BDI,BI,702.0,6379.0,6379.0,mayuyu,,29.5176,-3.5791,3,school,mapping,2014.0,12.0,15.0,50,0,0.0,0.0,50,5,0.0,0.0,50,0,0.0,0.0,1,23240
BDI,BI,704.0,6383.0,6383.0,mbiga,,29.6391667,-4.1008333,1,school,mapping,2014.0,12.0,15.0,50,2,0.0,0.0,50,7,0.0,0.0,50,0,0.0,0.0,1,23276
BDI,BI,704.0,6383.0,6383.0,mbiga,10187.0,29.6391667,-4.1008333,1,,,2014.0,,,50,0,,,50,0,,,50,0,,,1,2168
BDI,BI,711.0,6404.0,6404.0,mbizi ii,50199.0,29.7163889,-4.41,1,,,2007.0,,,60,12,,,60,2,,,60,0,,,1,2133
BDI,BI,714.0,6411.0,6411.0,mbogora ii,,29.77188889,-3.3868333330000002,3,school,mapping,2016.0,11.0,14.0,50,0,0.0,0.0,50,3,0.0,0.0,50,0,0.0,0.0,1,23546
BDI,BI,714.0,6411.0,6411.0,mbogora iii,,29.76836111,-3.459527778,3,school,mapping,2016.0,12.0,14.0,50,0,0.0,0.0,50,9,0.0,0.0,50,2,0.0,0.0,1,23548
BDI,BI,716.0,6416.0,6416.0,mbuza,,30.04374,-3.77378,3,school,mapping,2014.0,13.0,14.0,50,2,0.0,0.0,50,16,0.0,0.04,50,9,0.0,0.0,1,23606
BDI,BI,703.0,6380.0,6380.0,michel archange,,29.3677213,-3.376504,3,school,mapping,2014.0,12.0,14.0,50,0,0.0,0.0,50,0,0.0,0.0,50,0,0.0,0.0,1,23250
BDI,BI,712.0,6405.0,6405.0,migezi,,29.7438889,-4.2877778,1,school,mapping,2014.0,12.0,16.0,50,1,0.0,0.0,50,5,0.0,0.0,50,1,0.0,0.0,1,23504
BDI,BI,709.0,6396.0,6396.0,mikoni,,29.7216,-2.9533,1,school,mapping,2014.0,13.0,15.0,50,0,0.0,0.0,50,13,0.0,0.04,50,3,0.0,0.0,1,23440
BDI,BI,708.0,6395.0,6395.0,mikore,,30.1309,-3.2422,1,school,mapping,2014.0,12.0,16.0,50,0,0.0,0.0,50,10,0.0,0.0,50,0,0.0,0.0,1,23432
BDI,BI,705.0,6386.0,6386.0,minyare,,30.4910928,-3.2182245,3,school,mapping,2014.0,12.0,14.0,50,4,0.0,0.0,50,2,0.0,0.0,50,0,0.0,0.0,1,23362
BDI,BI,705.0,6386.0,6386.0,minyare,10202.0,30.4910928,-3.2182245,3,,,2014.0,,,50,3,,,50,2,,,50,0,,,1,2182
BDI,BI,706.0,6388.0,6388.0,mirombero,,29.1230716,-2.8878427,2,school,mapping,2014.0,12.0,14.0,50,1,0.0,0.0,50,6,0.0,0.0,50,2,0.0,0.0,1,23384
BDI,BI,706.0,6388.0,6388.0,mirombero,,29.1230716,-2.8878427,2,school,sentinel site,2007.0,5.0,23.0,300,118,0.0,0.0,300,13,0.0,0.0,300,7,0.0,0.0,1,23379
BDI,BI,706.0,6388.0,6388.0,mirombero,,29.1230716,-2.8878427,2,school,sentinel site,2011.0,6.0,17.0,412,17,0.0,0.0,412,15,0.0,0.0,412,8,0.0,0.0,1,23383
BDI,BI,706.0,6388.0,6388.0,mirombero,,29.1230716,-2.8878427,2,school,sentinel site,2010.0,5.0,19.0,441,22,0.0,0.0,441,4,0.0,0.0,441,7,0.0,0.0,1,23382
BDI,BI,706.0,6388.0,6388.0,mirombero,,29.1230716,-2.8878427,2,school,sentinel site,2008.0,6.0,18.0,305,26,0.0,0.0,305,2,0.0,0.0033,305,3,0.0,0.0,1,23380
BDI,BI,714.0,6410.0,6410.0,mpanuka,,29.79391667,-3.350055556,3,school,mapping,2016.0,12.0,14.0,48,1,0.0,0.0,48,9,0.0,0.0,48,4,0.0,0.0,1,23535
BDI,BI,706.0,6388.0,6388.0,mparambo,,29.1230716,-2.8878427,2,school,mapping,2014.0,12.0,14.0,50,4,0.0,0.0,50,2,0.0,0.0,50,0,0.0,0.0,1,23385
BDI,BI,706.0,6388.0,6388.0,mparambo,10210.0,29.1230716,-2.8878427,2,,,2014.0,,,50,5,,,50,2,,,50,0,,,1,18556
BDI,BI,715.0,6414.0,6414.0,mpondogoto,,29.71866667,-2.9062222220000002,3,school,mapping,2016.0,13.0,14.0,50,0,0.0,0.0,50,13,0.0,0.06,50,6,0.0,0.0,1,23587
BDI,BI,704.0,6385.0,6385.0,mudende,,29.513333330000002,-3.891388889,3,school,sentinel site,2007.0,5.0,18.0,300,82,0.0,0.0,300,17,0.0,0.0,300,6,0.0,0.0,1,23353
BDI,BI,704.0,6385.0,6385.0,mudende,,29.513333330000002,-3.891388889,3,school,sentinel site,2011.0,5.0,21.0,424,46,0.0,0.0,424,19,0.0,0.0,424,8,0.0,0.0,1,23357
BDI,BI,704.0,6385.0,6385.0,mudende,,29.513333330000002,-3.891388889,3,school,sentinel site,2009.0,5.0,17.0,392,68,0.0,0.0,392,11,0.0,0.0,392,6,0.0,0.0,1,23355
BDI,BI,704.0,6385.0,6385.0,mudende,,29.513333330000002,-3.891388889,3,school,sentinel site,2010.0,5.0,20.0,413,76,0.0,0.0024000000000000002,413,11,0.0,0.0,413,3,0.0,0.0,1,23356
BDI,BI,704.0,6385.0,6385.0,mudende,,29.513333330000002,-3.891388889,3,school,sentinel site,2008.0,6.0,18.0,319,60,0.0,0.0,319,2,0.0,0.0,319,1,0.0,0.0,1,23354
BDI,BI,704.0,6385.0,6385.0,mudende ii,10349.0,29.5171845,-3.8906651,3,,,2014.0,,,50,3,,,50,5,,,50,0,,,1,18540
BDI,BI,708.0,6394.0,6394.0,mugende,,30.09676,-3.02906,3,school,mapping,2014.0,12.0,15.0,50,0,0.0,0.0,50,22,0.0,0.02,50,0,0.0,0.0,1,23426
BDI,BI,702.0,6379.0,6379.0,mugendo,,29.3428,-3.6911,1,school,mapping,2014.0,11.0,15.0,50,3,0.0,0.0,50,22,0.0,0.08,50,9,0.0,0.0,1,23241
BDI,BI,702.0,6379.0,6379.0,mugendo,10365.0,29.3428,-3.6911,1,,,2014.0,,,50,3,,,50,20,,,50,6,,,1,18504
BDI,BI,711.0,6403.0,6403.0,mugeni,,30.0544625,-4.1173608,3,school,mapping,2014.0,12.0,14.0,50,2,0.0,0.0,50,0,0.0,0.0,50,0,0.0,0.0,1,23488
BDI,BI,711.0,6403.0,6403.0,mugeni,,30.0544625,-4.1173608,3,school,sentinel site,2011.0,6.0,17.0,474,10,0.0,0.0,474,14,0.0,0.0,474,3,0.0,0.0,1,23487
BDI,BI,711.0,6403.0,6403.0,mugeni,,30.0544625,-4.1173608,3,school,sentinel site,2008.0,6.0,17.0,300,25,0.0,0.0,300,1,0.0,0.0033,300,5,0.0,0.0,1,23485
BDI,BI,711.0,6403.0,6403.0,mugeni,10288.0,30.0544625,-4.1173608,3,,,2014.0,,,50,1,,,50,1,,,50,0,,,1,2222
BDI,BI,706.0,6389.0,6389.0,mugina,,29.1085314,-2.7542222,1,school,mapping,2014.0,13.0,14.0,50,9,0.0,0.0,50,1,0.0,0.0,50,0,0.0,0.0,1,23397
BDI,BI,711.0,6404.0,6404.0,mugu,,29.6887,-4.1662,3,school,mapping,2014.0,12.0,14.0,50,1,0.0,0.0,50,2,0.0,0.0,50,1,0.0,0.0,1,23497
BDI,BI,707.0,6393.0,6393.0,muhagaze,,29.5094444,-3.2197222,1,school,mapping,2014.0,13.0,14.0,50,0,0.0,0.0,50,25,0.0,0.02,50,8,0.0,0.0,1,23420
BDI,BI,707.0,6393.0,6393.0,muhagaze,10370.0,29.5094444,-3.2197222,1,,,2014.0,,,50,0,,,50,29,,,50,8,,,1,2199
BDI,BI,709.0,6396.0,6396.0,muhanga iii,,29.8325852,-3.0279801,3,school,mapping,2014.0,12.0,16.0,50,6,0.0,0.0,50,21,0.0,0.1,50,6,0.0,0.0,1,23441
BDI,BI,709.0,6396.0,6396.0,muhanga iii,10217.0,29.8325852,-3.0279801,3,,,2014.0,,,50,6,,,50,21,,,50,7,,,1,18598
BDI,BI,701.0,6375.0,6375.0,muhanza,,29.3063,-3.0201,3,school,mapping,2014.0,13.0,16.0,50,1,0.0,0.0,50,2,0.0,0.0,50,0,0.0,0.0,1,23203
BDI,BI,705.0,6386.0,6386.0,muhweza,,30.616667,-3.133333,1,school,mapping,2014.0,13.0,14.0,50,5,0.0,0.0,50,0,0.0,0.0,50,0,0.0,0.0,1,23366
BDI,BI,705.0,6386.0,6386.0,muhweza,,30.616667,-3.133333,1,school,sentinel site,2008.0,6.0,18.0,300,67,0.0,0.0,300,26,0.0,0.0,300,4,0.0,0.0,1,23363
BDI,BI,705.0,6386.0,6386.0,muhweza,,30.616667,-3.133333,1,school,sentinel site,2009.0,6.0,18.0,362,21,0.0,0.0,362,8,0.0,0.0,362,3,0.0,0.0,1,23364
BDI,BI,707.0,6390.0,6390.0,mungwa,,29.8818,-3.45176,3,,,2007.0,10.0,16.0,60,20,,,60,36,,,60,25,,,1,31275
BDI,BI,706.0,6388.0,6388.0,munyika i,,29.8041667,-4.1558333,1,school,mapping,2014.0,13.0,14.0,50,4,0.0,0.0,50,1,0.0,0.0,50,0,0.0,0.0,1,23391
BDI,BI,706.0,6388.0,6388.0,munyika i,10211.0,29.8041667,-4.1558333,1,,,2014.0,,,47,4,,,47,1,,,47,0,,,1,18553
BDI,BI,706.0,6388.0,6388.0,munyika ii,,29.8041667,-4.1558333,1,school,mapping,2014.0,13.0,14.0,50,5,0.0,0.0,50,2,0.0,0.04,50,6,0.0,0.0,1,23392
BDI,BI,706.0,6388.0,6388.0,munyika ii,10212.0,29.8041667,-4.1558333,1,,,2014.0,,,50,6,,,50,2,,,50,6,,,1,2187
BDI,BI,717.0,6418.0,6418.0,munyinya i,,30.3088889,-3.3063889,1,school,mapping,2014.0,12.0,15.0,50,2,0.0,0.0,50,2,0.0,0.0,50,0,0.0,0.0,1,23615
BDI,BI,710.0,6399.0,6399.0,munyinya i,10194.0,30.3088889,-3.3063889,1,,,2014.0,,,50,3,,,50,10,,,50,1,,,1,18614
BDI,BI,710.0,6400.0,6400.0,munzenze,,30.1037,-2.557,1,school,mapping,2014.0,12.0,15.0,50,1,0.0,0.0,50,0,0.0,0.0,50,1,0.0,0.0,1,23464
BDI,BI,715.0,6412.0,6412.0,murama,,29.77088889,-2.809,3,school,mapping,2014.0,13.0,14.0,50,3,0.0,0.0,50,11,0.0,0.06,50,1,0.0,0.0,1,23560
BDI,BI,715.0,6412.0,6412.0,murama,,29.77088889,-2.809,3,school,mapping,2016.0,13.0,15.0,50,1,0.0,0.0,50,1,0.0,0.0,50,2,0.0,0.0,1,23561
BDI,BI,717.0,6418.0,6418.0,muramba,,30.23444675,-3.6162790830000002,3,school,mapping,2014.0,12.0,15.0,50,5,0.0,0.0,50,2,0.0,0.0,50,0,0.0,0.0,1,23616
BDI,BI,712.0,6406.0,6406.0,muramvya iii,,29.629035299999998,-3.2679435,3,school,mapping,2014.0,12.0,16.0,50,5,0.0,0.0,50,3,0.0,0.0,50,0,0.0,0.0,1,23512
BDI,BI,717.0,6418.0,6418.0,murangara,,30.51871,-3.502,1,school,mapping,2014.0,12.0,15.0,50,8,0.0,0.0,50,1,0.0,0.0,50,1,0.0,0.0,1,23617
BDI,BI,704.0,6384.0,6384.0,murango,,29.667601,-3.74238,3,,,2007.0,10.0,16.0,60,3,,,60,3,,,60,2,,,1,31266
BDI,BI,717.0,6418.0,6418.0,mureba,,30.325,-3.5303,3,school,mapping,2014.0,12.0,15.0,50,2,0.0,0.0,50,0,0.0,0.0,50,0,0.0,0.0,1,23618
BDI,BI,705.0,6386.0,6386.0,murehe,,30.5327,-3.2948,3,school,mapping,2014.0,13.0,14.0,50,0,0.0,0.0,50,8,0.0,0.0,50,0,0.0,0.0,1,23367
BDI,BI,705.0,6386.0,6386.0,murehe,10204.0,30.5327,-3.2948,3,,,2014.0,,,50,0,,,50,9,,,50,0,,,1,2179
BDI,BI,715.0,6413.0,6413.0,murehe i,,30.02494444,-2.736333333,3,school,mapping,2016.0,13.0,15.0,50,3,0.0,0.0,50,7,0.0,0.0,50,1,0.0,0.0,1,23572
BDI,BI,707.0,6390.0,6390.0,muremera,,29.9,-3.333333,2,school,mapping,2014.0,13.0,14.0,50,5,0.0,0.0,50,17,0.0,0.02,50,9,0.0,0.0,1,23401
BDI,BI,707.0,6390.0,6390.0,muremera,10231.0,29.9,-3.333333,2,,,2014.0,,,50,5,,,50,18,,,50,9,,,1,18568
BDI,BI,701.0,6376.0,6376.0,murira,10299.0,29.3264765,-3.1817359,3,,,2014.0,,,50,0,,,50,2,,,50,0,,,1,2147
BDI,BI,710.0,6402.0,6402.0,murungurira,50203.0,30.0961296,-2.5848378,1,,,2007.0,,,60,7,,,60,1,,,60,1,,,1,2131
BDI,BI,703.0,6382.0,6382.0,musaga ii,,29.3763463,-3.4128068,4,school,mapping,2014.0,12.0,14.0,50,0,0.0,0.0,50,0,0.0,0.0,50,2,0.0,0.0,1,23265
BDI,BI,703.0,6382.0,6382.0,musaga ii,10184.0,29.3763463,-3.4128068,4,,,2014.0,,,50,0,,,50,0,,,50,0,,,1,18522
BDI,BI,713.0,6409.0,6409.0,musenga,,30.34222222,-2.921388889,3,school,mapping,2014.0,13.0,14.0,50,7,0.0,0.0,50,2,0.0,0.0,50,2,0.0,0.0,1,23531
BDI,BI,713.0,6409.0,6409.0,musenga,,30.34222222,-2.921388889,3,school,sentinel site,2008.0,6.0,20.0,300,63,0.0,0.0,300,55,0.0,0.0,300,27,0.0,0.0,1,23528
BDI,BI,713.0,6409.0,6409.0,musenga,,30.34222222,-2.921388889,3,school,sentinel site,2011.0,6.0,18.0,437,72,0.0,0.0,437,28,0.0,0.0,437,19,0.0,0.0,1,23530
BDI,BI,713.0,6409.0,6409.0,musenga,,30.34222222,-2.921388889,3,school,sentinel site,2009.0,5.0,18.0,307,56,0.0,0.0,307,14,0.0,0.0,307,8,0.0,0.0,1,23529
BDI,BI,704.0,6383.0,6383.0,musenyi,,29.40444444,-3.195833333,4,school,mapping,2007.0,10.0,16.0,60,7,0.0,0.0,60,4,0.0,0.0,60,0,0.0,0.0,1,23283
BDI,BI,701.0,6376.0,6376.0,musenyi,,29.40444444,-3.195833333,3,school,sentinel site,2009.0,6.0,18.0,385,22,0.0,0.0,385,25,0.0,0.0,385,0,0.0,0.0,1,23216
BDI,BI,701.0,6376.0,6376.0,musenyi,,29.40444444,-3.195833333,3,school,sentinel site,2011.0,4.0,17.0,370,32,0.0,0.0,370,4,0.0,0.0,370,4,0.0,0.0,1,23218
BDI,BI,701.0,6376.0,6376.0,musenyi,,29.40444444,-3.195833333,3,school,sentinel site,2008.0,6.0,18.0,243,35,0.0,0.0,243,2,0.0,0.0,243,3,0.0,0.0,1,23215
BDI,BI,701.0,6376.0,6376.0,musenyi,,29.40444444,-3.195833333,3,school,sentinel site,2010.0,6.0,20.0,387,40,0.0,0.0,387,3,0.0,0.0,387,9,0.0,0.0,1,23217
BDI,BI,705.0,6386.0,6386.0,musenyi,,30.02911,-2.949275,1,,,2007.0,10.0,16.0,60,7,,,60,4,,,60,0,,,1,31282
BDI,BI,701.0,6376.0,6376.0,musenyi i,,29.40444444,-3.195833333,3,school,mapping,2014.0,12.0,16.0,50,1,0.0,0.0,50,0,0.0,0.0,50,1,0.0,0.0,1,23219
BDI,BI,715.0,6412.0,6412.0,mushitsi i,,29.80519444,-2.857916667,3,school,mapping,2016.0,12.0,15.0,50,0,0.0,0.0,50,5,0.0,0.0,50,9,0.0,0.0,1,23563
BDI,BI,704.0,6384.0,6384.0,musho,,29.5528,-3.7267,3,school,mapping,2014.0,12.0,16.0,50,1,0.0,0.0,50,7,0.0,0.0,50,1,0.0,0.0,1,23328
BDI,BI,701.0,6375.0,6375.0,musigati i,,29.4614578,-3.0684445,1,school,mapping,2014.0,13.0,14.0,50,4,0.0,0.0,50,3,0.0,0.0,50,0,0.0,0.0,1,23204
BDI,BI,707.0,6390.0,6390.0,musinzira,10232.0,29.9334776,-3.4279647,3,,,2014.0,,,50,0,,,50,3,,,50,3,,,1,2191
BDI,BI,712.0,6405.0,6405.0,musongati,,29.6519444,-3.3733333,1,school,mapping,2014.0,12.0,16.0,50,0,0.0,0.0,50,11,0.0,0.0,50,0,0.0,0.0,1,23506
BDI,BI,703.0,6380.0,6380.0,mutanga  sud,10175.0,29.3915246,-3.380529,3,,,2014.0,,,50,4,,,50,0,,,50,3,,,1,18509
BDI,BI,707.0,6392.0,6392.0,mutoyi i,,29.9786581,-3.2138714,3,school,mapping,2014.0,13.0,14.0,50,3,0.0,0.0,50,15,0.0,0.02,50,2,0.0,0.0,1,23416
BDI,BI,716.0,6415.0,6415.0,mutwana,,30.1837,-3.672,1,school,mapping,2014.0,13.0,14.0,50,4,0.0,0.0,50,0,0.0,0.0,50,0,0.0,0.0,1,23593
BDI,BI,711.0,6404.0,6404.0,mutwazi ii,,29.7409,-4.3168,3,school,mapping,2014.0,12.0,16.0,50,2,0.0,0.0,50,0,0.0,0.0,50,0,0.0,0.0,1,23499
BDI,BI,716.0,6415.0,6415.0,muzye i,,30.115,-3.9669444,1,school,mapping,2014.0,13.0,14.0,50,10,0.0,0.0,50,2,0.0,0.0,50,1,0.0,0.0,1,23597
BDI,BI,716.0,6415.0,6415.0,muzye i,10227.0,30.115,-3.9669444,1,,,2014.0,,,50,9,,,50,2,,,50,1,,,1,2242
BDI,BI,711.0,6404.0,6404.0,mvugo,,29.5694893,-4.2932228,1,,,2007.0,10.0,16.0,54,8,,,54,0,,,54,0,,,1,31273
BDI,BI,705.0,6387.0,6387.0,mwiruzi,,30.7809066,-3.0624478,3,school,mapping,2014.0,13.0,14.0,50,6,0.0,0.0,50,1,0.0,0.0,50,0,0.0,0.0,1,23372
BDI,BI,701.0,6376.0,6376.0,ndava busongo,,29.3458,-3.183,3,school,mapping,2014.0,12.0,14.0,50,6,0.0,0.0,50,2,0.0,0.0,50,0,0.0,0.0,1,23220
BDI,BI,701.0,6376.0,6376.0,ndava busongo,10301.0,29.3458,-3.183,3,,,2014.0,,,50,0,,,50,2,,,50,6,,,1,2148
BDI,BI,717.0,6417.0,6417.0,nkongwe,,30.1397522,-3.3519101,3,school,mapping,2014.0,12.0,15.0,50,0,0.0,0.0,50,25,0.0,0.02,50,5,0.0,0.0,1,23612
BDI,BI,713.0,6408.0,6408.0,nonwe,,30.4131,-2.5082,3,school,mapping,2014.0,13.0,14.0,50,5,0.0,0.0,50,3,0.0,0.0,50,1,0.0,0.0,1,23521
BDI,BI,714.0,6411.0,6411.0,nyabihanga iii,,29.76836111,-3.459527778,3,school,mapping,2016.0,11.0,14.0,49,0,0.0,0.0,49,1,0.0,0.0,49,0,0.0,0.0,1,23550
BDI,BI,702.0,6379.0,6379.0,nyabisaka,,29.5726,-3.4279,3,school,mapping,2014.0,12.0,15.0,50,0,0.0,0.0,50,4,0.0,0.0,50,0,0.0,0.0,1,23242
BDI,BI,717.0,6419.0,6419.0,nyagutoha,,30.35362,-3.44427,3,school,mapping,2014.0,12.0,16.0,50,2,0.0,0.0,50,5,0.0,0.02,50,1,0.0,0.0,1,23625
BDI,BI,717.0,6419.0,6419.0,nyagutoha,10360.0,30.35362,-3.44427,3,,,2014.0,,,50,1,,,50,5,,,50,1,,,1,2255
BDI,BI,714.0,6410.0,6410.0,nyakigwa,,29.59647222,-3.507277778,3,school,mapping,2016.0,12.0,14.0,50,0,0.0,0.0,50,8,0.0,0.02,50,0,0.0,0.0,1,23537
BDI,BI,716.0,6415.0,6415.0,nyakuguma,,29.5280556,-4.1622222,1,school,mapping,2014.0,13.0,14.0,50,3,0.0,0.0,50,3,0.0,0.0,50,1,0.0,0.0,1,23598
BDI,BI,705.0,6386.0,6386.0,nyamashishi,,30.6390558,-3.007784,3,school,mapping,2014.0,13.0,14.0,50,0,0.0,0.0,50,0,0.0,0.0,50,0,0.0,0.0,1,23368
BDI,BI,705.0,6386.0,6386.0,nyamashishi,10205.0,30.6390558,-3.007784,3,,,2014.0,,,50,1,,,50,0,,,50,1,,,1,2180
BDI,BI,704.0,6385.0,6385.0,nyamibu,,29.3979,-3.894,3,school,mapping,2014.0,13.0,14.0,50,0,0.0,0.0,50,6,0.0,0.0,50,1,0.0,0.0,1,23359
BDI,BI,704.0,6385.0,6385.0,nyamibu,10350.0,29.3979,-3.894,3,,,2014.0,,,50,0,,,50,7,,,50,1,,,1,18536
BDI,BI,709.0,6397.0,6397.0,nyamisagara,,29.5293,-2.8604000000000003,3,school,mapping,2014.0,12.0,14.0,50,0,0.0,0.0,50,23,0.0,0.14,50,1,0.0,0.0,1,23444
BDI,BI,714.0,6410.0,6410.0,nyamiyaga,,29.65252778,-3.569972222,3,school,mapping,2016.0,11.0,14.0,50,0,0.0,0.0,50,9,0.0,0.02,50,5,0.0,0.0,1,23539
BDI,BI,708.0,6394.0,6394.0,nyamugari,,29.9994444,-3.5702778,1,school,mapping,2014.0,12.0,14.0,50,0,0.0,0.0,50,5,0.0,0.02,50,2,0.0,0.02,1,23427
BDI,BI,715.0,6412.0,6412.0,nyamurenza ii,,29.86544444,-2.825444444,3,school,mapping,2016.0,12.0,15.0,50,0,0.0,0.0,50,3,0.0,0.0,50,9,0.0,0.0,1,23565
BDI,BI,717.0,6418.0,6418.0,nyamusasa,,30.39111111,-3.675555556,3,school,mapping,2014.0,12.0,16.0,50,0,0.0,0.0,50,2,0.0,0.0,50,0,0.0,0.0,1,23622
BDI,BI,717.0,6418.0,6418.0,nyamusasa,,30.39111111,-3.675555556,3,school,sentinel site,2009.0,6.0,16.0,372,6,0.0,0.0,372,8,0.0,0.0,372,3,0.0,0.0,1,23620
BDI,BI,717.0,6418.0,6418.0,nyamusasa,,30.39111111,-3.675555556,3,school,sentinel site,2008.0,6.0,18.0,300,29,0.0,0.0,300,5,0.0,0.0,300,7,0.0,0.0,1,23619
BDI,BI,715.0,6414.0,6414.0,nyaruntana,,29.85025,-2.943944444,3,school,mapping,2016.0,13.0,14.0,50,1,0.0,0.0,50,4,0.0,0.0,50,12,0.0,0.0,1,23589
BDI,BI,709.0,6398.0,6398.0,nyarurama,,29.7223547,-3.1040813,3,school,mapping,2014.0,12.0,14.0,50,2,0.0,0.0,50,7,0.0,0.04,50,1,0.0,0.0,1,23456
BDI,BI,704.0,6383.0,6383.0,nyundo,,29.6708,-3.9627,3,school,mapping,2014.0,10.0,14.0,50,0,0.0,0.0,50,6,0.0,0.0,50,1,0.0,0.0,1,23296
BDI,BI,703.0,6381.0,6381.0,q2  1 ngagara,10181.0,29.3722343,-3.3540881,3,,,2014.0,,,50,0,,,50,0,,,50,0,,,1,18515
BDI,BI,708.0,6395.0,6395.0,ramba,,30.0101,-3.1390000000000002,1,school,mapping,2014.0,12.0,15.0,50,0,0.0,0.0,50,12,0.0,0.0,50,1,0.0,0.0,1,23437
BDI,BI,708.0,6395.0,6395.0,ramba,,30.0101,-3.1390000000000002,1,school,sentinel site,2008.0,7.0,16.0,300,21,0.0,0.0,300,128,0.0033,0.0367,300,19,0.0,0.0,1,23434
BDI,BI,708.0,6395.0,6395.0,ramba,,30.0101,-3.1390000000000002,1,school,sentinel site,2009.0,6.0,14.0,340,3,0.0,0.0,340,75,0.0,0.0176,340,12,0.0,0.0,1,23435
BDI,BI,708.0,6395.0,6395.0,ramba,,30.0101,-3.1390000000000002,1,school,sentinel site,2011.0,6.0,17.0,463,11,0.0,0.0,463,68,0.0,0.0108,463,9,0.0,0.0,1,23436
BDI,BI,708.0,6395.0,6395.0,ramba,10338.0,30.0101,-3.1390000000000002,1,,,2014.0,,,50,0,,,50,11,,,50,1,,,1,18590
BDI,BI,714.0,6410.0,6410.0,raro,,29.66588889,-3.494361111,3,school,mapping,2016.0,12.0,14.0,50,0,0.0,0.0,50,2,0.0,0.0,50,2,0.0,0.0,1,23541
BDI,BI,709.0,6397.0,6397.0,remera ii,,29.5844311,-2.978015,3,school,mapping,2014.0,12.0,14.0,50,0,0.0,0.0,50,22,0.0,0.0,50,4,0.0,0.0,1,23445
BDI,BI,710.0,6400.0,6400.0,rubuga ii,,30.0408121,-2.3813142,3,school,mapping,2014.0,13.0,14.0,50,2,0.0,0.0,50,2,0.0,0.0,50,0,0.0,0.0,1,23465
BDI,BI,712.0,6405.0,6405.0,rubumba,,29.6519,-3.3393,3,school,mapping,2014.0,12.0,15.0,50,0,0.0,0.0,50,11,0.0,0.02,50,0,0.0,0.0,1,23507
BDI,BI,710.0,6400.0,6400.0,rugasa i,,29.9949,-2.4717000000000002,3,school,mapping,2014.0,13.0,15.0,50,0,0.0,0.0,50,4,0.0,0.0,50,0,0.0,0.0,1,23466
BDI,BI,701.0,6376.0,6376.0,rugazi i,,29.4092119,-3.2429276,3,school,mapping,2014.0,12.0,15.0,50,6,0.0,0.0,50,2,0.0,0.0,50,0,0.0,0.0,1,23221
BDI,BI,701.0,6376.0,6376.0,rugazi i,10302.0,29.4092119,-3.2429276,3,,,2014.0,,,50,5,,,50,3,,,50,0,,,1,2146
BDI,BI,701.0,6376.0,6376.0,rugenge,,30.3947222,-3.5122222,1,,,2007.0,10.0,16.0,60,31,,,60,5,,,60,1,,,1,31280
BDI,BI,705.0,6387.0,6387.0,ruhehe,,30.783333,-3.116667,1,school,mapping,2014.0,13.0,14.0,50,7,0.0,0.0,50,0,0.0,0.0,50,0,0.0,0.0,1,23373
BDI,BI,709.0,6397.0,6397.0,ruhinga,,29.5,-3.666667,1,school,mapping,2014.0,12.0,14.0,50,0,0.0,0.0,50,25,0.0,0.04,50,2,0.0,0.0,1,23446
BDI,BI,704.0,6385.0,6385.0,rukinga i,,29.44083333,-3.964166667,3,school,mapping,2014.0,12.0,14.0,50,3,0.0,0.0,50,3,0.0,0.0,50,3,0.0,0.0,1,23360
BDI,BI,704.0,6385.0,6385.0,rukinga i,10351.0,29.44083333,-3.964166667,3,,,2014.0,,,50,0,,,50,0,,,50,0,,,1,18538
BDI,BI,704.0,6384.0,6384.0,ruko,,29.5925594,-3.6180120000000002,3,school,mapping,2014.0,12.0,14.0,50,1,0.0,0.02,50,7,0.0,0.02,50,0,0.0,0.0,1,23334
BDI,BI,704.0,6384.0,6384.0,ruko,,29.5925594,-3.6180120000000002,3,school,sentinel site,2008.0,6.0,18.0,268,0,0.0,0.0,268,89,0.0,0.0784,268,10,0.0,0.0,1,23330
BDI,BI,704.0,6384.0,6384.0,ruko,,29.5925594,-3.6180120000000002,3,school,sentinel site,2007.0,6.0,19.0,299,2,0.0,0.0,299,68,0.0,0.030100000000000002,299,22,0.0,0.0,1,23329
BDI,BI,704.0,6384.0,6384.0,ruko,,29.5925594,-3.6180120000000002,3,school,sentinel site,2009.0,5.0,20.0,360,9,0.0,0.0,360,73,0.0,0.0028,360,10,0.0,0.0,1,23331
BDI,BI,704.0,6384.0,6384.0,ruko,,29.5925594,-3.6180120000000002,3,school,sentinel site,2010.0,5.0,18.0,360,3,0.0,0.0,360,73,0.0,0.038900000000000004,360,1,0.0,0.0,1,23332
BDI,BI,704.0,6384.0,6384.0,ruko,,29.5925594,-3.6180120000000002,3,school,sentinel site,2011.0,6.0,17.0,331,0,0.0,0.0,331,57,0.0,0.003,331,2,0.0,0.0,1,23333
BDI,BI,706.0,6389.0,6389.0,rurinzi,,29.1230716,-2.8878427,2,school,mapping,2014.0,13.0,14.0,50,1,0.0,0.0,50,20,0.0,0.0,50,0,0.0,0.0,1,23398
BDI,BI,710.0,6401.0,6401.0,rusara,,30.3991,-2.4732,3,school,mapping,2014.0,13.0,14.0,50,5,0.0,0.0,50,1,0.0,0.0,50,7,0.0,0.0,1,23475
BDI,BI,710.0,6401.0,6401.0,rusara,10308.0,30.3991,-2.4732,3,,,2014.0,,,50,5,,,50,1,,,50,6,,,1,18625
BDI,BI,706.0,6388.0,6388.0,rusororo,,29.1230716,-2.8878427,2,school,mapping,2014.0,13.0,14.0,50,6,0.0,0.0,50,5,0.0,0.0,50,0,0.0,0.0,1,23393
BDI,BI,706.0,6388.0,6388.0,rusororo,10213.0,29.1230716,-2.8878427,2,,,2014.0,,,50,5,,,50,5,,,50,0,,,1,2188
BDI,BI,714.0,6411.0,6411.0,rutega,,29.67741667,-3.608694444,3,school,mapping,2016.0,11.0,14.0,48,0,0.0,0.0,48,0,0.0,0.0,48,0,0.0,0.0,1,23552
BDI,BI,705.0,6386.0,6386.0,rutoke i,10206.0,30.6469444,-3.1752778,1,,,2014.0,,,50,7,,,50,9,,,50,0,,,1,18542
BDI,BI,717.0,6419.0,6419.0,ruvyagira,,29.7105556,-4.3113889,1,school,mapping,2014.0,12.0,15.0,50,6,0.0,0.0,50,16,0.02,0.04,50,9,0.0,0.0,1,23626
BDI,BI,717.0,6419.0,6419.0,ruyigi i,,30.2483881,-3.4750027,3,school,mapping,2014.0,12.0,16.0,50,0,0.0,0.0,50,2,0.0,0.0,50,0,0.0,0.0,1,23627
BDI,BI,715.0,6413.0,6413.0,ruyumpu,,29.94705,-2.79925,3,,,2007.0,10.0,16.0,60,12,,,60,2,,,60,13,,,1,31279
BDI,BI,715.0,6413.0,6413.0,ruyumpu,,29.94705,-2.79925,3,school,mapping,2014.0,13.0,14.0,50,7,0.0,0.0,50,17,0.0,0.02,50,11,0.0,0.0,1,23574
BDI,BI,701.0,6375.0,6375.0,ruzibira,,29.41805556,-2.9847222220000003,3,school,mapping,2014.0,12.0,15.0,50,6,0.0,0.0,50,2,0.0,0.0,50,2,0.0,0.0,1,23210
BDI,BI,701.0,6375.0,6375.0,ruzibira,,29.41805556,-2.9847222220000003,3,school,sentinel site,2011.0,6.0,19.0,400,38,0.0,0.0,400,34,0.0,0.0025,400,13,0.0,0.0,1,23209
BDI,BI,701.0,6375.0,6375.0,ruzibira,,29.41805556,-2.9847222220000003,3,school,sentinel site,2008.0,6.0,21.0,281,58,0.0,0.0,281,23,0.0,0.0036000000000000003,281,4,0.0,0.0,1,23206
BDI,BI,701.0,6375.0,6375.0,ruzibira,,29.41805556,-2.9847222220000003,3,school,sentinel site,2010.0,7.0,18.0,454,50,0.0,0.0,454,18,0.0,0.0,454,4,0.0,0.0,1,23208
BDI,BI,711.0,6403.0,6403.0,rweza,,29.8677778,-2.9050000000000002,1,school,mapping,2014.0,12.0,16.0,50,5,0.0,0.0,50,0,0.0,0.0,50,2,0.0,0.0,1,23490
BDI,BI,711.0,6403.0,6403.0,rweza,10290.0,29.8677778,-2.9050000000000002,1,,,2014.0,,,50,4,,,50,0,,,50,2,,,1,2221
BDI,BI,715.0,6413.0,6413.0,rwimbogo,,30.01280556,-2.802666667,3,school,mapping,2016.0,13.0,14.0,50,2,0.0,0.0,50,14,0.0,0.0,50,6,0.0,0.0,1,23575
BDI,BI,709.0,6396.0,6396.0,sakinyinya,,29.7569,-3.0094,3,school,mapping,2014.0,12.0,14.0,50,0,0.0,0.0,50,15,0.0,0.0,50,1,0.0,0.0,1,23442
BDI,BI,711.0,6404.0,6404.0,vugizo,,29.70861111,-4.173888889,3,school,sentinel site,2008.0,6.0,16.0,300,37,0.0,0.0,300,35,0.0,0.0067,300,23,0.0,0.0,1,23500
BDI,BI,711.0,6404.0,6404.0,vugizo,,29.70861111,-4.173888889,3,school,sentinel site,2011.0,5.0,20.0,502,17,0.0,0.0,502,28,0.0,0.0,502,9,0.0,0.0,1,23502
BDI,BI,711.0,6404.0,6404.0,vugizo,,29.70861111,-4.173888889,3,school,sentinel site,2009.0,5.0,16.0,329,30,0.0,0.0,329,16,0.0,0.0,329,16,0.0,0.0,1,23501
BDI,BI,713.0,6408.0,6408.0,vumasi,,30.4070345,-2.4125486,3,school,mapping,2014.0,13.0,14.0,50,4,0.0,0.0,50,0,0.0,0.0,50,5,0.0,0.02,1,23522
BDI,BI,713.0,6408.0,6408.0,vumasi,10239.0,30.4070345,-2.4125486,3,,,2014.0,,,50,4,,,50,0,,,50,6,,,1,2235
BDI,BI,710.0,6400.0,6400.0,yaranda,,30.11166667,-2.517222222,3,school,mapping,2014.0,12.0,14.0,50,19,0.0,0.0,50,0,0.0,0.0,50,0,0.0,0.0,1,23470
BDI,BI,710.0,6400.0,6400.0,yaranda,,30.11166667,-2.517222222,3,school,sentinel site,2011.0,6.0,19.0,398,34,0.0,0.0,398,9,0.0,0.0,398,9,0.0,0.0,1,23469
BDI,BI,710.0,6400.0,6400.0,yaranda,,30.11166667,-2.517222222,3,school,sentinel site,2009.0,6.0,20.0,273,28,0.0,0.0,273,0,0.0,0.0,273,10,0.0,0.0,1,23468
