iso3,iso2,admin1_id,admin2_id,iu_id,location,site_id,longitude,latitude,georeliability,location_type,survey_type,year,age_start,age_end,hk_examined,hk_positive,asc_examined,asc_positive,tt_examined,tt_positive,quality,sn,hk_prevalence,asc_prevalence,tt_prevalence,sth_prevalence
BDI,BI,706.0,6389.0,6389.0,bitare,,29.333333,-2.883333,1,school,mapping,2014.0,12.0,14.0,50,2,50,3,50,0,1,23394,0.04,0.06,0.0,0.0920754716981132
BDI,BI,715.0,6414.0,6414.0,buhiga ii,,29.7915,-2.906027778,3,school,mapping,2016.0,13.0,14.0,50,0,50,9,50,24,1,23577,0.0,0.18,0.48,0.541132075471698
BDI,BI,702.0,6378.0,6378.0,buhina,10243.0,29.438,-3.4523,1,,,2014.0,,,47,0,47,12,47,9,1,18499,0.0,0.2553191489361702,0.19148936170212766,0.3753939714888491
BDI,BI,717.0,6418.0,6418.0,buhonga,,30.333333,-3.65,1,school,mapping,2014.0,12.0,16.0,50,1,50,1,50,0,1,23613,0.02,0.02,0.0,0.03735849056603773
BDI,BI,710.0,6402.0,6402.0,burarana,,30.0882,-2.6908000000000003,1,school,mapping,2014.0,12.0,15.0,50,1,50,2,50,0,1,23476,0.02,0.04,0.0,0.055849056603773574
BDI,BI,710.0,6402.0,6402.0,burarana,10373.0,30.0882,-2.6908000000000003,1,,,2014.0,,,50,1,50,1,50,0,1,18630,0.02,0.02,0.0,0.03735849056603773
BDI,BI,709.0,6396.0,6396.0,bushoka,,29.808,-3.0943,3,school,mapping,2014.0,13.0,14.0,50,2,50,4,50,0,1,23438,0.04,0.08,0.0,0.11018867924528301
BDI,BI,717.0,6419.0,6419.0,busoro,,30.4327029,-3.2515663,1,school,mapping,2014.0,12.0,16.0,50,2,50,3,50,0,1,23623,0.04,0.06,0.0,0.0920754716981132
BDI,BI,705.0,6387.0,6387.0,busumanyi,,30.6339,-3.0634,3,school,mapping,2014.0,12.0,15.0,50,7,50,0,50,0,1,23371,0.14,0.0,0.0,0.1320754716981132
BDI,BI,705.0,6387.0,6387.0,busumanyi,10314.0,30.6339,-3.0634,3,,,2014.0,,,50,6,50,0,50,0,1,2185,0.12,0.0,0.0,0.11320754716981131
BDI,BI,717.0,6417.0,6417.0,butezi,,30.182022,-3.3603962,1,school,mapping,2014.0,12.0,15.0,50,1,50,28,50,7,1,23610,0.02,0.56,0.14,0.593554716981132
BDI,BI,710.0,6401.0,6401.0,butihinda,,30.1857,-2.6413,1,school,mapping,2014.0,12.0,15.0,50,3,50,5,50,4,1,23472,0.06,0.1,0.08,0.20913207547169807
BDI,BI,710.0,6401.0,6401.0,butihinda,10305.0,30.1857,-2.6413,1,,,2014.0,,,50,3,50,5,50,3,1,18623,0.06,0.1,0.06,0.1931698113207547
BDI,BI,,,3518.0,buyenzi,,29.3533,-3.3697,4,,,1984.0,6.0,16.0,3053,382,3053,537,3053,824,3,28655,0.12512283000327545,0.17589256469046838,0.2698984605306256,0.4467943969891585
BDI,BI,703.0,,3518.0,buyenzi,,29.3533,-3.3697,4,,,1991.0,6.0,16.0,2706,179,2706,452,2706,330,3,28659,0.06614929785661493,0.1670362158167036,0.12195121951219512,0.2990543642451687
BDI,BI,709.0,6397.0,6397.0,buziraguhindwa,10254.0,29.5733,-2.9652000000000003,3,,,2014.0,,,50,0,50,0,50,0,1,2207,0.0,0.0,0.0,0.0
BDI,BI,715.0,6414.0,6414.0,bwiza bweranka,,29.884,-2.945111111,3,school,mapping,2016.0,13.0,14.0,50,0,50,7,50,11,1,23579,0.0,0.14,0.22,0.310566037735849
BDI,BI,702.0,6377.0,6377.0,bwumba,,29.5145,-3.4234,3,school,mapping,2014.0,12.0,16.0,50,2,50,26,50,14,1,23225,0.04,0.52,0.28,0.6304
BDI,BI,702.0,6377.0,6377.0,bwumba,10240.0,29.5145,-3.4234,3,,,2014.0,,,50,2,50,25,50,12,1,2149,0.04,0.5,0.24,0.5992452830188678
BDI,BI,703.0,,3480.0,cibitoke,,29.378,-3.335,4,,,1984.0,6.0,16.0,697,194,697,63,697,114,3,29166,0.2783357245337159,0.09038737446197992,0.16355810616929697,0.42540596099165984
BDI,BI,703.0,,3480.0,cibitoke,,29.378,-3.335,4,,,1991.0,6.0,16.0,2859,489,2859,217,2859,174,3,28662,0.17103882476390347,0.07590066456803078,0.060860440713536204,0.26469736911693953
BDI,BI,703.0,6381.0,6381.0,cibitoke ii,,29.3769066,-3.3422586,3,school,mapping,2014.0,12.0,16.0,50,0,50,0,50,5,1,23256,0.0,0.0,0.1,0.09433962264150943
BDI,BI,704.0,6384.0,6384.0,condi,,29.8279,-3.8073,3,school,mapping,2014.0,12.0,15.0,50,0,50,19,50,1,1,23312,0.0,0.38,0.02,0.370188679245283
BDI,BI,704.0,6384.0,6384.0,condi,,29.8279,-3.8073,3,school,sentinel site,2009.0,6.0,16.0,389,3,389,182,389,38,1,23309,0.007712082262210797,0.46786632390745503,0.09768637532133675,0.49391651086429306
BDI,BI,704.0,6384.0,6384.0,condi,,29.8279,-3.8073,3,school,sentinel site,2007.0,6.0,20.0,300,4,300,93,300,39,1,23307,0.013333333333333334,0.31,0.13,0.3846264150943396
BDI,BI,704.0,6384.0,6384.0,condi,,29.8279,-3.8073,3,school,sentinel site,2010.0,5.0,17.0,424,3,424,129,424,27,1,23310,0.007075471698113208,0.30424528301886794,0.06367924528301887,0.33316955790226854
BDI,BI,704.0,6384.0,6384.0,condi,,29.8279,-3.8073,3,school,sentinel site,2011.0,6.0,18.0,410,1,410,113,410,22,1,23311,0.0024390243902439024,0.275609756097561,0.05365853658536585,0.2982561111121757
BDI,BI,714.0,6410.0,6410.0,ecofo kibimba i,,29.62705556,-3.582222222,3,school,mapping,2016.0,10.0,14.0,48,1,48,9,48,3,1,23532,0.020833333333333332,0.1875,0.0625,0.23976451945754715
BDI,BI,714.0,6411.0,6411.0,ecofo kibumbu ii,,29.74636111,-3.532416667,3,school,mapping,2016.0,11.0,13.0,50,0,50,7,50,2,1,23542,0.0,0.14,0.04,0.16452830188679246
BDI,BI,715.0,6413.0,6413.0,ep kidasha,,30.05902778,-2.787166667,3,school,mapping,2016.0,12.0,14.0,50,0,50,4,50,7,1,23566,0.0,0.08,0.14,0.19698113207547172
BDI,BI,715.0,6413.0,6413.0,ep kigomero,,30.02330556,-2.922305556,3,school,mapping,2016.0,12.0,14.0,50,1,50,6,50,4,1,23567,0.02,0.12,0.08,0.19489811320754716
BDI,BI,715.0,6413.0,6413.0,ep myando,,29.99461111,-2.939888889,3,school,mapping,2016.0,12.0,14.0,50,1,50,9,50,8,1,23568,0.02,0.18,0.16,0.30658113207547166
BDI,BI,704.0,6385.0,6385.0,ep kizuga,,29.54527778,-3.760277778,3,school,sentinel site,2017.0,6.0,15.0,120,0,120,16,120,0,1,23340,0.0,0.13333333333333333,0.0,0.12578616352201255
BDI,BI,702.0,6377.0,6377.0,ep maramvya,,29.34833333,-3.296666667,3,school,sentinel site,2017.0,6.0,15.0,120,2,120,1,120,4,1,23226,0.016666666666666666,0.008333333333333333,0.03333333333333333,0.05411862334032144
BDI,BI,706.0,6388.0,6388.0,ep mirombero,,29.30416667,-2.971666667,3,school,sentinel site,2017.0,6.0,15.0,120,0,120,1,120,1,1,23376,0.0,0.008333333333333333,0.008333333333333333,0.01565775681341719
BDI,BI,704.0,6385.0,6385.0,ep mudende,,29.513333330000002,-3.891388889,3,school,sentinel site,2017.0,6.0,15.0,120,0,120,2,120,1,1,23341,0.0,0.016666666666666666,0.008333333333333333,0.023453878406708595
BDI,BI,711.0,6403.0,6403.0,ep mugeni,,30.05777778,-4.119166667,3,school,sentinel site,2017.0,6.0,14.0,120,1,120,3,120,0,1,23482,0.008333333333333333,0.025,0.0,0.03125
BDI,BI,706.0,6388.0,6388.0,ep munyika,,29.12083333,-2.8311111110000002,3,school,sentinel site,2017.0,6.0,15.0,120,0,120,0,120,0,1,23377,0.0,0.0,0.0,0.0
BDI,BI,701.0,6376.0,6376.0,ep musenyi,,29.40444444,-3.195833333,3,school,sentinel site,2017.0,6.0,14.0,120,0,120,0,120,0,1,23211,0.0,0.0,0.0,0.0
BDI,BI,704.0,6385.0,6385.0,ep nyamibu,,29.39722222,-3.896944444,3,school,sentinel site,2017.0,5.0,15.0,120,6,120,2,120,1,1,23342,0.05,0.016666666666666666,0.008333333333333333,0.06945099580712788
BDI,BI,717.0,6418.0,6418.0,ep nyamusasa,,30.39111111,-3.675555556,3,school,sentinel site,2017.0,5.0,14.0,120,5,120,3,120,2,1,23614,0.041666666666666664,0.025,0.016666666666666666,0.07660180817610063
BDI,BI,704.0,6385.0,6385.0,ep rukinga i,,29.44083333,-3.964166667,3,school,sentinel site,2017.0,6.0,15.0,120,4,120,5,120,2,1,23343,0.03333333333333333,0.041666666666666664,0.016666666666666666,0.0840103074772886
BDI,BI,701.0,6375.0,6375.0,ep ruzibira,,29.41805556,-2.9847222220000003,3,school,sentinel site,2017.0,6.0,17.0,120,0,120,5,120,0,1,23199,0.0,0.041666666666666664,0.0,0.03930817610062892
BDI,BI,707.0,6393.0,6393.0,gahe,,29.8497,-3.5867,3,school,mapping,2014.0,13.0,14.0,50,0,50,25,50,2,1,23418,0.0,0.5,0.04,0.490566037735849
BDI,BI,713.0,6409.0,6409.0,gahemba i,,30.2794444,-3.4186111,1,school,mapping,2014.0,11.0,14.0,50,9,50,3,50,3,1,23523,0.18,0.06,0.06,0.2598566037735848
BDI,BI,713.0,6409.0,6409.0,gahemba i,10328.0,30.2794444,-3.4186111,1,,,2014.0,,,50,7,50,3,50,3,1,18663,0.14,0.06,0.06,0.22651320754716978
BDI,BI,716.0,6415.0,6415.0,gakungu,,30.3211533,-3.7509575,3,school,mapping,2014.0,13.0,14.0,50,9,50,3,50,0,1,23590,0.18,0.06,0.0,0.2162264150943396
BDI,BI,706.0,6388.0,6388.0,gasenyi,,29.2,-2.966667,1,school,mapping,2014.0,12.0,15.0,50,2,50,0,50,0,1,23378,0.04,0.0,0.0,0.03773584905660377
BDI,BI,713.0,6407.0,6407.0,gasorwe ii,,30.2209801,-2.8521841,1,school,mapping,2014.0,12.0,14.0,50,1,50,21,50,16,1,23513,0.02,0.42,0.32,0.5787622641509432
BDI,BI,713.0,6407.0,6407.0,gasorwe ii,10219.0,30.2209801,-2.8521841,1,,,2014.0,,,50,1,50,21,50,15,1,2234,0.02,0.42,0.3,0.5680377358490565
BDI,BI,713.0,6407.0,6407.0,gasorwe iii,,30.2209801,-2.8521841,1,school,mapping,2014.0,13.0,14.0,50,2,50,13,50,6,1,23514,0.04,0.26,0.12,0.3536301886792452
BDI,BI,710.0,6402.0,6402.0,gatanga,,29.7929048,-4.3495219,1,school,mapping,2014.0,12.0,15.0,50,6,50,0,50,0,1,23477,0.12,0.0,0.0,0.11320754716981131
BDI,BI,708.0,6395.0,6395.0,gatonde,10334.0,30.1773,-3.2562,3,,,2014.0,,,50,0,50,4,50,0,1,2202,0.0,0.08,0.0,0.07547169811320754
BDI,BI,704.0,6384.0,6384.0,gatwe,,29.4858333,-3.5577778,1,school,mapping,2014.0,12.0,15.0,50,3,50,11,50,4,1,23318,0.06,0.22,0.08,0.30703396226415086
BDI,BI,704.0,6384.0,6384.0,gatwe,,29.4858333,-3.5577778,1,school,sentinel site,2009.0,6.0,18.0,456,23,456,103,456,13,1,23315,0.05043859649122807,0.22587719298245615,0.02850877192982456,0.26969717678326705
BDI,BI,704.0,6384.0,6384.0,gatwe,,29.4858333,-3.5577778,1,school,sentinel site,2010.0,5.0,20.0,431,4,431,68,431,9,1,23316,0.009280742459396751,0.15777262180974477,0.02088167053364269,0.17265378334275308
BDI,BI,704.0,6384.0,6384.0,gatwe,,29.4858333,-3.5577778,1,school,sentinel site,2011.0,6.0,18.0,359,0,359,55,359,4,1,23317,0.0,0.1532033426183844,0.011142061281337047,0.15343245553562423
BDI,BI,704.0,6384.0,6384.0,gatwe,,29.4858333,-3.5577778,1,school,sentinel site,2007.0,5.0,18.0,300,3,300,38,300,9,1,23313,0.01,0.12666666666666668,0.03,0.15220566037735847
BDI,BI,704.0,6384.0,6384.0,gatwe,10292.0,29.4858333,-3.5577778,1,,,2014.0,,,50,3,50,10,50,4,1,18530,0.06,0.2,0.08,0.29071698113207545
BDI,BI,716.0,6415.0,6415.0,giharo,,30.2382911,-3.7733787,1,school,mapping,2014.0,13.0,14.0,50,4,50,1,50,0,1,23591,0.08,0.02,0.0,0.09283018867924528
BDI,BI,708.0,6395.0,6395.0,gihogazi ii,50198.0,29.9971769,-3.1552575,1,,,2007.0,,,60,4,60,24,60,4,1,2128,0.06666666666666667,0.4,0.06666666666666667,0.450314465408805
BDI,BI,704.0,,3456.0,gihogazi ii,,30.003,-3.12156,4,,,2007.0,10.0,16.0,60,4,60,24,60,4,1,31278,0.06666666666666667,0.4,0.06666666666666667,0.450314465408805
BDI,BI,708.0,6395.0,6395.0,gikombe,10335.0,29.7630556,-4.0944444,1,,,2014.0,,,50,1,50,12,50,3,1,18593,0.02,0.24,0.06,0.28291320754716975
BDI,BI,707.0,6390.0,6390.0,gisebuzi,,29.8428,-3.3707000000000003,3,school,mapping,2014.0,13.0,14.0,50,10,50,21,50,18,1,23399,0.2,0.42,0.36,0.6632452830188678
BDI,BI,707.0,6390.0,6390.0,gisebuzi,10229.0,29.8428,-3.3707000000000003,3,,,2014.0,,,50,10,50,20,50,18,1,2192,0.2,0.4,0.36,0.6535849056603773
BDI,BI,708.0,6394.0,6394.0,gisenyi,,30.2032,-3.0966,1,school,mapping,2014.0,12.0,16.0,50,1,50,8,50,0,1,23423,0.02,0.16,0.0,0.16679245283018865
BDI,BI,716.0,6416.0,6416.0,gisuriro,,30.068,-3.7458,3,school,mapping,2014.0,12.0,14.0,50,2,50,17,50,4,1,23602,0.04,0.34,0.08,0.39347924528301886
BDI,BI,716.0,6416.0,6416.0,gisuriro,,30.068,-3.7458,3,school,sentinel site,2008.0,6.0,16.0,300,25,300,82,300,68,1,23599,0.08333333333333333,0.2733333333333333,0.22666666666666666,0.4574283717679944
BDI,BI,716.0,6416.0,6416.0,gisuriro,,30.068,-3.7458,3,school,sentinel site,2011.0,2.0,18.0,503,9,503,101,503,54,1,23601,0.017892644135188866,0.20079522862823063,0.1073558648111332,0.2824143942418981
BDI,BI,713.0,6409.0,6409.0,gitaramuka,,30.1358346,-2.9757159,1,school,mapping,2014.0,13.0,14.0,50,7,50,1,50,3,1,23524,0.14,0.02,0.06,0.19600754716981134
BDI,BI,713.0,6409.0,6409.0,gitaramuka,10329.0,30.1358346,-2.9757159,1,,,2014.0,,,50,8,50,2,50,3,1,2239,0.16,0.04,0.06,0.2282867924528302
BDI,BI,702.0,6378.0,6378.0,gitaza ii,,29.3460869,-3.617381,1,school,mapping,2014.0,12.0,15.0,50,0,50,1,50,7,1,23233,0.0,0.02,0.14,0.14830188679245282
BDI,BI,702.0,6378.0,6378.0,gitaza ii,10244.0,29.3460869,-3.617381,1,,,2014.0,,,50,1,50,1,50,5,1,2151,0.02,0.02,0.1,0.1279622641509434
BDI,BI,713.0,6408.0,6408.0,gitega,,30.2713,-2.7141,1,school,mapping,2014.0,12.0,14.0,50,4,50,13,50,14,1,23518,0.08,0.26,0.28,0.48096603773584895
BDI,BI,702.0,6378.0,6378.0,gitenga,,29.3942,-3.5302,3,school,mapping,2014.0,13.0,14.0,50,17,50,1,50,1,1,23234,0.34,0.02,0.02,0.345411320754717
BDI,BI,702.0,6378.0,6378.0,gitenga,10245.0,29.3942,-3.5302,3,,,2014.0,,,50,17,50,1,50,2,1,2155,0.34,0.02,0.04,0.35761509433962263
BDI,BI,704.0,6384.0,6384.0,gitobo,,29.8235,-3.9825,3,school,mapping,2014.0,12.0,15.0,50,0,50,9,50,1,1,23325,0.0,0.18,0.02,0.1852830188679245
BDI,BI,704.0,6384.0,6384.0,gitobo,,29.8235,-3.9825,3,school,sentinel site,2009.0,5.0,19.0,465,2,465,117,465,3,1,23322,0.004301075268817204,0.25161290322580643,0.0064516129032258064,0.24494274472747138
BDI,BI,704.0,6384.0,6384.0,gitobo,,29.8235,-3.9825,3,school,sentinel site,2010.0,6.0,19.0,444,1,444,109,444,6,1,23323,0.0022522522522522522,0.24549549549549549,0.013513513513513514,0.24279988000321664
BDI,BI,704.0,6384.0,6384.0,gitobo,,29.8235,-3.9825,3,school,sentinel site,2011.0,5.0,18.0,490,0,490,112,490,6,1,23324,0.0,0.22857142857142856,0.012244897959183673,0.2245448044446889
BDI,BI,704.0,6384.0,6384.0,gitobo,,29.8235,-3.9825,3,school,sentinel site,2008.0,6.0,17.0,331,2,331,66,331,3,1,23321,0.006042296072507553,0.19939577039274925,0.00906344410876133,0.19947702412546225
BDI,BI,704.0,6384.0,6384.0,gitobo,10294.0,29.8235,-3.9825,3,,,2014.0,,,50,0,50,8,50,1,1,2172,0.0,0.16,0.02,0.16679245283018865
BDI,BI,706.0,6389.0,6389.0,gitukura,,29.1230716,-2.8878427,2,school,mapping,2014.0,12.0,14.0,50,2,50,4,50,0,1,23395,0.04,0.08,0.0,0.11018867924528301
BDI,BI,706.0,6389.0,6389.0,gitukura,10281.0,29.1230716,-2.8878427,2,,,2014.0,,,50,2,50,3,50,0,1,2190,0.04,0.06,0.0,0.0920754716981132
BDI,BI,704.0,,3428.0,kabere,,29.2787,-2.84253,4,,,2007.0,10.0,16.0,60,30,60,2,60,1,1,31276,0.5,0.03333333333333333,0.016666666666666666,0.49502096436058696
BDI,BI,710.0,6401.0,6401.0,kabirizi i,,30.3167,-2.6033,3,school,mapping,2014.0,13.0,15.0,50,3,50,2,50,2,1,23473,0.06,0.04,0.04,0.12612830188679244
BDI,BI,711.0,6404.0,6404.0,kabo,,29.64638889,-4.299444444,3,school,mapping,2014.0,13.0,14.0,50,6,50,2,50,2,1,23491,0.12,0.04,0.04,0.17829433962264152
BDI,BI,711.0,6404.0,6404.0,kabo,,29.64638889,-4.299444444,3,school,sentinel site,2009.0,6.0,17.0,308,65,308,40,308,37,1,23493,0.21103896103896103,0.12987012987012986,0.12012987012987013,0.3735569974089785
BDI,BI,711.0,6404.0,6404.0,kabo,,29.64638889,-4.299444444,3,school,sentinel site,2008.0,5.0,17.0,300,50,300,12,300,15,1,23492,0.16666666666666666,0.04,0.05,0.22641509433962262
BDI,BI,711.0,6404.0,6404.0,kabo,,29.64638889,-4.299444444,3,school,sentinel site,2011.0,6.0,17.0,450,14,450,3,450,4,1,23494,0.03111111111111111,0.006666666666666667,0.008888888888888889,0.04351443435049304
BDI,BI,711.0,6404.0,6404.0,kabo,10340.0,29.64638889,-4.299444444,3,,,2014.0,,,50,6,50,1,50,2,1,18641,0.12,0.02,0.04,0.16235471698113202
BDI,BI,710.0,6402.0,6402.0,kabuye,,30.1309,-2.7153,1,school,mapping,2014.0,12.0,15.0,50,2,50,17,50,10,1,23478,0.04,0.34,0.2,0.46520754716981133
BDI,BI,710.0,6402.0,6402.0,kabuye,10375.0,30.1309,-2.7153,1,,,2014.0,,,50,2,50,19,50,8,1,18629,0.04,0.38,0.16,0.47172830188679243
BDI,BI,715.0,6412.0,6412.0,kagoma,,29.841,-2.845055556,3,school,mapping,2016.0,13.0,14.0,50,0,50,3,50,1,1,23559,0.0,0.06,0.02,0.07433962264150942
BDI,BI,704.0,6385.0,6385.0,kagongo,,29.3766,-3.8445,3,school,mapping,2014.0,13.0,14.0,50,1,50,3,50,2,1,23345,0.02,0.06,0.04,0.10910188679245282
BDI,BI,703.0,,3471.0,kamenge,,29.385,-3.344,4,,,1984.0,6.0,16.0,1552,501,1552,183,1552,278,3,28657,0.3228092783505155,0.11791237113402062,0.1791237113402062,0.4808079989130943
BDI,BI,703.0,,3471.0,kamenge,,29.385,-3.344,4,,,1991.0,6.0,16.0,2331,510,2331,256,2331,182,3,28658,0.2187902187902188,0.10982410982410983,0.07807807807807808,0.3385683820398421
BDI,BI,703.0,6381.0,6381.0,kamenge iii,,29.3863122,-3.3455361,3,school,mapping,2014.0,12.0,14.0,50,0,50,1,50,1,1,23258,0.0,0.02,0.02,0.03735849056603773
BDI,BI,701.0,6375.0,6375.0,kanazi,,29.4938889,-3.0438889,1,school,mapping,2014.0,12.0,16.0,50,1,50,8,50,0,1,23201,0.02,0.16,0.0,0.16679245283018865
BDI,BI,709.0,6398.0,6398.0,karehe,,29.73793,-3.1775199,3,school,mapping,2014.0,12.0,15.0,50,3,50,12,50,1,1,23453,0.06,0.24,0.02,0.28291320754716975
BDI,BI,709.0,6398.0,6398.0,karehe,,29.73793,-3.1775199,3,school,sentinel site,2008.0,6.0,19.0,300,14,300,133,300,22,1,23450,0.04666666666666667,0.44333333333333336,0.07333333333333333,0.4794606568832983
BDI,BI,709.0,6398.0,6398.0,karehe,,29.73793,-3.1775199,3,school,sentinel site,2011.0,6.0,18.0,453,4,453,99,453,21,1,23452,0.008830022075055188,0.2185430463576159,0.046357615894039736,0.2465565369567264
BDI,BI,709.0,6398.0,6398.0,karehe,,29.73793,-3.1775199,3,school,sentinel site,2009.0,6.0,14.0,301,23,301,35,301,50,1,23451,0.07641196013289037,0.11627906976744186,0.16611295681063123,0.3013078589685331
BDI,BI,707.0,6392.0,6392.0,karemba,,30.0076,-3.7068,1,school,mapping,2014.0,13.0,14.0,50,4,50,23,50,5,1,23414,0.08,0.46,0.1,0.5215849056603773
BDI,BI,716.0,6416.0,6416.0,karinzi,,29.85430625,-3.0373625,4,school,mapping,2014.0,13.0,14.0,50,2,50,5,50,2,1,23603,0.04,0.1,0.04,0.16090566037735848
BDI,BI,717.0,6419.0,6419.0,karuyigi,,30.2483881,-3.4750027,3,school,mapping,2014.0,12.0,16.0,50,0,50,1,50,0,1,23624,0.0,0.02,0.0,0.018867924528301886
BDI,BI,709.0,6397.0,6397.0,kayanza ii,,29.6321188,-2.9297132,3,school,mapping,2014.0,12.0,16.0,50,0,50,6,50,1,1,23443,0.0,0.12,0.02,0.12981132075471694
BDI,BI,713.0,6409.0,6409.0,kayenzi,,30.3589,-2.89833,3,,,2007.0,10.0,16.0,60,11,60,4,60,3,1,31272,0.18333333333333332,0.06666666666666667,0.05,0.260272536687631
BDI,BI,712.0,6405.0,6405.0,kibogoye,10264.0,29.6041,-3.2177,1,,,2014.0,,,50,0,50,13,50,0,1,18647,0.0,0.26,0.0,0.2452830188679245
BDI,BI,710.0,6399.0,6399.0,kibonde,,30.1602,-2.4725,3,school,mapping,2014.0,12.0,15.0,50,5,50,2,50,2,1,23459,0.1,0.04,0.04,0.16090566037735846
BDI,BI,710.0,6399.0,6399.0,kibonde,10193.0,30.1602,-2.4725,3,,,2014.0,,,50,4,50,1,50,2,1,2213,0.08,0.02,0.04,0.12685283018867924
BDI,BI,712.0,6405.0,6405.0,kibumbu,,29.7583,-3.2179,1,school,mapping,2014.0,12.0,16.0,50,2,50,19,50,1,1,23503,0.04,0.38,0.02,0.39311698113207544
BDI,BI,712.0,6405.0,6405.0,kibumbu,10265.0,29.7583,-3.2179,1,,,2014.0,,,50,2,50,18,50,1,1,18645,0.04,0.36,0.02,0.375366037735849
BDI,BI,704.0,,3476.0,kibumbv i,,29.7467,-3.53128,4,,,2007.0,10.0,16.0,60,6,60,23,60,14,1,31270,0.1,0.38333333333333336,0.23333333333333334,0.5419811320754716
BDI,BI,711.0,6404.0,6404.0,kiderege,,29.6725,-4.2695,3,school,mapping,2014.0,12.0,16.0,50,4,50,1,50,0,1,23496,0.08,0.02,0.0,0.09283018867924528
BDI,BI,711.0,6404.0,6404.0,kiderege,10342.0,29.6725,-4.2695,3,,,2014.0,,,50,1,50,1,50,0,1,18643,0.02,0.02,0.0,0.03735849056603773
BDI,BI,708.0,6394.0,6394.0,kigarama ii,,29.716667,-2.933333,1,school,mapping,2014.0,12.0,14.0,50,0,50,7,50,0,1,23424,0.0,0.14,0.0,0.1320754716981132
BDI,BI,708.0,6394.0,6394.0,kigarama ii,10166.0,29.716667,-2.933333,1,,,2014.0,,,50,0,50,7,50,1,1,18584,0.0,0.14,0.02,0.14830188679245282
BDI,BI,710.0,6402.0,6402.0,kigobe,,30.1231,-2.6833,1,school,mapping,2014.0,13.0,14.0,50,2,50,14,50,6,1,23479,0.04,0.28,0.12,0.36956981132075467
BDI,BI,710.0,6402.0,6402.0,kigobe,10376.0,30.1231,-2.6833,1,,,2014.0,,,50,2,50,14,50,5,1,18628,0.04,0.28,0.1,0.3565283018867924
BDI,BI,713.0,6407.0,6407.0,kigoganya,,30.2941,-2.8373,3,school,mapping,2014.0,12.0,14.0,50,9,50,7,50,4,1,23515,0.18,0.14,0.08,0.3313358490566038
BDI,BI,713.0,6407.0,6407.0,kigoganya,10221.0,30.2941,-2.8373,3,,,2014.0,,,50,10,50,7,50,4,1,2232,0.2,0.14,0.08,0.34626415094339624
BDI,BI,703.0,,3480.0,kinama,,29.375,-3.33,4,,,1984.0,6.0,16.0,2365,1178,2365,274,2365,456,3,28656,0.4980972515856237,0.11585623678646935,0.19281183932346724,0.6054781847348023
BDI,BI,703.0,,3480.0,kinama,,29.375,-3.33,4,,,1991.0,6.0,16.0,3530,812,3530,286,3530,229,3,28654,0.230028328611898,0.08101983002832862,0.06487252124645893,0.31916449562564586
BDI,BI,703.0,6381.0,6381.0,kinama iii,,29.3767699,-3.3334796,3,school,mapping,2014.0,12.0,14.0,50,0,50,1,50,1,1,23259,0.0,0.02,0.02,0.03735849056603773
BDI,BI,706.0,6389.0,6389.0,kinga,,29.1230716,-2.8878427,2,school,mapping,2014.0,12.0,14.0,50,1,50,11,50,5,1,23396,0.02,0.22,0.1,0.29437735849056607
BDI,BI,706.0,6389.0,6389.0,kinga,10282.0,29.1230716,-2.8878427,2,,,2014.0,,,50,1,50,11,50,2,1,18560,0.02,0.22,0.04,0.25110943396226415
BDI,BI,702.0,6378.0,6378.0,kinonko,,29.4716,-3.5377,3,school,mapping,2014.0,12.0,16.0,50,1,50,27,50,4,1,23236,0.02,0.54,0.08,0.5521358490566037
BDI,BI,707.0,6391.0,6391.0,kirambi,,29.7553,-3.6292,1,school,mapping,2014.0,13.0,14.0,50,4,50,19,50,3,1,23408,0.08,0.38,0.06,0.4375698113207547
BDI,BI,707.0,6393.0,6393.0,kiranzira,,29.90945,-3.41934,1,school,mapping,2014.0,13.0,14.0,50,2,50,15,50,1,1,23419,0.04,0.3,0.02,0.32211320754716977
BDI,BI,716.0,6416.0,6416.0,kireka,,30.0876,-3.677,3,school,mapping,2014.0,13.0,14.0,50,2,50,20,50,1,1,23604,0.04,0.4,0.02,0.41086792452830184
BDI,BI,716.0,6416.0,6416.0,kireka,10354.0,30.0876,-3.677,3,,,2014.0,,,50,2,50,21,50,1,1,2247,0.04,0.42,0.02,0.42861886792452825
BDI,BI,702.0,6378.0,6378.0,kirombwe iii,10249.0,29.3675,-3.6227,3,,,2014.0,,,50,2,50,19,50,18,1,2150,0.04,0.38,0.36,0.5840301886792452
BDI,BI,702.0,6378.0,6378.0,kirundo,,29.3563904,-3.3846521,1,school,mapping,2014.0,12.0,15.0,50,2,50,7,50,0,1,23237,0.04,0.14,0.0,0.16452830188679246
BDI,BI,717.0,6417.0,6417.0,kivumu,,30.1166667,-3.3983333,1,school,mapping,2014.0,11.0,15.0,50,2,50,11,50,0,1,23611,0.04,0.22,0.0,0.2369811320754717
BDI,BI,709.0,6398.0,6398.0,kivumu i,,29.5175,-2.8905556,1,school,mapping,2014.0,12.0,16.0,50,1,50,33,50,5,1,23454,0.02,0.66,0.1,0.6604905660377357
BDI,BI,709.0,6398.0,6398.0,kivumu i,10321.0,29.5175,-2.8905556,1,,,2014.0,,,50,1,50,32,50,5,1,18607,0.02,0.64,0.1,0.6438490566037735
BDI,BI,709.0,6396.0,6396.0,kivuruga,,29.6492,-2.9699,1,school,mapping,2014.0,12.0,14.0,50,3,50,29,50,5,1,23439,0.06,0.58,0.1,0.608188679245283
BDI,BI,709.0,6396.0,6396.0,kivuruga,10215.0,29.6492,-2.9699,1,,,2014.0,,,50,3,50,29,50,4,1,18595,0.06,0.58,0.08,0.6007396226415093
BDI,BI,701.0,6375.0,6375.0,kivyuka ii,,29.4509403,-3.0288458,1,school,mapping,2014.0,12.0,15.0,50,5,50,6,50,0,1,23202,0.1,0.12,0.0,0.1962264150943396
BDI,BI,701.0,6375.0,6375.0,kivyuka ii,10162.0,29.4509403,-3.0288458,1,,,2014.0,,,50,5,50,5,50,0,1,2141,0.1,0.1,0.0,0.1792452830188679
BDI,BI,704.0,,3430.0,kiyagayaga,,29.481001,-3.8598600000000003,4,,,2007.0,10.0,16.0,60,17,60,0,60,1,1,31268,0.2833333333333333,0.0,0.016666666666666666,0.2785639412997903
BDI,BI,711.0,6403.0,6403.0,kiyange ii,,29.1288889,-2.7158333,1,school,mapping,2014.0,12.0,15.0,50,6,50,1,50,0,1,23484,0.12,0.02,0.0,0.12981132075471694
BDI,BI,710.0,6400.0,6400.0,kiyanza,,30.1460157,-2.5051722,3,school,mapping,2014.0,13.0,14.0,50,7,50,5,50,2,1,23463,0.14,0.1,0.04,0.24241509433962263
BDI,BI,710.0,6400.0,6400.0,kiyanza,10276.0,30.1460157,-2.5051722,3,,,2014.0,,,50,6,50,5,50,2,1,2217,0.12,0.1,0.04,0.2261132075471698
BDI,BI,709.0,6398.0,6398.0,kiziba,,29.4922222,-3.0311111,2,school,mapping,2014.0,13.0,14.0,50,2,50,35,50,8,1,23455,0.04,0.7,0.16,0.7151698113207546
BDI,BI,704.0,6385.0,6385.0,kizuga,,29.54527778,-3.760277778,3,school,mapping,2014.0,12.0,16.0,50,1,50,4,50,0,1,23346,0.02,0.08,0.0,0.09283018867924528
BDI,BI,704.0,6385.0,6385.0,kizuga/nkizi,,29.54527778,-3.760277778,3,school,sentinel site,2007.0,6.0,19.0,300,51,300,143,300,12,1,23347,0.17,0.4766666666666667,0.04,0.5500075471698114
BDI,BI,704.0,6385.0,6385.0,kizuga/nkizi,,29.54527778,-3.760277778,3,school,sentinel site,2009.0,6.0,18.0,446,19,446,201,446,19,1,23349,0.042600896860986545,0.45067264573991034,0.042600896860986545,0.4683767758283486
BDI,BI,704.0,6385.0,6385.0,kizuga/nkizi,,29.54527778,-3.760277778,3,school,sentinel site,2011.0,6.0,19.0,350,5,350,88,350,9,1,23351,0.014285714285714285,0.25142857142857145,0.025714285714285714,0.2651853237251774
BDI,BI,704.0,6385.0,6385.0,kizuga/nkizi,,29.54527778,-3.760277778,3,school,sentinel site,2010.0,5.0,18.0,454,3,454,87,454,7,1,23350,0.006607929515418502,0.19162995594713655,0.015418502202643172,0.19750292759249913
BDI,BI,704.0,6385.0,6385.0,kizuga/nkizi,,29.54527778,-3.760277778,3,school,sentinel site,2008.0,6.0,18.0,343,10,343,54,343,7,1,23348,0.029154518950437316,0.15743440233236153,0.02040816326530612,0.1874461273930374
BDI,BI,713.0,6408.0,6408.0,kobero,,30.4103505,-2.664491,1,school,mapping,2014.0,13.0,14.0,50,2,50,1,50,4,1,23519,0.04,0.02,0.08,0.12685283018867924
BDI,BI,707.0,6390.0,6390.0,kwibuka,,29.9093794,-3.4073509,3,school,mapping,2014.0,13.0,14.0,50,3,50,11,50,6,1,23400,0.06,0.22,0.12,0.3347018867924527
BDI,BI,703.0,6380.0,6380.0,lumiere kinindo,10172.0,29.3513824,-3.4120317,3,,,2014.0,,,50,0,50,0,50,0,1,18510,0.0,0.0,0.0,0.0
BDI,BI,702.0,6378.0,6378.0,magara ii,,29.317042,-3.7249768,1,school,mapping,2014.0,12.0,15.0,50,0,50,3,50,0,1,23238,0.0,0.06,0.0,0.056603773584905655
BDI,BI,702.0,6378.0,6378.0,magara ii,10251.0,29.317042,-3.7249768,1,,,2014.0,,,50,1,50,4,50,1,1,2153,0.02,0.08,0.02,0.10984150943396227
BDI,BI,715.0,6414.0,6414.0,makaba,,29.82047222,-2.994388889,3,school,mapping,2016.0,13.0,14.0,50,5,50,2,50,0,1,23581,0.1,0.04,0.0,0.12830188679245283
BDI,BI,707.0,6391.0,6391.0,maramvya,,29.966667,-3.55,1,school,mapping,2014.0,13.0,14.0,50,1,50,12,50,0,1,23410,0.02,0.24,0.0,0.24075471698113204
BDI,BI,702.0,6377.0,6377.0,maramvya i,,29.3771856,-3.3927199,2,school,mapping,2014.0,12.0,13.0,50,0,50,0,50,2,1,23231,0.0,0.0,0.04,0.03773584905660377
BDI,BI,702.0,6377.0,6377.0,maramvya i,,29.3771856,-3.3927199,2,school,sentinel site,2008.0,6.0,18.0,300,39,300,39,300,16,1,23228,0.13,0.13,0.05333333333333334,0.267422641509434
BDI,BI,702.0,6377.0,6377.0,maramvya i,,29.3771856,-3.3927199,2,school,sentinel site,2009.0,6.0,14.0,331,31,331,8,331,34,1,23229,0.09365558912386707,0.02416918429003021,0.1027190332326284,0.1947263144374099
BDI,BI,702.0,6377.0,6377.0,maramvya i,,29.3771856,-3.3927199,2,school,sentinel site,2011.0,6.0,19.0,495,13,495,4,495,1,1,23230,0.026262626262626262,0.00808080808080808,0.00202020202020202,0.03404005771650197
BDI,BI,708.0,6394.0,6394.0,masabo,,30.066667,-3.133333,1,school,mapping,2014.0,12.0,15.0,50,0,50,7,50,0,1,23425,0.0,0.14,0.0,0.1320754716981132
BDI,BI,704.0,6384.0,6384.0,matana,,29.6832329,-3.7676289,1,school,mapping,2014.0,12.0,15.0,50,0,50,12,50,2,1,23327,0.0,0.24,0.04,0.25509433962264144
BDI,BI,702.0,6379.0,6379.0,mayuyu,,29.5176,-3.5791,3,school,mapping,2014.0,12.0,15.0,50,0,50,5,50,0,1,23240,0.0,0.1,0.0,0.09433962264150943
BDI,BI,704.0,6383.0,6383.0,mbiga,,29.6391667,-4.1008333,1,school,mapping,2014.0,12.0,15.0,50,2,50,7,50,0,1,23276,0.04,0.14,0.0,0.16452830188679246
BDI,BI,704.0,6383.0,6383.0,mbiga,10187.0,29.6391667,-4.1008333,1,,,2014.0,,,50,0,50,0,50,0,1,2168,0.0,0.0,0.0,0.0
BDI,BI,711.0,6404.0,6404.0,mbizi ii,50199.0,29.7163889,-4.41,1,,,2007.0,,,60,12,60,2,60,0,1,2133,0.2,0.03333333333333333,0.0,0.21383647798742136
BDI,BI,704.0,,3544.0,mbizi ii,,29.708401,-4.20334,4,,,2007.0,10.0,16.0,60,12,60,2,60,0,1,31265,0.2,0.03333333333333333,0.0,0.21383647798742136
BDI,BI,714.0,6411.0,6411.0,mbogora ii,,29.77188889,-3.3868333330000002,3,school,mapping,2016.0,11.0,14.0,50,0,50,3,50,0,1,23546,0.0,0.06,0.0,0.056603773584905655
BDI,BI,714.0,6411.0,6411.0,mbogora iii,,29.76836111,-3.459527778,3,school,mapping,2016.0,12.0,14.0,50,0,50,9,50,2,1,23548,0.0,0.18,0.04,0.20075471698113204
BDI,BI,704.0,,3509.0,mbuza,,30.043699,-3.77378,4,,,2007.0,10.0,16.0,60,4,60,18,60,4,1,31281,0.06666666666666667,0.3,0.06666666666666667,0.36813417190775677
BDI,BI,716.0,6416.0,6416.0,mbuza,,30.04374,-3.77378,3,school,mapping,2014.0,13.0,14.0,50,2,50,16,50,9,1,23606,0.04,0.32,0.18,0.43839999999999996
BDI,BI,703.0,6380.0,6380.0,michel archange,,29.3677213,-3.376504,3,school,mapping,2014.0,12.0,14.0,50,0,50,0,50,0,1,23250,0.0,0.0,0.0,0.0
BDI,BI,712.0,6405.0,6405.0,migezi,,29.7438889,-4.2877778,1,school,mapping,2014.0,12.0,16.0,50,1,50,5,50,1,1,23504,0.02,0.1,0.02,0.1279622641509434
BDI,BI,709.0,6396.0,6396.0,mikoni,,29.7216,-2.9533,1,school,mapping,2014.0,13.0,15.0,50,0,50,13,50,3,1,23440,0.0,0.26,0.06,0.2871698113207547
BDI,BI,708.0,6395.0,6395.0,mikore,,30.1309,-3.2422,1,school,mapping,2014.0,12.0,16.0,50,0,50,10,50,0,1,23432,0.0,0.2,0.0,0.18867924528301885
BDI,BI,704.0,,3442.0,minyago,,30.351601,-2.53364,4,,,2007.0,10.0,16.0,60,9,60,5,60,5,1,31267,0.15,0.08333333333333333,0.08333333333333333,0.26958857442348005
BDI,BI,705.0,6386.0,6386.0,minyare,,30.4910928,-3.2182245,3,school,mapping,2014.0,12.0,14.0,50,4,50,2,50,0,1,23362,0.08,0.04,0.0,0.11018867924528301
BDI,BI,705.0,6386.0,6386.0,minyare,10202.0,30.4910928,-3.2182245,3,,,2014.0,,,50,3,50,2,50,0,1,2182,0.06,0.04,0.0,0.0920754716981132
BDI,BI,706.0,6388.0,6388.0,mirombero,,29.1230716,-2.8878427,2,school,mapping,2014.0,12.0,14.0,50,1,50,6,50,2,1,23384,0.02,0.12,0.04,0.16235471698113202
BDI,BI,706.0,6388.0,6388.0,mirombero,,29.1230716,-2.8878427,2,school,sentinel site,2007.0,5.0,23.0,300,118,300,13,300,7,1,23379,0.3933333333333333,0.043333333333333335,0.023333333333333334,0.40864563242487767
BDI,BI,706.0,6388.0,6388.0,mirombero,,29.1230716,-2.8878427,2,school,sentinel site,2011.0,6.0,17.0,412,17,412,15,412,8,1,23383,0.0412621359223301,0.03640776699029126,0.019417475728155338,0.08877937084563457
BDI,BI,706.0,6388.0,6388.0,mirombero,,29.1230716,-2.8878427,2,school,sentinel site,2010.0,5.0,19.0,441,22,441,4,441,7,1,23382,0.049886621315192746,0.009070294784580499,0.015873015873015872,0.0692913244054438
BDI,BI,706.0,6388.0,6388.0,mirombero,,29.1230716,-2.8878427,2,school,sentinel site,2008.0,6.0,18.0,305,26,305,2,305,3,1,23380,0.08524590163934426,0.006557377049180328,0.009836065573770493,0.09451214144513634
BDI,BI,714.0,6410.0,6410.0,mpanuka,,29.79391667,-3.350055556,3,school,mapping,2016.0,12.0,14.0,48,1,48,9,48,4,1,23535,0.020833333333333332,0.1875,0.08333333333333333,0.25540077961215923
BDI,BI,706.0,6388.0,6388.0,mparambo,,29.1230716,-2.8878427,2,school,mapping,2014.0,12.0,14.0,50,4,50,2,50,0,1,23385,0.08,0.04,0.0,0.11018867924528301
BDI,BI,706.0,6388.0,6388.0,mparambo,10210.0,29.1230716,-2.8878427,2,,,2014.0,,,50,5,50,2,50,0,1,18556,0.1,0.04,0.0,0.12830188679245283
BDI,BI,715.0,6414.0,6414.0,mpondogoto,,29.71866667,-2.9062222220000002,3,school,mapping,2016.0,13.0,14.0,50,0,50,13,50,6,1,23587,0.0,0.26,0.12,0.32905660377358487
BDI,BI,704.0,6385.0,6385.0,mudende,,29.513333330000002,-3.891388889,3,school,sentinel site,2007.0,5.0,18.0,300,82,300,17,300,6,1,23353,0.2733333333333333,0.056666666666666664,0.02,0.3096423480083857
BDI,BI,704.0,6385.0,6385.0,mudende,,29.513333330000002,-3.891388889,3,school,sentinel site,2011.0,5.0,21.0,424,46,424,19,424,8,1,23357,0.10849056603773585,0.04481132075471698,0.018867924528301886,0.15519570353188858
BDI,BI,704.0,6385.0,6385.0,mudende,,29.513333330000002,-3.891388889,3,school,sentinel site,2009.0,5.0,17.0,392,68,392,11,392,6,1,23355,0.17346938775510204,0.02806122448979592,0.015306122448979591,0.19713096756309176
BDI,BI,704.0,6385.0,6385.0,mudende,,29.513333330000002,-3.891388889,3,school,sentinel site,2010.0,5.0,20.0,413,76,413,11,413,3,1,23356,0.18401937046004843,0.026634382566585957,0.007263922518159807,0.19954892729863638
BDI,BI,704.0,6385.0,6385.0,mudende,,29.513333330000002,-3.891388889,3,school,sentinel site,2008.0,6.0,18.0,319,60,319,2,319,1,1,23354,0.18808777429467086,0.006269592476489028,0.003134796238244514,0.1846295804055543
BDI,BI,704.0,6385.0,6385.0,mudende ii,10349.0,29.5171845,-3.8906651,3,,,2014.0,,,50,3,50,5,50,0,1,18540,0.06,0.1,0.0,0.14528301886792452
BDI,BI,708.0,6394.0,6394.0,mugende,,30.09676,-3.02906,3,school,mapping,2014.0,12.0,15.0,50,0,50,22,50,0,1,23426,0.0,0.44,0.0,0.4150943396226415
BDI,BI,702.0,6379.0,6379.0,mugendo,,29.3428,-3.6911,1,school,mapping,2014.0,11.0,15.0,50,3,50,22,50,9,1,23241,0.06,0.44,0.18,0.5361811320754715
BDI,BI,702.0,6379.0,6379.0,mugendo,10365.0,29.3428,-3.6911,1,,,2014.0,,,50,3,50,20,50,6,1,18504,0.06,0.4,0.12,0.4751698113207548
BDI,BI,711.0,6403.0,6403.0,mugeni,,30.0544625,-4.1173608,3,school,mapping,2014.0,12.0,14.0,50,2,50,0,50,0,1,23488,0.04,0.0,0.0,0.03773584905660377
BDI,BI,711.0,6403.0,6403.0,mugeni,,30.0544625,-4.1173608,3,school,sentinel site,2011.0,6.0,17.0,474,10,474,14,474,3,1,23487,0.02109704641350211,0.029535864978902954,0.006329113924050633,0.05285130955850792
BDI,BI,711.0,6403.0,6403.0,mugeni,,30.0544625,-4.1173608,3,school,sentinel site,2008.0,6.0,17.0,300,25,300,1,300,5,1,23485,0.08333333333333333,0.0033333333333333335,0.016666666666666666,0.09586390635918936
BDI,BI,711.0,6403.0,6403.0,mugeni,10288.0,30.0544625,-4.1173608,3,,,2014.0,,,50,1,50,1,50,0,1,2222,0.02,0.02,0.0,0.03735849056603773
BDI,BI,706.0,6389.0,6389.0,mugina,,29.1085314,-2.7542222,1,school,mapping,2014.0,13.0,14.0,50,9,50,1,50,0,1,23397,0.18,0.02,0.0,0.1852830188679245
BDI,BI,711.0,6404.0,6404.0,mugu,,29.6887,-4.1662,3,school,mapping,2014.0,12.0,14.0,50,1,50,2,50,1,1,23497,0.02,0.04,0.02,0.0736
BDI,BI,707.0,6393.0,6393.0,muhagaze,,29.5094444,-3.2197222,1,school,mapping,2014.0,13.0,14.0,50,0,50,25,50,8,1,23420,0.0,0.5,0.16,0.5471698113207547
BDI,BI,707.0,6393.0,6393.0,muhagaze,10370.0,29.5094444,-3.2197222,1,,,2014.0,,,50,0,50,29,50,8,1,2199,0.0,0.58,0.16,0.6105660377358489
BDI,BI,709.0,6396.0,6396.0,muhanga iii,,29.8325852,-3.0279801,3,school,mapping,2014.0,12.0,16.0,50,6,50,21,50,6,1,23441,0.12,0.42,0.12,0.5196679245283018
BDI,BI,709.0,6396.0,6396.0,muhanga iii,10217.0,29.8325852,-3.0279801,3,,,2014.0,,,50,6,50,21,50,7,1,18598,0.12,0.42,0.14,0.5292981132075473
BDI,BI,701.0,6375.0,6375.0,muhanza,,29.3063,-3.0201,3,school,mapping,2014.0,13.0,16.0,50,1,50,2,50,0,1,23203,0.02,0.04,0.0,0.055849056603773574
BDI,BI,705.0,6386.0,6386.0,muhweza,,30.616667,-3.133333,1,school,mapping,2014.0,13.0,14.0,50,5,50,0,50,0,1,23366,0.1,0.0,0.0,0.09433962264150943
BDI,BI,705.0,6386.0,6386.0,muhweza,,30.616667,-3.133333,1,school,sentinel site,2008.0,6.0,18.0,300,67,300,26,300,4,1,23363,0.22333333333333333,0.08666666666666667,0.013333333333333334,0.28311558350803634
BDI,BI,705.0,6386.0,6386.0,muhweza,,30.616667,-3.133333,1,school,sentinel site,2009.0,6.0,18.0,362,21,362,8,362,3,1,23364,0.058011049723756904,0.022099447513812154,0.008287292817679558,0.08156839921542533
BDI,BI,707.0,6390.0,6390.0,mungwa,,29.8818,-3.45176,3,,,2007.0,10.0,16.0,60,20,60,36,60,25,1,31275,0.3333333333333333,0.6,0.4166666666666667,0.7966457023060795
BDI,BI,706.0,6388.0,6388.0,munyika i,,29.8041667,-4.1558333,1,school,mapping,2014.0,13.0,14.0,50,4,50,1,50,0,1,23391,0.08,0.02,0.0,0.09283018867924528
BDI,BI,706.0,6388.0,6388.0,munyika i,10211.0,29.8041667,-4.1558333,1,,,2014.0,,,47,4,47,1,47,0,1,18553,0.0851063829787234,0.02127659574468085,0.0,0.09865302322403205
BDI,BI,706.0,6388.0,6388.0,munyika ii,,29.8041667,-4.1558333,1,school,mapping,2014.0,13.0,14.0,50,5,50,2,50,6,1,23392,0.1,0.04,0.12,0.22611320754716982
BDI,BI,706.0,6388.0,6388.0,munyika ii,10212.0,29.8041667,-4.1558333,1,,,2014.0,,,50,6,50,2,50,6,1,2187,0.12,0.04,0.12,0.24205283018867924
BDI,BI,717.0,6418.0,6418.0,munyinya i,,30.3088889,-3.3063889,1,school,mapping,2014.0,12.0,15.0,50,2,50,2,50,0,1,23615,0.04,0.04,0.0,0.07396226415094338
BDI,BI,710.0,6399.0,6399.0,munyinya i,10194.0,30.3088889,-3.3063889,1,,,2014.0,,,50,3,50,10,50,1,1,18614,0.06,0.2,0.02,0.2481509433962264
BDI,BI,710.0,6400.0,6400.0,munzenze,,30.1037,-2.557,1,school,mapping,2014.0,12.0,15.0,50,1,50,0,50,1,1,23464,0.02,0.0,0.02,0.03735849056603773
BDI,BI,715.0,6412.0,6412.0,murama,,29.77088889,-2.809,3,school,mapping,2014.0,13.0,14.0,50,3,50,11,50,1,1,23560,0.06,0.22,0.02,0.2655320754716981
BDI,BI,715.0,6412.0,6412.0,murama,,29.77088889,-2.809,3,school,mapping,2016.0,13.0,15.0,50,1,50,1,50,2,1,23561,0.02,0.02,0.04,0.0736
BDI,BI,717.0,6418.0,6418.0,muramba,,30.23444675,-3.6162790830000002,3,school,mapping,2014.0,12.0,15.0,50,5,50,2,50,0,1,23616,0.1,0.04,0.0,0.12830188679245283
BDI,BI,712.0,6406.0,6406.0,muramvya iii,,29.629035299999998,-3.2679435,3,school,mapping,2014.0,12.0,16.0,50,5,50,3,50,0,1,23512,0.1,0.06,0.0,0.14528301886792452
BDI,BI,717.0,6418.0,6418.0,murangara,,30.51871,-3.502,1,school,mapping,2014.0,12.0,15.0,50,8,50,1,50,1,1,23617,0.16,0.02,0.02,0.18232452830188678
BDI,BI,704.0,6384.0,6384.0,murango,,29.667601,-3.74238,3,,,2007.0,10.0,16.0,60,3,60,3,60,2,1,31266,0.05,0.05,0.03333333333333333,0.12036163522012579
BDI,BI,717.0,6418.0,6418.0,mureba,,30.325,-3.5303,3,school,mapping,2014.0,12.0,15.0,50,2,50,0,50,0,1,23618,0.04,0.0,0.0,0.03773584905660377
BDI,BI,705.0,6386.0,6386.0,murehe,,30.5327,-3.2948,3,school,mapping,2014.0,13.0,14.0,50,0,50,8,50,0,1,23367,0.0,0.16,0.0,0.1509433962264151
BDI,BI,705.0,6386.0,6386.0,murehe,10204.0,30.5327,-3.2948,3,,,2014.0,,,50,0,50,9,50,0,1,2179,0.0,0.18,0.0,0.16981132075471694
BDI,BI,715.0,6413.0,6413.0,murehe i,,30.02494444,-2.736333333,3,school,mapping,2016.0,13.0,15.0,50,3,50,7,50,1,1,23572,0.06,0.14,0.02,0.19600754716981128
BDI,BI,707.0,6390.0,6390.0,muremera,,29.9,-3.333333,2,school,mapping,2014.0,13.0,14.0,50,5,50,17,50,9,1,23401,0.1,0.34,0.18,0.48388679245283006
BDI,BI,707.0,6390.0,6390.0,muremera,10231.0,29.9,-3.333333,2,,,2014.0,,,50,5,50,18,50,9,1,18568,0.1,0.36,0.18,0.49781132075471696
BDI,BI,701.0,6376.0,6376.0,murira,10299.0,29.3264765,-3.1817359,3,,,2014.0,,,50,0,50,2,50,0,1,2147,0.0,0.04,0.0,0.03773584905660377
BDI,BI,704.0,,3520.0,murungurira,,30.024401,-2.55958,4,,,2007.0,10.0,16.0,60,7,60,1,60,1,1,31277,0.11666666666666667,0.016666666666666666,0.016666666666666666,0.1376091893780573
BDI,BI,710.0,6402.0,6402.0,murungurira,50203.0,30.0961296,-2.5848378,1,,,2007.0,,,60,7,60,1,60,1,1,2131,0.11666666666666667,0.016666666666666666,0.016666666666666666,0.1376091893780573
BDI,BI,703.0,6382.0,6382.0,musaga ii,,29.3763463,-3.4128068,4,school,mapping,2014.0,12.0,14.0,50,0,50,0,50,2,1,23265,0.0,0.0,0.04,0.03773584905660377
BDI,BI,703.0,6382.0,6382.0,musaga ii,10184.0,29.3763463,-3.4128068,4,,,2014.0,,,50,0,50,0,50,0,1,18522,0.0,0.0,0.0,0.0
BDI,BI,713.0,6409.0,6409.0,musenga,,30.34222222,-2.921388889,3,school,mapping,2014.0,13.0,14.0,50,7,50,2,50,2,1,23531,0.14,0.04,0.04,0.19568301886792452
BDI,BI,713.0,6409.0,6409.0,musenga,,30.34222222,-2.921388889,3,school,sentinel site,2008.0,6.0,20.0,300,63,300,55,300,27,1,23528,0.21,0.18333333333333332,0.09,0.3895267295597484
BDI,BI,713.0,6409.0,6409.0,musenga,,30.34222222,-2.921388889,3,school,sentinel site,2011.0,6.0,18.0,437,72,437,28,437,19,1,23530,0.16475972540045766,0.06407322654462243,0.043478260869565216,0.23798514455083955
BDI,BI,713.0,6409.0,6409.0,musenga,,30.34222222,-2.921388889,3,school,sentinel site,2009.0,5.0,18.0,307,56,307,14,307,8,1,23529,0.18241042345276873,0.04560260586319218,0.026058631921824105,0.22644181968625768
BDI,BI,704.0,6383.0,6383.0,musenyi,,29.40444444,-3.195833333,4,school,mapping,2007.0,10.0,16.0,60,7,60,4,60,0,1,23283,0.11666666666666667,0.06666666666666667,0.0,0.16561844863731656
BDI,BI,701.0,6376.0,6376.0,musenyi,,29.40444444,-3.195833333,3,school,sentinel site,2009.0,6.0,18.0,385,22,385,25,385,0,1,23216,0.05714285714285714,0.06493506493506493,0.0,0.11166730843280706
BDI,BI,701.0,6376.0,6376.0,musenyi,,29.40444444,-3.195833333,3,school,sentinel site,2011.0,4.0,17.0,370,32,370,4,370,4,1,23218,0.08648648648648649,0.010810810810810811,0.010810810810810811,0.10012392866149222
BDI,BI,701.0,6376.0,6376.0,musenyi,,29.40444444,-3.195833333,3,school,sentinel site,2008.0,6.0,18.0,243,35,243,2,243,3,1,23215,0.1440329218106996,0.00823045267489712,0.012345679012345678,0.1524136206280052
BDI,BI,701.0,6376.0,6376.0,musenyi,,29.40444444,-3.195833333,3,school,sentinel site,2010.0,6.0,20.0,387,40,387,3,387,9,1,23217,0.10335917312661498,0.007751937984496124,0.023255813953488372,0.12358523130447564
BDI,BI,705.0,6386.0,6386.0,musenyi,,30.02911,-2.949275,1,,,2007.0,10.0,16.0,60,7,60,4,60,0,1,31282,0.11666666666666667,0.06666666666666667,0.0,0.16561844863731656
BDI,BI,701.0,6376.0,6376.0,musenyi i,,29.40444444,-3.195833333,3,school,mapping,2014.0,12.0,16.0,50,1,50,0,50,1,1,23219,0.02,0.0,0.02,0.03735849056603773
BDI,BI,715.0,6412.0,6412.0,mushitsi i,,29.80519444,-2.857916667,3,school,mapping,2016.0,12.0,15.0,50,0,50,5,50,9,1,23563,0.0,0.1,0.18,0.2471698113207547
BDI,BI,704.0,6384.0,6384.0,musho,,29.5528,-3.7267,3,school,mapping,2014.0,12.0,16.0,50,1,50,7,50,1,1,23328,0.02,0.14,0.02,0.16420377358490562
BDI,BI,701.0,6375.0,6375.0,musigati i,,29.4614578,-3.0684445,1,school,mapping,2014.0,13.0,14.0,50,4,50,3,50,0,1,23204,0.08,0.06,0.0,0.12754716981132075
BDI,BI,707.0,6390.0,6390.0,musinzira,10232.0,29.9334776,-3.4279647,3,,,2014.0,,,50,0,50,3,50,3,1,2191,0.0,0.06,0.06,0.10981132075471696
BDI,BI,712.0,6405.0,6405.0,musongati,,29.6519444,-3.3733333,1,school,mapping,2014.0,12.0,16.0,50,0,50,11,50,0,1,23506,0.0,0.22,0.0,0.20754716981132074
BDI,BI,703.0,6380.0,6380.0,mutanga  sud,10175.0,29.3915246,-3.380529,3,,,2014.0,,,50,4,50,0,50,3,1,18509,0.08,0.0,0.06,0.12754716981132075
BDI,BI,707.0,6392.0,6392.0,mutoyi i,,29.9786581,-3.2138714,3,school,mapping,2014.0,13.0,14.0,50,3,50,15,50,2,1,23416,0.06,0.3,0.04,0.3474716981132075
BDI,BI,716.0,6415.0,6415.0,mutwana,,30.1837,-3.672,1,school,mapping,2014.0,13.0,14.0,50,4,50,0,50,0,1,23593,0.08,0.0,0.0,0.07547169811320754
BDI,BI,711.0,6404.0,6404.0,mutwazi ii,,29.7409,-4.3168,3,school,mapping,2014.0,12.0,16.0,50,2,50,0,50,0,1,23499,0.04,0.0,0.0,0.03773584905660377
BDI,BI,716.0,6415.0,6415.0,muzye i,,30.115,-3.9669444,1,school,mapping,2014.0,13.0,14.0,50,10,50,2,50,1,1,23597,0.2,0.04,0.02,0.23335849056603775
BDI,BI,716.0,6415.0,6415.0,muzye i,10227.0,30.115,-3.9669444,1,,,2014.0,,,50,9,50,2,50,1,1,2242,0.18,0.04,0.02,0.2156075471698113
BDI,BI,711.0,6404.0,6404.0,mvugo,,29.5694893,-4.2932228,1,,,2007.0,10.0,16.0,54,8,54,0,54,0,1,31273,0.14814814814814814,0.0,0.0,0.1397624039133473
BDI,BI,705.0,6387.0,6387.0,mwiruzi,,30.7809066,-3.0624478,3,school,mapping,2014.0,13.0,14.0,50,6,50,1,50,0,1,23372,0.12,0.02,0.0,0.12981132075471694
BDI,BI,701.0,6376.0,6376.0,ndava busongo,,29.3458,-3.183,3,school,mapping,2014.0,12.0,14.0,50,6,50,2,50,0,1,23220,0.12,0.04,0.0,0.14641509433962263
BDI,BI,701.0,6376.0,6376.0,ndava busongo,10301.0,29.3458,-3.183,3,,,2014.0,,,50,0,50,2,50,6,1,2148,0.0,0.04,0.12,0.14641509433962263
BDI,BI,717.0,6417.0,6417.0,nkongwe,,30.1397522,-3.3519101,3,school,mapping,2014.0,12.0,15.0,50,0,50,25,50,5,1,23612,0.0,0.5,0.1,0.5188679245283018
BDI,BI,713.0,6408.0,6408.0,nonwe,,30.4131,-2.5082,3,school,mapping,2014.0,13.0,14.0,50,5,50,3,50,1,1,23521,0.1,0.06,0.02,0.1612452830188679
BDI,BI,714.0,6411.0,6411.0,nyabihanga iii,,29.76836111,-3.459527778,3,school,mapping,2016.0,11.0,14.0,49,0,49,1,49,0,1,23550,0.0,0.02040816326530612,0.0,0.01925298421255294
BDI,BI,702.0,6379.0,6379.0,nyabisaka,,29.5726,-3.4279,3,school,mapping,2014.0,12.0,15.0,50,0,50,4,50,0,1,23242,0.0,0.08,0.0,0.07547169811320754
BDI,BI,704.0,,3529.0,nyabitwe,,29.709,-3.15793,4,,,2007.0,10.0,16.0,60,11,60,37,60,27,1,31274,0.18333333333333332,0.6166666666666667,0.45,0.7809617400419286
BDI,BI,717.0,6419.0,6419.0,nyagutoha,,30.35362,-3.44427,3,school,mapping,2014.0,12.0,16.0,50,2,50,5,50,1,1,23625,0.04,0.1,0.02,0.14460377358490564
BDI,BI,717.0,6419.0,6419.0,nyagutoha,10360.0,30.35362,-3.44427,3,,,2014.0,,,50,1,50,5,50,1,1,2255,0.02,0.1,0.02,0.1279622641509434
BDI,BI,714.0,6410.0,6410.0,nyakigwa,,29.59647222,-3.507277778,3,school,mapping,2016.0,12.0,14.0,50,0,50,8,50,0,1,23537,0.0,0.16,0.0,0.1509433962264151
BDI,BI,716.0,6415.0,6415.0,nyakuguma,,29.5280556,-4.1622222,1,school,mapping,2014.0,13.0,14.0,50,3,50,3,50,1,1,23598,0.06,0.06,0.02,0.12648301886792454
BDI,BI,705.0,6386.0,6386.0,nyamashishi,,30.6390558,-3.007784,3,school,mapping,2014.0,13.0,14.0,50,0,50,0,50,0,1,23368,0.0,0.0,0.0,0.0
BDI,BI,705.0,6386.0,6386.0,nyamashishi,10205.0,30.6390558,-3.007784,3,,,2014.0,,,50,1,50,0,50,1,1,2180,0.02,0.0,0.02,0.03735849056603773
BDI,BI,704.0,6385.0,6385.0,nyamibu,,29.3979,-3.894,3,school,mapping,2014.0,13.0,14.0,50,0,50,6,50,1,1,23359,0.0,0.12,0.02,0.12981132075471694
BDI,BI,704.0,6385.0,6385.0,nyamibu,10350.0,29.3979,-3.894,3,,,2014.0,,,50,0,50,7,50,1,1,18536,0.0,0.14,0.02,0.14830188679245282
BDI,BI,709.0,6397.0,6397.0,nyamisagara,,29.5293,-2.8604000000000003,3,school,mapping,2014.0,12.0,14.0,50,0,50,23,50,1,1,23444,0.0,0.46,0.02,0.4441509433962264
BDI,BI,714.0,6410.0,6410.0,nyamiyaga,,29.65252778,-3.569972222,3,school,mapping,2016.0,11.0,14.0,50,0,50,9,50,5,1,23539,0.0,0.18,0.1,0.2471698113207547
BDI,BI,708.0,6394.0,6394.0,nyamugari,,29.9994444,-3.5702778,1,school,mapping,2014.0,12.0,14.0,50,0,50,5,50,2,1,23427,0.0,0.1,0.04,0.12830188679245283
BDI,BI,715.0,6412.0,6412.0,nyamurenza ii,,29.86544444,-2.825444444,3,school,mapping,2016.0,12.0,15.0,50,0,50,3,50,9,1,23565,0.0,0.06,0.18,0.2162264150943396
BDI,BI,717.0,6418.0,6418.0,nyamusasa,,30.39111111,-3.675555556,3,school,mapping,2014.0,12.0,16.0,50,0,50,2,50,0,1,23622,0.0,0.04,0.0,0.03773584905660377
BDI,BI,717.0,6418.0,6418.0,nyamusasa,,30.39111111,-3.675555556,3,school,sentinel site,2009.0,6.0,16.0,372,6,372,8,372,3,1,23620,0.016129032258064516,0.021505376344086023,0.008064516129032258,0.04250128093643578
BDI,BI,717.0,6418.0,6418.0,nyamusasa,,30.39111111,-3.675555556,3,school,sentinel site,2008.0,6.0,18.0,300,29,300,5,300,7,1,23619,0.09666666666666666,0.016666666666666666,0.023333333333333334,0.124951607267645
BDI,BI,704.0,,3475.0,nyantakara,,30.0172,-4.17233,4,,,2007.0,10.0,16.0,60,15,60,1,60,0,1,31263,0.25,0.016666666666666666,0.0,0.24764150943396224
BDI,BI,704.0,,3433.0,nyanza tubiri,,29.6702,-2.83856,4,,,2007.0,10.0,16.0,60,1,60,8,60,31,1,31271,0.016666666666666666,0.13333333333333333,0.5166666666666667,0.5548043326345212
BDI,BI,704.0,,3525.0,nyarumuri,,30.280899,-3.6178,4,,,2007.0,10.0,16.0,60,26,60,9,60,6,1,31264,0.43333333333333335,0.15,0.1,0.5344339622641509
BDI,BI,715.0,6414.0,6414.0,nyaruntana,,29.85025,-2.943944444,3,school,mapping,2016.0,13.0,14.0,50,1,50,4,50,12,1,23589,0.02,0.08,0.24,0.29696603773584906
BDI,BI,709.0,6398.0,6398.0,nyarurama,,29.7223547,-3.1040813,3,school,mapping,2014.0,12.0,14.0,50,2,50,7,50,1,1,23456,0.04,0.14,0.02,0.1801056603773585
BDI,BI,704.0,6383.0,6383.0,nyundo,,29.6708,-3.9627,3,school,mapping,2014.0,10.0,14.0,50,0,50,6,50,1,1,23296,0.0,0.12,0.02,0.12981132075471694
BDI,BI,703.0,6381.0,6381.0,q2  1 ngagara,10181.0,29.3722343,-3.3540881,3,,,2014.0,,,50,0,50,0,50,0,1,18515,0.0,0.0,0.0,0.0
BDI,BI,704.0,,3458.0,rabiro,,30.7673,-3.17063,4,,,2007.0,10.0,16.0,60,17,60,2,60,0,1,31283,0.2833333333333333,0.03333333333333333,0.0,0.28983228511530396
BDI,BI,708.0,6395.0,6395.0,ramba,,30.0101,-3.1390000000000002,1,school,mapping,2014.0,12.0,15.0,50,0,50,12,50,1,1,23437,0.0,0.24,0.02,0.24075471698113204
BDI,BI,708.0,6395.0,6395.0,ramba,,30.0101,-3.1390000000000002,1,school,sentinel site,2008.0,7.0,16.0,300,21,300,128,300,19,1,23434,0.07,0.4266666666666667,0.06333333333333334,0.47223522012578617
BDI,BI,708.0,6395.0,6395.0,ramba,,30.0101,-3.1390000000000002,1,school,sentinel site,2009.0,6.0,14.0,340,3,340,75,340,12,1,23435,0.008823529411764706,0.22058823529411764,0.03529411764705882,0.24031257080752252
BDI,BI,708.0,6395.0,6395.0,ramba,,30.0101,-3.1390000000000002,1,school,sentinel site,2011.0,6.0,17.0,463,11,463,68,463,9,1,23436,0.023758099352051837,0.1468682505399568,0.019438444924406047,0.17294962282371798
BDI,BI,708.0,6395.0,6395.0,ramba,10338.0,30.0101,-3.1390000000000002,1,,,2014.0,,,50,0,50,11,50,1,1,18590,0.0,0.22,0.02,0.22226415094339622
BDI,BI,714.0,6410.0,6410.0,raro,,29.66588889,-3.494361111,3,school,mapping,2016.0,12.0,14.0,50,0,50,2,50,2,1,23541,0.0,0.04,0.04,0.07396226415094338
BDI,BI,709.0,6397.0,6397.0,remera ii,,29.5844311,-2.978015,3,school,mapping,2014.0,12.0,14.0,50,0,50,22,50,4,1,23445,0.0,0.44,0.08,0.4573584905660377
BDI,BI,710.0,6400.0,6400.0,rubuga ii,,30.0408121,-2.3813142,3,school,mapping,2014.0,13.0,14.0,50,2,50,2,50,0,1,23465,0.04,0.04,0.0,0.07396226415094338
BDI,BI,712.0,6405.0,6405.0,rubumba,,29.6519,-3.3393,3,school,mapping,2014.0,12.0,15.0,50,0,50,11,50,0,1,23507,0.0,0.22,0.0,0.20754716981132074
BDI,BI,710.0,6400.0,6400.0,rugasa i,,29.9949,-2.4717000000000002,3,school,mapping,2014.0,13.0,15.0,50,0,50,4,50,0,1,23466,0.0,0.08,0.0,0.07547169811320754
BDI,BI,701.0,6376.0,6376.0,rugazi i,,29.4092119,-3.2429276,3,school,mapping,2014.0,12.0,15.0,50,6,50,2,50,0,1,23221,0.12,0.04,0.0,0.14641509433962263
BDI,BI,701.0,6376.0,6376.0,rugazi i,10302.0,29.4092119,-3.2429276,3,,,2014.0,,,50,5,50,3,50,0,1,2146,0.1,0.06,0.0,0.14528301886792452
BDI,BI,701.0,6376.0,6376.0,rugenge,,30.3947222,-3.5122222,1,,,2007.0,10.0,16.0,60,31,60,5,60,1,1,31280,0.5166666666666667,0.08333333333333333,0.016666666666666666,0.5323855695317958
BDI,BI,705.0,6387.0,6387.0,ruhehe,,30.783333,-3.116667,1,school,mapping,2014.0,13.0,14.0,50,7,50,0,50,0,1,23373,0.14,0.0,0.0,0.1320754716981132
BDI,BI,709.0,6397.0,6397.0,ruhinga,,29.5,-3.666667,1,school,mapping,2014.0,12.0,14.0,50,0,50,25,50,2,1,23446,0.0,0.5,0.04,0.490566037735849
BDI,BI,704.0,6385.0,6385.0,rukinga i,,29.44083333,-3.964166667,3,school,mapping,2014.0,12.0,14.0,50,3,50,3,50,3,1,23360,0.06,0.06,0.06,0.1598264150943396
BDI,BI,704.0,6385.0,6385.0,rukinga i,10351.0,29.44083333,-3.964166667,3,,,2014.0,,,50,0,50,0,50,0,1,18538,0.0,0.0,0.0,0.0
BDI,BI,704.0,6384.0,6384.0,ruko,,29.5925594,-3.6180120000000002,3,school,mapping,2014.0,12.0,14.0,50,1,50,7,50,0,1,23334,0.02,0.14,0.0,0.14830188679245282
BDI,BI,704.0,6384.0,6384.0,ruko,,29.5925594,-3.6180120000000002,3,school,sentinel site,2008.0,6.0,18.0,268,0,268,89,268,10,1,23330,0.0,0.332089552238806,0.03731343283582089,0.3368033810110248
BDI,BI,704.0,6384.0,6384.0,ruko,,29.5925594,-3.6180120000000002,3,school,sentinel site,2007.0,6.0,19.0,299,2,299,68,299,22,1,23329,0.006688963210702341,0.22742474916387959,0.07357859531772576,0.27269551339874853
BDI,BI,704.0,6384.0,6384.0,ruko,,29.5925594,-3.6180120000000002,3,school,sentinel site,2009.0,5.0,20.0,360,9,360,73,360,10,1,23331,0.025,0.20277777777777778,0.027777777777777776,0.23047147973445145
BDI,BI,704.0,6384.0,6384.0,ruko,,29.5925594,-3.6180120000000002,3,school,sentinel site,2010.0,5.0,18.0,360,3,360,73,360,1,1,23332,0.008333333333333333,0.20277777777777778,0.002777777777777778,0.1996390077839894
BDI,BI,704.0,6384.0,6384.0,ruko,,29.5925594,-3.6180120000000002,3,school,sentinel site,2011.0,6.0,17.0,331,0,331,57,331,2,1,23333,0.0,0.17220543806646527,0.006042296072507553,0.16717662065743336
BDI,BI,706.0,6389.0,6389.0,rurinzi,,29.1230716,-2.8878427,2,school,mapping,2014.0,13.0,14.0,50,1,50,20,50,0,1,23398,0.02,0.4,0.0,0.38867924528301884
BDI,BI,710.0,6401.0,6401.0,rusara,,30.3991,-2.4732,3,school,mapping,2014.0,13.0,14.0,50,5,50,1,50,7,1,23475,0.1,0.02,0.14,0.22781132075471694
BDI,BI,710.0,6401.0,6401.0,rusara,10308.0,30.3991,-2.4732,3,,,2014.0,,,50,5,50,1,50,6,1,18625,0.1,0.02,0.12,0.2111698113207547
BDI,BI,706.0,6388.0,6388.0,rusororo,,29.1230716,-2.8878427,2,school,mapping,2014.0,13.0,14.0,50,6,50,5,50,0,1,23393,0.12,0.1,0.0,0.1962264150943396
BDI,BI,706.0,6388.0,6388.0,rusororo,10213.0,29.1230716,-2.8878427,2,,,2014.0,,,50,5,50,5,50,0,1,2188,0.1,0.1,0.0,0.1792452830188679
BDI,BI,714.0,6411.0,6411.0,rutega,,29.67741667,-3.608694444,3,school,mapping,2016.0,11.0,14.0,48,0,48,0,48,0,1,23552,0.0,0.0,0.0,0.0
BDI,BI,705.0,6386.0,6386.0,rutoke i,10206.0,30.6469444,-3.1752778,1,,,2014.0,,,50,7,50,9,50,0,1,18542,0.14,0.18,0.0,0.2781132075471698
BDI,BI,717.0,6419.0,6419.0,ruvyagira,,29.7105556,-4.3113889,1,school,mapping,2014.0,12.0,15.0,50,6,50,16,50,9,1,23626,0.12,0.32,0.18,0.48048301886792444
BDI,BI,704.0,,3532.0,ruvyagira,,29.0767,-2.77653,4,,,2007.0,10.0,16.0,60,17,60,0,60,2,1,31262,0.2833333333333333,0.0,0.03333333333333333,0.28983228511530396
BDI,BI,704.0,,3472.0,ruyaga,,29.4095,-3.41623,4,,,2007.0,10.0,16.0,60,21,60,19,60,28,1,31269,0.35,0.31666666666666665,0.4666666666666667,0.7199161425576519
BDI,BI,717.0,6419.0,6419.0,ruyigi i,,30.2483881,-3.4750027,3,school,mapping,2014.0,12.0,16.0,50,0,50,2,50,0,1,23627,0.0,0.04,0.0,0.03773584905660377
BDI,BI,715.0,6413.0,6413.0,ruyumpu,,29.94705,-2.79925,3,,,2007.0,10.0,16.0,60,12,60,2,60,13,1,31279,0.2,0.03333333333333333,0.21666666666666667,0.3719077568134172
BDI,BI,715.0,6413.0,6413.0,ruyumpu,,29.94705,-2.79925,3,school,mapping,2014.0,13.0,14.0,50,7,50,17,50,11,1,23574,0.14,0.34,0.22,0.5257283018867925
BDI,BI,701.0,6375.0,6375.0,ruzibira,,29.41805556,-2.9847222220000003,3,school,mapping,2014.0,12.0,15.0,50,6,50,2,50,2,1,23210,0.12,0.04,0.04,0.17829433962264152
BDI,BI,701.0,6375.0,6375.0,ruzibira,,29.41805556,-2.9847222220000003,3,school,sentinel site,2011.0,6.0,19.0,400,38,400,34,400,13,1,23209,0.095,0.085,0.0325,0.18758248820754717
BDI,BI,701.0,6375.0,6375.0,ruzibira,,29.41805556,-2.9847222220000003,3,school,sentinel site,2008.0,6.0,21.0,281,58,281,23,281,4,1,23206,0.20640569395017794,0.08185053380782918,0.014234875444839857,0.26578668432497504
BDI,BI,701.0,6375.0,6375.0,ruzibira,,29.41805556,-2.9847222220000003,3,school,sentinel site,2010.0,7.0,18.0,454,50,454,18,454,4,1,23208,0.11013215859030837,0.039647577092511016,0.00881057268722467,0.14428552924868146
BDI,BI,711.0,6403.0,6403.0,rweza,,29.8677778,-2.9050000000000002,1,school,mapping,2014.0,12.0,16.0,50,5,50,0,50,2,1,23490,0.1,0.0,0.04,0.12830188679245283
BDI,BI,711.0,6403.0,6403.0,rweza,10290.0,29.8677778,-2.9050000000000002,1,,,2014.0,,,50,4,50,0,50,2,1,2221,0.08,0.0,0.04,0.11018867924528301
BDI,BI,715.0,6413.0,6413.0,rwimbogo,,30.01280556,-2.802666667,3,school,mapping,2016.0,13.0,14.0,50,2,50,14,50,6,1,23575,0.04,0.28,0.12,0.36956981132075467
BDI,BI,709.0,6396.0,6396.0,sakinyinya,,29.7569,-3.0094,3,school,mapping,2014.0,12.0,14.0,50,0,50,15,50,1,1,23442,0.0,0.3,0.02,0.2962264150943396
BDI,BI,711.0,6404.0,6404.0,vugizo,,29.70861111,-4.173888889,3,school,sentinel site,2008.0,6.0,16.0,300,37,300,35,300,23,1,23500,0.12333333333333334,0.11666666666666667,0.07666666666666666,0.26884993011879804
BDI,BI,711.0,6404.0,6404.0,vugizo,,29.70861111,-4.173888889,3,school,sentinel site,2011.0,5.0,20.0,502,17,502,28,502,9,1,23502,0.03386454183266932,0.055776892430278883,0.017928286852589643,0.09821472534481271
BDI,BI,711.0,6404.0,6404.0,vugizo,,29.70861111,-4.173888889,3,school,sentinel site,2009.0,5.0,16.0,329,30,329,16,329,16,1,23501,0.0911854103343465,0.0486322188449848,0.0486322188449848,0.16738803736042537
BDI,BI,713.0,6408.0,6408.0,vumasi,,30.4070345,-2.4125486,3,school,mapping,2014.0,13.0,14.0,50,4,50,0,50,5,1,23522,0.08,0.0,0.1,0.1622641509433962
BDI,BI,713.0,6408.0,6408.0,vumasi,10239.0,30.4070345,-2.4125486,3,,,2014.0,,,50,4,50,0,50,6,1,2235,0.08,0.0,0.12,0.17962264150943397
BDI,BI,710.0,6400.0,6400.0,yaranda,,30.11166667,-2.517222222,3,school,mapping,2014.0,12.0,14.0,50,19,50,0,50,0,1,23470,0.38,0.0,0.0,0.3584905660377358
BDI,BI,710.0,6400.0,6400.0,yaranda,,30.11166667,-2.517222222,3,school,sentinel site,2011.0,6.0,19.0,398,34,398,9,398,9,1,23469,0.08542713567839195,0.022613065326633167,0.022613065326633167,0.1191717547512257
BDI,BI,710.0,6400.0,6400.0,yaranda,,30.11166667,-2.517222222,3,school,sentinel site,2009.0,6.0,20.0,273,28,273,0,273,10,1,23468,0.10256410256410256,0.0,0.03663003663003663,0.1277709550568767
