iso3,iso2,admin1_id,admin2_id,iu_id,location,site_id,longitude,latitude,georeliability,location_type,survey_type,year,age_start,age_end,hk_examined,hk_positive,hk_perc_highinfection,hk_perc_moderateinfection,asc_examined,asc_positive,asc_perc_highinfection,asc_perc_moderateinfection,tt_examined,tt_positive,tt_perc_highinfection,tt_perc_moderateinfection,quality,sn
MRT,MR,3226.0,31058.0,31058.0,adelbegrou,13381.0,-7.033361111,15.53516667,3,,,2015,,,0,0,,,0,0,,,0,0,,,1,9514
MRT,MR,3227.0,31067.0,31067.0,agargar,13505.0,-10.36677778,16.15180556,3,,,2015,,,109,2,,,109,2,,,109,0,,,1,9547
MRT,MR,3227.0,31067.0,31067.0,agarghar,13506.0,-10.36677778,16.15175,3,,,2015,,,0,0,,,0,0,,,0,0,,,1,9545
MRT,MR,3221.0,31043.0,31043.0,aghmamine   ecole aghmamine,13438.0,-11.5499999,15.8666667,3,,,2015,,,50,1,,,50,1,,,50,0,,,1,9501
MRT,MR,3221.0,31043.0,31043.0,aguamine,13439.0,-11.52701,15.92703,1,,,2015,,,0,0,,,0,0,,,0,0,,,1,9497
MRT,MR,3228.0,31068.0,31068.0,akjoujt ville,13377.0,-14.3879205,19.7461122,1,,,2015,,,0,0,,,0,0,,,0,0,,,1,9553
MRT,MR,3228.0,31068.0,31068.0,akjoujt ville   ecole 1,13373.0,-14.3883752,19.7461659,1,,,2015,,,50,3,,,50,1,,,50,0,,,1,9551
MRT,MR,3228.0,31068.0,31068.0,akjoujt ville   ecole 4,13374.0,-14.3856927,19.7503366,1,,,2015,,,26,0,,,26,0,,,26,0,,,1,9550
MRT,MR,3228.0,31068.0,31068.0,akjoujt ville   ecole 5,13375.0,-14.3879205,19.7461122,1,,,2015,,,49,2,,,49,0,,,49,0,,,1,9548
MRT,MR,3228.0,31068.0,31068.0,akjoujt ville   ecole 8,13376.0,-14.3879205,19.7461122,1,,,2015,,,47,1,,,47,0,,,47,0,,,1,9549
MRT,MR,3228.0,31068.0,31068.0,al asma,13378.0,-14.38319444,19.74536111,3,,,2015,,,0,0,,,0,0,,,0,0,,,1,9554
MRT,MR,3220.0,31036.0,31036.0,amdeir,13391.0,-13.02989166,20.50180833,3,,,2015,,,49,3,,,49,0,,,49,0,,,1,9479
MRT,MR,3220.0,31035.0,31035.0,aoujeft,13387.0,-13.0594443,19.9622222,3,,,2015,,,0,0,,,0,0,,,0,0,,,1,9474
MRT,MR,3220.0,31035.0,31035.0,aoujeft   ecole 1,13384.0,-13.0594443,19.9622222,3,,,2015,,,51,4,,,51,0,,,51,0,,,1,9471
MRT,MR,3220.0,31035.0,31035.0,aoujeft   ecole 2,13385.0,-13.0594443,19.9622222,3,,,2015,,,48,0,,,48,0,,,48,0,,,1,9475
MRT,MR,3220.0,31035.0,31035.0,aoujeft   ecole 3,13386.0,-13.0594443,19.9622222,3,,,2015,,,50,0,,,50,0,,,50,0,,,1,9476
MRT,MR,3228.0,31068.0,31068.0,asma   ecole asma,13379.0,-14.37513889,19.74536111,3,,,2015,,,50,3,,,50,2,,,50,0,,,1,9552
MRT,MR,3220.0,31036.0,31036.0,atar ville,13394.0,-12.99016667,20.57394444,3,,,2015,,,0,0,,,0,0,,,0,0,,,1,9478
MRT,MR,3223.0,31051.0,31051.0,bagdad   ecole bagdad,13468.0,-17.03855556,20.94055556,3,,,2015,,,52,3,,,52,1,,,52,0,,,1,9510
MRT,MR,3229.0,31074.0,31074.0,basra   ecole ahmed zeina,13486.0,-15.99002778,18.07744444,3,,,2015,,,50,8,,,50,1,,,50,1,,,1,9570
MRT,MR,3229.0,31074.0,31074.0,basra   ecole sakho,13487.0,-15.99002778,18.07744444,3,,,2015,,,50,9,,,50,0,,,50,0,,,1,9567
MRT,MR,3226.0,31059.0,31059.0,bassiknou,13405.0,-5.9541824,15.861876,1,,,2015,,,0,0,,,0,0,,,0,0,,,1,9518
MRT,MR,3226.0,31060.0,31060.0,bneibarie,13424.0,-8.6672,15.8936801,1,,,2015,,,0,0,,,0,0,,,0,0,,,1,9521
MRT,MR,3221.0,31044.0,31044.0,boughara,13448.0,-12.03712963,16.61425,3,,,2015,,,0,0,,,0,0,,,0,0,,,1,9507
MRT,MR,3221.0,31044.0,31044.0,boughara   ecole boughara,13447.0,-11.9725,16.55941667,3,,,2015,,,116,0,,,116,2,,,116,0,,,1,9506
MRT,MR,3223.0,31051.0,31051.0,boulenoir   ecole boulenoir,13469.0,-16.4999999,21.2666667,3,,,2015,,,48,2,,,48,1,,,48,0,,,1,9511
MRT,MR,3232.0,31084.0,31084.0,breun,,-14.39,17.51,3,,,1994,5.0,14.0,100,0,,,100,4,,,100,9,,,3,30607
MRT,MR,3223.0,31051.0,31051.0,cansado   ecole cansado,13470.0,-17.0347509,20.8518138,1,,,2015,,,35,2,,,35,0,,,35,0,,,1,9512
MRT,MR,3220.0,31037.0,31037.0,chinghitty   chinghitty 2,13414.0,-12.35666667,20.46,3,,,2015,,,82,7,,,82,0,,,82,0,,,1,9482
MRT,MR,3220.0,31037.0,31037.0,chinghitty   chinghitty 3,13415.0,-12.35666667,20.46,3,,,2015,,,69,6,,,69,3,,,69,2,,,1,9484
MRT,MR,3220.0,31037.0,31037.0,chinghitty   chinghitty1,13416.0,-12.35666667,20.46,3,,,2015,,,104,10,,,104,3,,,104,3,,,1,9483
MRT,MR,3220.0,31037.0,31037.0,chinguitty,13417.0,-12.3664341,20.4615121,1,,,2015,,,0,0,,,0,0,,,0,0,,,1,9481
MRT,MR,3229.0,31074.0,31074.0,couve   ecole hafez,13488.0,-15.99002778,18.07744444,3,,,2015,,,50,3,,,50,2,,,50,0,,,1,9571
MRT,MR,3230.0,31078.0,31078.0,dar el barka,13458.0,-12.33185,16.69212,1,,,2015,,,50,1,,,50,3,,,50,0,,,1,9575
MRT,MR,3230.0,31078.0,31078.0,dar el barka,13459.0,-12.33185,16.69212,1,,,2015,,,0,0,,,0,0,,,0,0,,,1,9576
MRT,MR,3232.0,31084.0,31084.0,dar el mourad,,-14.39,17.51,3,,,1994,5.0,14.0,44,0,,,44,0,,,44,0,,,3,30605
MRT,MR,3229.0,31070.0,31070.0,dar naim,13423.0,-15.9288641,18.1047891,1,,,2015,,,0,0,,,0,0,,,0,0,,,1,9555
MRT,MR,3229.0,31070.0,31070.0,dar naim   ecole abdel aziz sy,13418.0,-15.9288641,18.1047891,1,,,2015,,,50,3,,,50,0,,,50,0,,,1,9558
MRT,MR,3229.0,31070.0,31070.0,dar naim   ecole ahmed deyd,13419.0,-15.9288641,18.1047891,1,,,2015,,,51,5,,,51,1,,,51,0,,,1,9559
MRT,MR,3229.0,31070.0,31070.0,dar naim   ecole hamoudy,13420.0,-15.9288641,18.1047891,1,,,2015,,,35,3,,,35,1,,,35,0,,,1,9560
MRT,MR,3229.0,31070.0,31070.0,dar naim   ecole slm ibn veriz,13421.0,-15.9288641,18.1047891,1,,,2015,,,50,6,,,50,3,,,50,0,,,1,9557
MRT,MR,3229.0,31070.0,31070.0,dar naim   ecole zd ibn hariz,13422.0,-15.9288641,18.1047891,1,,,2015,,,49,6,,,49,0,,,49,0,,,1,9556
MRT,MR,3220.0,31038.0,31038.0,ecole 1,13474.0,-11.61858333,21.01563889,3,,,2015,,,0,0,,,0,0,,,0,0,,,1,9487
MRT,MR,3227.0,31065.0,31065.0,eghligue ehawje,13453.0,-9.019166667,15.73833333,3,,,2015,,,0,0,,,0,0,,,0,0,,,1,9538
MRT,MR,3231.0,31082.0,31082.0,"el kousla,",13426.0,-12.7,22.68,3,,,2015,,,0,0,,,0,0,,,0,0,,,1,9584
MRT,MR,3231.0,31082.0,31082.0,fderik   ecole aiba,104709.0,-12.7106394,22.6786807,1,,,2015,7.0,0.0,114,2,,,114,1,,,114,1,,,1,919
MRT,MR,3231.0,31082.0,31082.0,fderik   ecole cheikh el welly,104710.0,-12.7106394,22.6786807,1,,,2015,6.0,0.0,113,3,,,113,2,,,113,0,,,1,920
MRT,MR,3232.0,31088.0,31088.0,gani,,-15.447,16.59,3,,,1994,5.0,14.0,37,2,,,37,1,,,37,2,,,3,30610
MRT,MR,3232.0,31089.0,31089.0,garak,,-15.76,16.55,1,,,1994,5.0,14.0,94,0,,,94,5,,,94,12,,,3,29108
MRT,MR,3221.0,31043.0,31043.0,garalla,13442.0,-11.52701,15.766667,1,,,2015,,,0,0,,,0,0,,,0,0,,,1,9498
MRT,MR,3221.0,31043.0,31043.0,garalla   ecole garalla,13440.0,-11.5,15.766667,1,,,2015,,,100,2,,,100,4,,,100,0,,,1,9500
MRT,MR,3230.0,31080.0,31080.0,ghoudiya   ghoudiya,13496.0,-11.68833333,17.825833330000002,3,,,2015,,,151,10,,,151,5,,,151,0,,,1,9577
MRT,MR,3230.0,31080.0,31080.0,ghoudya,13497.0,-11.75277778,17.825,3,,,2015,,,0,0,,,0,0,,,0,0,,,1,9581
MRT,MR,3227.0,31064.0,31064.0,gligue smalil,13369.0,-9.5675,16.48583333,3,,,2015,,,0,0,,,0,0,,,0,0,,,1,9534
MRT,MR,3226.0,31059.0,31059.0,gneiba,13406.0,-5.9468,15.861876,1,,,2015,,,0,0,,,0,0,,,0,0,,,1,9519
MRT,MR,3227.0,31065.0,31065.0,gogui zemal,13456.0,-9.36528,15.8208315,1,,,2015,,,0,0,,,0,0,,,0,0,,,1,9539
MRT,MR,3227.0,31064.0,31064.0,goungelle,13371.0,-9.5499999,16.4,3,,,2015,,,0,0,,,0,0,,,0,0,,,1,9533
MRT,MR,3226.0,31063.0,31063.0,hay edebay,13502.0,-8.168583333,16.735,3,,,2015,,,128,3,,,128,2,,,128,0,,,1,9531
MRT,MR,3226.0,31063.0,31063.0,haye edebay,13503.0,-8.166777778,16.24013889,3,,,2015,,,0,0,,,0,0,,,0,0,,,1,9530
MRT,MR,3221.0,31040.0,31040.0,hseytine,13411.0,-11.56972222,17.35922222,4,,,2015,,,0,0,,,0,0,,,0,0,,,1,9491
MRT,MR,3221.0,31040.0,31040.0,hseytine   ecole hseytine,13410.0,-11.3434,17.8163547,1,,,2015,,,59,1,,,59,0,,,59,0,,,1,9492
MRT,MR,3231.0,31082.0,31082.0,kamour,13436.0,-12.0432676,17.0768602,1,,,2015,,,0,0,,,0,0,,,0,0,,,1,9583
MRT,MR,3221.0,31042.0,31042.0,kamour,13435.0,-11.8359,17.0768602,1,,,2015,,,0,0,,,0,0,,,0,0,,,1,9495
MRT,MR,3221.0,31042.0,31042.0,kamour   ecole kamour 1,13433.0,-12.0432676,17.0768602,1,,,2015,,,60,0,,,60,3,,,60,0,,,1,9494
MRT,MR,3221.0,31042.0,31042.0,kamour   ecole kamour 2,104716.0,-12.0432676,17.0768602,1,,,2015,8.0,0.0,50,3,,,50,1,,,50,0,,,1,921
MRT,MR,3221.0,31043.0,31043.0,kankossa,13446.0,-11.52404,15.92703,1,,,2015,,,0,0,,,0,0,,,0,0,,,1,9499
MRT,MR,3221.0,31043.0,31043.0,kankossa   ecole kankossa 3,13443.0,-11.52404,15.92703,1,,,2015,,,52,0,,,52,0,,,52,0,,,1,9503
MRT,MR,3221.0,31043.0,31043.0,kankossa   ecole kankossa 4,13444.0,-11.52404,15.92703,1,,,2015,,,50,0,,,50,0,,,50,5,,,1,9502
MRT,MR,3232.0,31085.0,31085.0,keur massene,,-16.2522143,16.7297191,1,,,1994,5.0,14.0,99,1,,,99,6,,,99,7,,,3,30606
MRT,MR,3221.0,31039.0,31039.0,lebheir,13403.0,-12.10324074,16.65046297,3,,,2015,,,100,2,,,100,5,,,100,0,,,1,9489
MRT,MR,3221.0,31039.0,31039.0,lebheir,13399.0,-12.10324074,16.65046297,3,,,2015,,,0,0,,,0,0,,,0,0,,,1,9490
MRT,MR,3220.0,31036.0,31036.0,lekseir,13395.0,-13.03729167,20.49275,3,,,2015,,,50,3,,,50,3,,,50,3,,,1,9480
MRT,MR,3232.0,31084.0,31084.0,lieourine,,-14.39,17.51,3,,,1994,5.0,14.0,21,0,,,21,0,,,21,0,,,3,30604
MRT,MR,3227.0,31067.0,31067.0,lieweynate,13507.0,-9.945111111,17.53361111,3,,,2015,,,142,3,,,142,2,,,142,0,,,1,9546
MRT,MR,3227.0,31066.0,31066.0,ligreire,13493.0,-10.63025,17.00555556,3,,,2015,,,0,0,,,0,0,,,0,0,,,1,9543
MRT,MR,3227.0,31067.0,31067.0,liweinatt,13508.0,-9.945111111,17.53361111,3,,,2015,,,0,0,,,0,0,,,0,0,,,1,9544
MRT,MR,3226.0,31061.0,31061.0,mahmouda,13464.0,-7.6873705999999995,16.3591648,1,,,2015,,,0,0,,,0,0,,,0,0,,,1,9523
MRT,MR,3232.0,31084.0,31084.0,mbagnik,,-14.39,17.51,3,,,1994,5.0,14.0,21,0,,,21,0,,,21,0,,,3,30603
MRT,MR,3226.0,31062.0,31062.0,mreihima,13479.0,-7.645138889,17.43583333,3,,,2015,,,0,0,,,0,0,,,0,0,,,1,9528
MRT,MR,3230.0,31078.0,31078.0,nbeika,13461.0,-12.28879625,18.09212964,3,,,2015,,,0,0,,,0,0,,,0,0,,,1,9572
MRT,MR,3230.0,31080.0,31080.0,nimlane,13498.0,-11.6698299,18.3490213,1,,,2015,,,50,1,,,50,2,,,50,0,,,1,9579
MRT,MR,3230.0,31080.0,31080.0,nimlane,13499.0,-11.6698299,18.3490213,1,,,2015,,,0,0,,,0,0,,,0,0,,,1,9582
MRT,MR,3220.0,31038.0,31038.0,ouadane   ecole 1,13475.0,-11.61858333,21.01563889,3,,,2015,,,120,1,,,120,1,,,120,4,,,1,9488
MRT,MR,3221.0,31044.0,31044.0,oumchgague,13450.0,-11.34268518,16.70227778,3,,,2015,,,0,0,,,0,0,,,0,0,,,1,9505
MRT,MR,3221.0,31044.0,31044.0,oumchghagh   ecole oumchghagh,13452.0,-11.33361111,16.62905556,3,,,2015,,,149,1,,,149,1,,,149,0,,,1,9504
MRT,MR,3226.0,31058.0,31058.0,oumecheich,13382.0,-7.2185,15.8482333,1,,,2015,,,0,0,,,0,0,,,0,0,,,1,9515
MRT,MR,3226.0,31063.0,31063.0,oumgouffa,13504.0,-8.151666667,15.77183333,3,,,2015,,,130,6,,,130,3,,,130,0,,,1,9529
MRT,MR,3229.0,31073.0,31073.0,pk 11,13480.0,-15.63355556,17.99158333,4,,,2015,,,50,6,,,50,1,,,50,0,,,1,9565
MRT,MR,3229.0,31073.0,31073.0,pk 12,13481.0,-15.96844444,17.98577778,3,,,2015,,,50,5,,,50,0,,,50,1,,,1,9562
MRT,MR,3229.0,31073.0,31073.0,pk 7,13482.0,-15.97013889,18.02563889,3,,,2015,,,50,1,,,50,3,,,50,0,,,1,9564
MRT,MR,3229.0,31073.0,31073.0,pk 8,13483.0,-15.97005556,18.01536111,3,,,2015,,,49,0,,,49,1,,,49,0,,,1,9566
MRT,MR,3229.0,31073.0,31073.0,pk 9,13484.0,-15.97019444,18.01541667,3,,,2015,,,49,6,,,49,0,,,49,0,,,1,9563
MRT,MR,3230.0,31080.0,31080.0,rachid,13500.0,-11.683333,18.8,1,,,2015,,,100,0,,,100,1,,,100,0,,,1,9580
MRT,MR,3230.0,31080.0,31080.0,racid,13501.0,-11.75277778,18.90277778,3,,,2015,,,0,0,,,0,0,,,0,0,,,1,9578
MRT,MR,3229.0,31073.0,31073.0,riad,13485.0,-15.97019444,18.01541667,3,,,2015,,,0,0,,,0,0,,,0,0,,,1,9561
MRT,MR,3232.0,31089.0,31089.0,rosso,,-15.802612,16.5163413,1,,,1994,5.0,14.0,232,1,,,232,1,,,232,0,,,3,29269
MRT,MR,3229.0,31074.0,31074.0,sebkha,13490.0,-15.99002778,18.07744444,3,,,2015,,,50,4,,,50,5,,,50,0,,,1,9568
MRT,MR,3230.0,31078.0,31078.0,siyassa,13462.0,-11.69368056,17.80655556,3,,,2015,,,50,5,,,50,4,,,50,0,,,1,9573
MRT,MR,3230.0,31078.0,31078.0,siyassa,13463.0,-11.69368056,17.80655556,3,,,2015,,,0,0,,,0,0,,,0,0,,,1,9574
MRT,MR,3221.0,31042.0,31042.0,takhtit,13437.0,-11.8359,16.833521,1,,,2015,,,45,1,,,45,1,,,45,0,,,1,9496
MRT,MR,3227.0,31066.0,31066.0,tamcheket,13494.0,-10.6696393,17.2455802,1,,,2015,,,0,0,,,0,0,,,0,0,,,1,9540
MRT,MR,3223.0,31051.0,31051.0,tarhil   ecole ensar,13472.0,-17.02011111,20.98633333,3,,,2015,,,50,0,,,50,1,,,50,1,,,1,9509
MRT,MR,3223.0,31051.0,31051.0,"tarhil, baghdad,",13473.0,-17.03,20.93,3,,,2015,,,0,0,,,0,0,,,0,0,,,1,9508
MRT,MR,3220.0,31038.0,31038.0,tenlabe,13477.0,-11.62138,20.9317455,1,,,2015,,,0,0,,,0,0,,,0,0,,,1,9485
MRT,MR,3220.0,31038.0,31038.0,tenlabe   ecole tenlabe,13476.0,-11.62138,20.9317455,1,,,2015,,,113,3,,,113,1,,,113,0,,,1,9486
MRT,MR,3220.0,31035.0,31035.0,tirebane,13388.0,-13.0270528,19.9570361,1,,,2015,,,0,0,,,0,0,,,0,0,,,1,9473
MRT,MR,3220.0,31035.0,31035.0,toungad,13390.0,-13.1351107,20.0584783,1,,,2015,,,50,2,,,50,0,,,50,0,,,1,9472
MRT,MR,3232.0,31089.0,31089.0,tounguene,,-15.767,16.517,3,,,1994,5.0,14.0,68,3,,,68,2,,,68,3,,,3,30609
MRT,MR,3226.0,31061.0,31061.0,werken,13467.0,-7.523472222,16.57447222,3,,,2015,,,0,0,,,0,0,,,0,0,,,1,9526
MRT,MR,3231.0,31083.0,31083.0,"zemla,, dragage,",13513.0,-12.45205,22.71873,3,,,2015,,,0,0,,,0,0,,,0,0,,,1,9585
MRT,MR,3231.0,31083.0,31083.0,zouerate   ecole14 zimle,104798.0,-12.4753205,22.7325323,1,,,2015,7.0,0.0,50,1,,,50,2,,,50,0,,,1,927
