iso3,iso2,admin1_id,admin2_id,iu_id,location,site_id,longitude,latitude,georeliability,location_type,survey_type,year,age_start,age_end,hk_examined,hk_positive,hk_perc_highinfection,hk_perc_moderateinfection,asc_examined,asc_positive,asc_perc_highinfection,asc_perc_moderateinfection,tt_examined,tt_positive,tt_perc_highinfection,tt_perc_moderateinfection,quality,sn,hk_prevalence,asc_prevalence,tt_prevalence,sth_prevalence
NGA,NG,3799.0,36845.0,36845.0,4th avenue,13940.0,3.2799237,6.4759676,1,,,2014.0,,,43,2,,,43,3,,,43,5,,,1,12056,0.046511627906976744,0.06976744186046512,0.11627906976744186,0.20393362777360766
NGA,NG,3808.0,37061.0,37061.0,500 estate model pri sch old airport,56445.0,5.2475518,13.0058731,1,,,2011.0,,,60,3,,,60,0,,,60,0,,,1,12927,0.05,0.0,0.0,0.04716981132075471
NGA,NG,3803.0,36920.0,36920.0,a.u.d,55763.0,5.7418599,7.5179701,3,,,2011.0,,,52,0,,,52,9,,,52,0,,,1,12309,0.0,0.17307692307692307,0.0,0.16328011611030477
NGA,NG,3803.0,36921.0,36921.0,a.u.d,55768.0,5.9078202,7.6883101,3,,,2011.0,,,50,0,,,50,4,,,50,0,,,1,12320,0.0,0.08,0.0,0.07547169811320754
NGA,NG,3803.0,36921.0,36921.0,a.u.d,55769.0,5.9078202,7.6883101,3,,,2011.0,,,50,0,,,50,0,,,50,0,,,1,12313,0.0,0.0,0.0,0.0
NGA,NG,3804.0,36943.0,36943.0,aagba,14194.0,4.6960756,7.8935611,1,,,2014.0,,,50,0,,,50,11,,,50,0,,,1,12463,0.0,0.22,0.0,0.20754716981132074
NGA,NG,3778.0,36408.0,36408.0,abaegbu,13950.0,6.79701,6.41364,3,,,2011.0,,,53,10,,,53,1,,,53,0,,,1,10468,0.18867924528301888,0.018867924528301886,0.0,0.19244073967100359
NGA,NG,3778.0,36408.0,36408.0,abaegbu pry sch,55803.0,6.7970099,6.41364,3,,,2011.0,,,53,10,,,53,1,,,53,0,,,1,10464,0.18867924528301888,0.018867924528301886,0.0,0.19244073967100359
NGA,NG,3798.0,36829.0,36829.0,abagyama,14357.0,7.94161,8.8891769,1,,,2012.0,,,59,3,,,59,0,,,59,0,,,1,11905,0.05084745762711865,0.0,0.0,0.04796929964822513
NGA,NG,3789.0,36613.0,36613.0,abaji,13825.0,6.9450688,8.4746755,1,,,2014.0,,,48,3,,,48,0,,,48,0,,,1,10921,0.0625,0.0,0.0,0.05896226415094339
NGA,NG,3785.0,36551.0,36551.0,abarigwe,14342.0,8.016667,6.5,1,,,2010.0,,,60,2,,,60,2,,,60,0,,,1,10778,0.03333333333333333,0.03333333333333333,0.0,0.06184486373165619
NGA,NG,3785.0,36551.0,36551.0,abarigwe isieke p/s,55911.0,8.0274274,6.3850252,2,,,2011.0,,,60,2,,,60,2,,,60,0,,,1,10779,0.03333333333333333,0.03333333333333333,0.0,0.06184486373165619
NGA,NG,3811.0,37103.0,37103.0,abarma,14555.0,7.416807333,12.18992,4,,,2009.0,,,60,4,,,60,5,,,60,0,,,1,13084,0.06666666666666667,0.08333333333333333,0.0,0.1362683438155136
NGA,NG,3811.0,37103.0,37103.0,abarma model pri sch,55997.0,6.62606,12.18992,3,,,2011.0,,,60,4,,,60,5,,,60,0,,,1,13081,0.06666666666666667,0.08333333333333333,0.0,0.1362683438155136
NGA,NG,3794.0,36722.0,36722.0,abasawa,14514.0,8.6621209,11.9935609,3,,,2013.0,,,50,16,,,50,0,,,50,0,,,1,11348,0.32,0.0,0.0,0.3018867924528302
NGA,NG,3804.0,36949.0,36949.0,abata egba,14658.0,3.8677076,7.0159061,2,,,2014.0,,,50,0,,,50,32,,,50,0,,,1,12496,0.0,0.64,0.0,0.6037735849056604
NGA,NG,3778.0,36415.0,36415.0,abatete,14640.0,6.9262805,6.1239333,1,,,2011.0,,,53,0,,,53,0,,,53,0,,,1,10510,0.0,0.0,0.0,0.0
NGA,NG,3779.0,36438.0,36438.0,abatiyo,15025.0,10.44286966,11.60330057,3,,,2014.0,,,50,12,,,50,5,,,50,0,,,1,10613,0.24,0.1,0.0,0.29811320754716975
NGA,NG,3779.0,36435.0,36435.0,abba korawa,14519.0,10.1993,11.3882479,1,,,2014.0,,,50,6,,,50,0,,,50,0,,,1,10598,0.12,0.0,0.0,0.11320754716981131
NGA,NG,3779.0,36427.0,36427.0,abbas,13930.0,10.7080828,10.156884,1,,,2014.0,,,50,11,,,50,1,,,50,0,,,1,10561,0.22,0.02,0.0,0.22226415094339622
NGA,NG,3808.0,37060.0,37060.0,abdul baki model pri sch,56426.0,5.5464201,12.5944,3,,,2011.0,,,60,9,,,60,0,,,60,0,,,1,12921,0.15,0.0,0.0,0.14150943396226412
NGA,NG,3795.0,36767.0,36767.0,abdulawa,14961.0,7.75376,13.1954564,1,,,2013.0,,,50,3,,,50,0,,,50,0,,,1,11575,0.06,0.0,0.0,0.056603773584905655
NGA,NG,3808.0,37056.0,37056.0,abdullahi fodio road,15758.0,5.2176562,13.0708301,1,,,2011.0,,,59,2,,,59,1,,,59,1,,,1,12879,0.03389830508474576,0.01694915254237288,0.01694915254237288,0.06261318811691628
NGA,NG,3808.0,37044.0,37044.0,abdulrahman model pri sch,55962.0,5.2475518,13.0058731,2,,,2011.0,,,61,6,,,61,0,,,61,0,,,1,12765,0.09836065573770492,0.0,0.0,0.09279307145066501
NGA,NG,3797.0,36823.0,36823.0,abejukolo,15525.0,7.5084806,7.8648896,1,,,2014.0,,,52,3,,,52,0,,,52,0,,,1,11859,0.057692307692307696,0.0,0.0,0.054426705370101594
NGA,NG,3802.0,36900.0,36900.0,abeokuta,55750.0,3.3657283,7.1376758,1,,,1998.0,,,1060,154,,,1060,640,,,1060,232,,,3,12243,0.14528301886792452,0.6037735849056604,0.2188679245283019,0.6938308323662397
NGA,NG,3802.0,36901.0,36901.0,abeokuta,,3.349,7.16,3,,,1998.0,6.0,13.0,1060,154,,,1060,640,,,1060,232,,,3,30648,0.14528301886792452,0.6037735849056604,0.2188679245283019,0.6938308323662397
NGA,NG,3802.0,36901.0,36901.0,abeokuta north local govt pri sch,55752.0,3.3586353,7.1731797,2,,,2011.0,,,50,4,,,50,11,,,50,0,,,1,12247,0.08,0.22,0.0,0.26641509433962257
NGA,NG,3777.0,36396.0,36396.0,abiakpo ikot out,15440.0,7.578377,5.305302,3,,,2014.0,,,48,41,,,48,3,,,48,0,,,1,10396,0.8541666666666666,0.0625,0.0,0.8144162735849055
NGA,NG,3804.0,36959.0,36959.0,abidemi,14837.0,4.2,7.266667,3,,,2014.0,,,50,0,,,50,34,,,50,0,,,1,12537,0.0,0.68,0.0,0.6415094339622641
NGA,NG,3798.0,36827.0,36827.0,abiodun model pry,55844.0,4.74089,8.1678104,3,,,2011.0,,,47,0,,,47,6,,,47,0,,,1,11887,0.0,0.1276595744680851,0.0,0.1204335608189482
NGA,NG,3781.0,36459.0,36459.0,abo mbayion,14509.0,8.716667,7.266667,3,,,2011.0,,,50,2,,,50,0,,,50,0,,,1,10678,0.04,0.0,0.0,0.03773584905660377
NGA,NG,3778.0,36410.0,36410.0,abogu pry sch,55832.0,7.0548,6.2672801,3,,,2011.0,,,60,0,,,60,18,,,60,0,,,1,10484,0.0,0.3,0.0,0.28301886792452824
NGA,NG,3798.0,36826.0,36826.0,aboto oja,13992.0,4.54338,8.159980000000001,3,,,2012.0,,,59,3,,,59,10,,,59,0,,,1,11873,0.05084745762711865,0.1694915254237288,0.0,0.19973657537142328
NGA,NG,3784.0,36527.0,36527.0,abraka,,6.1023468,5.7894321,1,,,2004.0,5.0,15.0,301,75,,,301,131,,,301,40,,,2,30641,0.24916943521594684,0.43521594684385384,0.132890365448505,0.5965056389744913
NGA,NG,3797.0,36816.0,36816.0,abugi,15243.0,6.25,8.566667,3,,,2014.0,,,50,16,,,50,0,,,50,0,,,1,11824,0.32,0.0,0.0,0.3018867924528302
NGA,NG,3795.0,36779.0,36779.0,abukur,15628.0,7.6629495,12.8746406,1,,,2013.0,,,46,2,,,46,0,,,46,0,,,1,11638,0.043478260869565216,0.0,0.0,0.04101722723543888
NGA,NG,3779.0,36433.0,36433.0,abutta,14479.0,10.423944,12.14300394,3,,,2014.0,,,50,8,,,50,0,,,50,0,,,1,10587,0.16,0.0,0.0,0.1509433962264151
NGA,NG,3778.0,36410.0,36410.0,achalla,14028.0,6.9880335,6.3367474999999995,1,,,2011.0,,,55,0,,,55,11,,,55,2,,,1,10479,0.0,0.2,0.03636363636363636,0.2161234991423671
NGA,NG,3777.0,36385.0,36385.0,achan ika,14724.0,7.5843171,5.0416361,1,,,2014.0,,,52,25,,,52,4,,,52,3,,,1,10344,0.4807692307692308,0.07692307692307693,0.057692307692307696,0.5173220772751865
NGA,NG,3797.0,36809.0,36809.0,acharu,14303.0,7.3086068,7.5139327,1,,,2014.0,,,51,22,,,51,0,,,51,0,,,1,11788,0.43137254901960786,0.0,0.0,0.4069552349241583
NGA,NG,3797.0,36807.0,36807.0,achele,13968.0,7.63196,7.4053197,1,,,2014.0,,,51,15,,,51,2,,,51,0,,,1,11778,0.29411764705882354,0.0392156862745098,0.0,0.30358425279101653
NGA,NG,3788.0,36608.0,36608.0,achi,15553.0,7.3613246,6.1234071,1,,,2010.0,,,61,5,,,61,4,,,61,0,,,1,10877,0.08196721311475409,0.06557377049180328,0.0,0.13411894753388467
NGA,NG,3794.0,36749.0,36749.0,achibia,15948.0,8.8442896,11.8091352,3,,,2013.0,,,50,7,,,50,0,,,50,0,,,1,11483,0.14,0.0,0.0,0.1320754716981132
NGA,NG,3804.0,36943.0,36943.0,ada,14195.0,4.7167596,7.8641421,1,,,2014.0,,,50,1,,,50,14,,,50,0,,,1,12464,0.02,0.28,0.0,0.2777358490566038
NGA,NG,3777.0,36403.0,36403.0,adadia,15884.0,8.066667,4.983333,1,,,2014.0,,,54,29,,,54,21,,,54,10,,,1,10434,0.5370370370370371,0.3888888888888889,0.18518518518518517,0.7259161483091912
NGA,NG,3794.0,36712.0,36712.0,adakawa,14241.0,8.5123765,12.0098608,1,,,2013.0,,,49,1,,,49,0,,,49,0,,,1,11302,0.02040816326530612,0.0,0.0,0.01925298421255294
NGA,NG,3795.0,36750.0,36750.0,adako,14057.0,7.42425,11.5576973,1,,,2013.0,,,50,11,,,50,1,,,50,0,,,1,11488,0.22,0.02,0.0,0.22226415094339622
NGA,NG,3779.0,36442.0,36442.0,adamami,15727.0,9.9,11.4333333,3,,,2014.0,,,50,8,,,50,1,,,50,0,,,1,10635,0.16,0.02,0.0,0.16679245283018865
NGA,NG,3788.0,36611.0,36611.0,adani,15909.0,7.0014657,6.7367367,1,,,2010.0,,,50,2,,,50,1,,,50,0,,,1,10899,0.04,0.02,0.0,0.055849056603773574
NGA,NG,3777.0,36388.0,36388.0,adatak,14754.0,7.71082,5.1744472,1,,,2014.0,,,48,23,,,48,4,,,48,0,,,1,10357,0.4791666666666667,0.08333333333333333,0.0,0.4929900419287211
NGA,NG,3778.0,36409.0,36409.0,adazi nnukwu,13955.0,7.0122134,6.101763,1,,,2011.0,,,50,1,,,50,0,,,50,0,,,1,10475,0.02,0.0,0.0,0.018867924528301886
NGA,NG,3799.0,36849.0,36849.0,addo,14419.0,3.583967,6.497937,3,,,2014.0,,,50,7,,,50,16,,,50,11,,,1,12078,0.14,0.32,0.22,0.5130716981132076
NGA,NG,3797.0,36822.0,36822.0,ade,15515.0,5.8459341,7.8425597,1,,,2014.0,,,41,17,,,41,0,,,41,0,,,1,11850,0.4146341463414634,0.0,0.0,0.3911642890013805
NGA,NG,3799.0,36850.0,36850.0,adeba,14606.0,3.7321622999999997,6.465152,1,,,2014.0,,,50,7,,,50,19,,,50,9,,,1,12079,0.14,0.38,0.18,0.5309207547169811
NGA,NG,3777.0,36379.0,36379.0,adiasm,14414.0,7.7164353,5.0830254,1,,,2014.0,,,54,20,,,54,2,,,54,2,,,1,10313,0.37037037037037035,0.037037037037037035,0.037037037037037035,0.39259048369486543
NGA,NG,3781.0,36465.0,36465.0,adikpo,,9.2314492,6.887796,1,,,2004.0,1.0,99.0,200,13,,,200,38,,,200,1,,,2,31656,0.065,0.19,0.005,0.23248749999999999
NGA,NG,3804.0,36944.0,36944.0,adogbe,14347.0,8.919474,7.739117,4,,,2014.0,,,50,2,,,50,25,,,50,0,,,1,12469,0.04,0.5,0.0,0.490566037735849
NGA,NG,3781.0,36473.0,36473.0,adoka,15583.0,8.5129208,7.2682709,1,,,2011.0,,,50,2,,,50,0,,,50,0,,,1,10732,0.04,0.0,0.0,0.03773584905660377
NGA,NG,3793.0,36694.0,36694.0,aduma,14966.0,10.84786237,8.026628494,4,,,2013.0,,,50,0,,,50,0,,,50,0,,,1,11217,0.0,0.0,0.0,0.0
NGA,NG,3777.0,36377.0,36377.0,afaha eket,14374.0,7.9259091999999995,4.6355623,1,,,2014.0,,,50,10,,,50,7,,,50,0,,,1,10303,0.2,0.14,0.0,0.2943396226415094
NGA,NG,3777.0,36403.0,36403.0,afaha ikot,15885.0,7.741411,4.983377,3,,,2014.0,,,54,20,,,54,22,,,54,12,,,1,10431,0.37037037037037035,0.4074074074074074,0.2222222222222222,0.669622957844093
NGA,NG,3777.0,36394.0,36394.0,afaha nsit,15411.0,7.8550515999999995,4.8286874,1,,,2014.0,,,50,20,,,50,5,,,50,5,,,1,10388,0.4,0.1,0.1,0.48490566037735844
NGA,NG,3777.0,36405.0,36405.0,afaha oku,15904.0,7.9253157,5.0555798,1,,,2014.0,,,49,8,,,49,6,,,49,1,,,1,10442,0.16326530612244897,0.12244897959183673,0.02040816326530612,0.2648187436982761
NGA,NG,3777.0,36402.0,36402.0,afahaik akwa,15874.0,7.94721,4.6307,3,,,2014.0,,,47,6,,,47,2,,,47,2,,,1,10429,0.1276595744680851,0.0425531914893617,0.0425531914893617,0.188982737129356
NGA,NG,3777.0,36395.0,36395.0,afia nsit attai,15416.0,7.9311687,4.789796,1,,,2014.0,,,54,24,,,54,8,,,54,1,,,1,10390,0.4444444444444444,0.14814814814814814,0.018518518518518517,0.5052008293719605
NGA,NG,3803.0,36921.0,36921.0,afin,13883.0,5.7010293,7.636295,1,,,2012.0,,,50,0,,,50,4,,,50,0,,,1,12316,0.0,0.08,0.0,0.07547169811320754
NGA,NG,3798.0,36826.0,36826.0,afon,13993.0,4.333333,8.45,3,,,2012.0,,,55,3,,,55,14,,,55,0,,,1,11881,0.05454545454545454,0.2545454545454545,0.0,0.27849680336815835
NGA,NG,3777.0,36384.0,36384.0,afua,14625.0,7.8638103,5.2677364,1,,,2014.0,,,51,15,,,51,3,,,51,0,,,1,10335,0.29411764705882354,0.058823529411764705,0.0,0.31664164000783446
NGA,NG,3797.0,36819.0,36819.0,agada,15470.0,6.113,7.274,4,,,2014.0,,,45,5,,,45,8,,,45,0,,,1,11838,0.1111111111111111,0.17777777777777778,0.0,0.25390170044258087
NGA,NG,3797.0,36821.0,36821.0,agassa,15489.0,6.2216678,7.5401614,1,,,2014.0,,,47,1,,,47,1,,,47,2,,,1,11849,0.02127659574468085,0.02127659574468085,0.0425531914893617,0.0781718668873858
NGA,NG,3797.0,36812.0,36812.0,agbanaka,14689.0,6.063293333,7.0772,4,,,2014.0,,,50,22,,,50,0,,,50,0,,,1,11805,0.44,0.0,0.0,0.4150943396226415
NGA,NG,3804.0,36948.0,36948.0,agbangbara,14653.0,5.312670667,7.481067,4,,,2014.0,,,52,0,,,52,31,,,52,5,,,1,12491,0.0,0.5961538461538461,0.09615384615384616,0.5990426482081053
NGA,NG,3788.0,36606.0,36606.0,agbani,15402.0,7.5626411000000004,6.3049636,1,,,2010.0,,,55,14,,,55,2,,,55,0,,,1,10864,0.2545454545454545,0.03636363636363636,0.0,0.26571027600187114
NGA,NG,3797.0,36823.0,36823.0,agbenema,15526.0,7.2712,7.4826,3,,,2014.0,,,52,14,,,52,0,,,52,0,,,1,11857,0.2692307692307692,0.0,0.0,0.25399129172714074
NGA,NG,3804.0,36960.0,36960.0,agberire,14852.0,4.05,7.65,3,,,2014.0,,,50,0,,,50,15,,,50,0,,,1,12541,0.0,0.3,0.0,0.28301886792452824
NGA,NG,3798.0,36832.0,36832.0,agbeyangi,14781.0,4.8114899,8.5872738,1,,,2012.0,,,56,2,,,56,4,,,56,0,,,1,11941,0.03571428571428571,0.07142857142857142,0.0,0.09867154408933383
NGA,NG,3804.0,36944.0,36944.0,agbongbe,14348.0,4.986553333,7.7440999999999995,4,,,2014.0,,,55,1,,,55,26,,,55,0,,,1,12468,0.01818181818181818,0.4727272727272727,0.0,0.45501325432714795
NGA,NG,3799.0,36854.0,36854.0,agboyi ketu,15131.0,3.4037093,6.5854014,1,,,2014.0,,,52,1,,,52,19,,,52,1,,,1,12101,0.019230769230769232,0.36538461538461536,0.019230769230769232,0.36750773997131586
NGA,NG,3798.0,36830.0,36830.0,agga osi,14378.0,5.22509,8.077155,1,,,2012.0,,,55,0,,,55,19,,,55,0,,,1,11921,0.0,0.34545454545454546,0.0,0.3259005145797598
NGA,NG,3799.0,36854.0,36854.0,agiliti,15132.0,3.394332,6.6148817,1,,,2014.0,,,51,0,,,51,11,,,51,1,,,1,12100,0.0,0.21568627450980393,0.0196078431372549,0.2179858254807657
NGA,NG,3803.0,36920.0,36920.0,agolo high sch,55764.0,5.7521801,7.53721,3,,,2011.0,,,48,1,,,48,8,,,48,0,,,1,12306,0.020833333333333332,0.16666666666666666,0.0,0.1736111111111111
NGA,NG,3778.0,36409.0,36409.0,agulu,13956.0,7.0390904,6.1172035,1,,,2011.0,,,52,4,,,52,1,,,52,0,,,1,10476,0.07692307692307693,0.019230769230769232,0.0,0.08931561906888467
NGA,NG,3801.0,36884.0,36884.0,agunu,15030.0,7.9374948,10.0082915,1,,,2013.0,,,50,0,,,50,0,,,50,0,,,1,12240,0.0,0.0,0.0,0.0
NGA,NG,3788.0,36600.0,36600.0,aguobu umumba,14435.0,7.282229,6.3368255,3,,,2010.0,,,60,4,,,60,1,,,60,0,,,1,10836,0.06666666666666667,0.016666666666666666,0.0,0.07756813417190775
NGA,NG,3779.0,36446.0,36446.0,agusha,15993.0,10.24296999,12.15499878,3,,,2014.0,,,50,3,,,50,0,,,50,0,,,1,10664,0.06,0.0,0.0,0.056603773584905655
NGA,NG,3779.0,36441.0,36441.0,agwarmaje,15392.0,9.38661,11.3227728,1,,,2014.0,,,50,6,,,50,1,,,50,0,,,1,10630,0.12,0.02,0.0,0.12981132075471694
NGA,NG,3800.0,36869.0,36869.0,agyaragu tasha,15199.0,8.55,8.4,3,,,2013.0,,,51,5,,,51,0,,,51,0,,,1,12203,0.09803921568627451,0.0,0.0,0.09248982611912689
NGA,NG,3788.0,36610.0,36610.0,ahani. pri. sch,56430.0,7.3041801,6.1921902,3,,,2011.0,,,61,5,,,61,4,,,61,0,,,1,10892,0.08196721311475409,0.06557377049180328,0.0,0.13411894753388467
NGA,NG,3808.0,37055.0,37055.0,ahmadu rufai model pri sch,56369.0,5.2258719,13.0664686,2,,,2011.0,,,57,2,,,57,0,,,57,0,,,1,12870,0.03508771929824561,0.0,0.0,0.03310162197947699
NGA,NG,3796.0,36797.0,36797.0,aida,15263.0,4.3737024,11.7607908,1,,,2014.0,,,36,1,,,36,5,,,36,0,,,1,11729,0.027777777777777776,0.1388888888888889,0.0,0.1535930584672723
NGA,NG,3781.0,36472.0,36472.0,aidogodo,15505.0,7.76283,7.07796,3,,,2011.0,,,50,4,,,50,1,,,50,0,,,1,10729,0.08,0.02,0.0,0.09283018867924528
NGA,NG,3797.0,36813.0,36813.0,aiyetero,14719.0,5.9911897,7.9787232,1,,,2014.0,,,50,15,,,50,3,,,50,0,,,1,11810,0.3,0.06,0.0,0.3226415094339622
NGA,NG,3804.0,36954.0,36954.0,ajaba,14759.0,4.90421,8.0120727,1,,,2014.0,,,53,9,,,53,26,,,53,0,,,1,12518,0.16981132075471697,0.49056603773584906,0.0,0.5444091431181445
NGA,NG,3803.0,36923.0,36923.0,ajagbokun high sch,55779.0,5.6934199,7.3738899,3,,,2011.0,,,51,0,,,51,6,,,51,0,,,1,12334,0.0,0.11764705882352941,0.0,0.11098779134295227
NGA,NG,3804.0,36963.0,36963.0,ajagunlase,15510.0,4.2025859,7.818697,1,,,2014.0,,,50,0,,,50,12,,,50,0,,,1,12558,0.0,0.24,0.0,0.22641509433962262
NGA,NG,3797.0,36806.0,36806.0,ajaokuta/ v,13860.0,6.6947,7.4605,3,,,2014.0,,,51,9,,,51,0,,,51,0,,,1,11773,0.17647058823529413,0.0,0.0,0.16648168701442842
NGA,NG,3798.0,36835.0,36835.0,ajase ipo,14808.0,4.8118909,8.2458715,1,,,2012.0,,,60,7,,,60,24,,,60,0,,,1,11979,0.11666666666666667,0.4,0.0,0.4433962264150943
NGA,NG,3792.0,36681.0,36681.0,ajaura,15817.0,9.502922,12.287522,3,,,2013.0,,,50,5,,,50,0,,,50,0,,,1,11151,0.1,0.0,0.0,0.09433962264150943
NGA,NG,3804.0,36948.0,36948.0,ajebandele,14654.0,4.6967189,7.4242196,1,,,2014.0,,,51,5,,,51,21,,,51,1,,,1,12489,0.09803921568627451,0.4117647058823529,0.0196078431372549,0.4526774257830485
NGA,NG,3797.0,36809.0,36809.0,ajegwuna,14304.0,7.0438,7.6919765,1,,,2014.0,,,51,13,,,51,0,,,51,0,,,1,11786,0.2549019607843137,0.0,0.0,0.24047354790972988
NGA,NG,3804.0,36966.0,36966.0,ajenisusa,15578.0,4.551644,7.6909980000000004,3,,,2014.0,,,44,4,,,44,15,,,44,2,,,1,12576,0.09090909090909091,0.3409090909090909,0.045454545454545456,0.40383170548459807
NGA,NG,3779.0,36440.0,36440.0,ajili,15339.0,10.5408622,11.3242086,1,,,2014.0,,,50,0,,,50,2,,,50,0,,,1,10623,0.0,0.04,0.0,0.03773584905660377
NGA,NG,3794.0,36706.0,36706.0,ajingi town,13869.0,9.0377612,11.968642599999999,1,,,2013.0,,,50,14,,,50,0,,,50,0,,,1,11274,0.28,0.0,0.0,0.2641509433962264
NGA,NG,3799.0,36849.0,36849.0,ajiran,14420.0,3.5178536,6.4471696,1,,,2014.0,,,50,4,,,50,27,,,50,9,,,1,12075,0.08,0.54,0.18,0.6160150943396225
NGA,NG,3795.0,36751.0,36751.0,ajiwa,14097.0,7.7634019,12.9430961,1,,,2013.0,,,49,3,,,49,0,,,49,0,,,1,11496,0.061224489795918366,0.0,0.0,0.05775895263765883
NGA,NG,3803.0,36921.0,36921.0,ajowa,13884.0,5.845870417,7.69144375,3,,,2012.0,,,50,0,,,50,1,,,50,0,,,1,12318,0.0,0.02,0.0,0.018867924528301886
NGA,NG,3799.0,36851.0,36851.0,ajuwon,14648.0,3.3352056,6.6717332,1,,,2014.0,,,50,7,,,50,3,,,50,1,,,1,12087,0.14,0.06,0.02,0.19600754716981134
NGA,NG,3777.0,36391.0,36391.0,akai atti udesi,15317.0,8.195801,4.772887,3,,,2014.0,,,52,38,,,52,20,,,52,8,,,1,10370,0.7307692307692307,0.38461538461538464,0.15384615384615385,0.8111404058707841
NGA,NG,3799.0,36856.0,36856.0,akin jacobs memorial pry sch,56202.0,3.358878,6.5157101,1,,,2011.0,,,59,4,,,59,10,,,59,0,,,1,12125,0.06779661016949153,0.1694915254237288,0.0,0.2130162119972031
NGA,NG,3803.0,36932.0,36932.0,akinfolarin,15446.0,4.91465,6.80938,3,,,2010.0,,,60,4,,,60,13,,,60,1,,,1,12387,0.06666666666666667,0.21666666666666667,0.016666666666666666,0.2651642208245982
NGA,NG,3804.0,36950.0,36950.0,akinlalu,14663.0,4.4191332,7.4647768,1,,,2014.0,,,50,0,,,50,44,,,50,0,,,1,12500,0.0,0.88,0.0,0.830188679245283
NGA,NG,3804.0,36938.0,36938.0,akiriboto,13851.0,4.316667,7.466667,3,,,2014.0,,,55,5,,,55,26,,,55,1,,,1,12437,0.09090909090909091,0.4727272727272727,0.01818181818181818,0.499411706335143
NGA,NG,3799.0,36856.0,36856.0,akoka unversity of lagos staff school,56203.0,3.3968447,6.5155682,1,,,1995.0,,,584,30,,,584,189,,,584,89,,,3,12118,0.05136986301369863,0.3236301369863014,0.1523972602739726,0.43033682197753786
NGA,NG,3777.0,36398.0,36398.0,akpabom,15543.0,6.301739233,4.5846758,4,,,2014.0,,,51,35,,,51,33,,,51,5,,,1,10405,0.6862745098039216,0.6470588235294118,0.09803921568627451,0.8491782166937415
NGA,NG,3777.0,36387.0,36387.0,akpabom,14749.0,7.97148,4.5739124,1,,,2014.0,,,53,2,,,53,25,,,53,1,,,1,10353,0.03773584905660377,0.4716981132075472,0.018867924528301886,0.4728545699558746
NGA,NG,3778.0,36407.0,36407.0,akpaka community pry sch,55792.0,6.7792501,6.1702499,3,,,2011.0,,,44,3,,,44,2,,,44,0,,,1,10450,0.06818181818181818,0.045454545454545456,0.0,0.10428036800249492
NGA,NG,3788.0,36605.0,36605.0,akpaufu,15397.0,7.6439611,6.3618194,1,,,2010.0,,,60,1,,,60,4,,,60,0,,,1,10861,0.016666666666666666,0.06666666666666667,0.0,0.07756813417190775
NGA,NG,3777.0,36378.0,36378.0,akpautong,14409.0,8.0847156,4.6656075999999995,1,,,2014.0,,,53,9,,,53,19,,,53,9,,,1,10308,0.16981132075471697,0.3584905660377358,0.16981132075471697,0.5262860401032585
NGA,NG,3788.0,36601.0,36601.0,aku/mgboko,14699.0,7.3246534,6.7001345,1,,,2010.0,,,55,15,,,55,5,,,55,0,,,1,10839,0.2727272727272727,0.09090909090909091,0.0,0.3196631841571807
NGA,NG,3803.0,36925.0,36925.0,akure,13900.0,5.2057909,7.2571325,1,,,2012.0,,,38,2,,,38,2,,,38,0,,,1,12349,0.05263157894736842,0.05263157894736842,0.0,0.09669157999268278
NGA,NG,3778.0,36417.0,36417.0,akwa,14711.0,7.0122134,5.9125857,1,,,2011.0,,,57,9,,,57,0,,,57,0,,,1,10534,0.15789473684210525,0.0,0.0,0.14895729890764645
NGA,NG,3778.0,36416.0,36416.0,akwa ukwu,14643.0,7.0122134,5.9125857,1,,,2011.0,,,58,3,,,58,4,,,58,1,,,1,10517,0.05172413793103448,0.06896551724137931,0.017241379310344827,0.12485330148063965
NGA,NG,3777.0,36399.0,36399.0,akwa idung,15561.0,8.239,4.82,3,,,2014.0,,,51,4,,,51,12,,,51,11,,,1,10413,0.0784313725490196,0.23529411764705882,0.21568627450980393,0.42195416174347694
NGA,NG,3801.0,36884.0,36884.0,akwaya daji,15031.0,6.31667,6.381088,1,,,2013.0,,,50,0,,,50,0,,,50,0,,,1,12239,0.0,0.0,0.0,0.0
NGA,NG,3788.0,36599.0,36599.0,akwuke,14397.0,7.4760047,6.3906848,1,,,2010.0,,,50,11,,,50,5,,,50,0,,,1,10825,0.22,0.1,0.0,0.28113207547169805
NGA,NG,3798.0,36838.0,36838.0,al adabiyat sch,56233.0,4.5318799,8.5756702,3,,,2011.0,,,60,8,,,60,22,,,60,0,,,1,12010,0.13333333333333333,0.36666666666666664,0.0,0.42557651991614254
NGA,NG,3799.0,36842.0,36842.0,alaagba,13847.0,3.3023856,6.6141638,1,,,2014.0,,,50,0,,,50,1,,,50,0,,,1,12041,0.0,0.02,0.0,0.018867924528301886
NGA,NG,3803.0,36927.0,36927.0,alade,14635.0,5.100178,7.1399313,1,,,2012.0,,,52,1,,,52,3,,,52,0,,,1,12370,0.019230769230769232,0.057692307692307696,0.0,0.07152227308250529
NGA,NG,3804.0,36945.0,36945.0,alajue,14352.0,4.5108862,7.6854917,1,,,2014.0,,,52,10,,,52,43,,,52,0,,,1,12472,0.19230769230769232,0.8269230769230769,0.0,0.8115161326336942
NGA,NG,3799.0,36851.0,36851.0,alakuko,14649.0,3.2646492,6.6811211,1,,,2014.0,,,51,3,,,51,1,,,51,0,,,1,12085,0.058823529411764705,0.0196078431372549,0.0,0.07290374529390002
NGA,NG,3798.0,36826.0,36826.0,alapa,13994.0,4.3820503,8.6188429,1,,,2012.0,,,60,1,,,60,7,,,60,0,,,1,11878,0.016666666666666666,0.11666666666666667,0.0,0.12395178197064988
NGA,NG,3802.0,36914.0,36914.0,alapako oni,15426.0,3.7232005,7.1855421,1,,,2009.0,,,50,3,,,50,18,,,50,2,,,1,12285,0.06,0.36,0.04,0.3985509433962264
NGA,NG,3802.0,36914.0,36914.0,alapako oni community pri sch,56257.0,3.75368,7.1459799,3,,,2011.0,,,50,3,,,50,18,,,50,2,,,1,12287,0.06,0.36,0.04,0.3985509433962264
NGA,NG,3804.0,36949.0,36949.0,alapata,14659.0,4.7238735,8.0299531,1,,,2014.0,,,51,6,,,51,21,,,51,0,,,1,12495,0.11764705882352941,0.4117647058823529,0.0,0.4537442057844225
NGA,NG,3796.0,36794.0,36794.0,alelu,14882.0,4.5005808,12.1953187,1,,,2014.0,,,50,0,,,50,2,,,50,0,,,1,11714,0.0,0.04,0.0,0.03773584905660377
NGA,NG,3808.0,37057.0,37057.0,alhaji alhaji model pri sch,56377.0,5.2577300000000005,13.0785,3,,,2011.0,,,58,4,,,58,0,,,58,0,,,1,12885,0.06896551724137931,0.0,0.0,0.06506180871828236
NGA,NG,3808.0,37042.0,37042.0,aliyu fodio model pri sch,55877.0,5.1496300999999995,12.8435,3,,,2011.0,,,60,5,,,60,0,,,60,0,,,1,12750,0.08333333333333333,0.0,0.0,0.07861635220125784
NGA,NG,3808.0,37041.0,37041.0,aliyu jedo model pri sch,55870.0,4.9109902,13.2231,3,,,2011.0,,,61,2,,,61,0,,,61,0,,,1,12740,0.03278688524590164,0.0,0.0,0.030931023816888337
NGA,NG,3808.0,37063.0,37063.0,aliyu tambari model pri sch,56460.0,5.12884,12.8162,3,,,2011.0,,,60,4,,,60,0,,,60,0,,,1,12955,0.06666666666666667,0.0,0.0,0.06289308176100628
NGA,NG,3796.0,36801.0,36801.0,aljannnare,15773.0,3.8988274,11.5823124,3,,,2014.0,,,56,1,,,56,0,,,56,0,,,1,11748,0.017857142857142856,0.0,0.0,0.016846361185983826
NGA,NG,3811.0,37105.0,37105.0,aljimma,15299.0,6.651903333,12.57608,3,,,2009.0,,,60,6,,,60,0,,,60,0,,,1,13104,0.1,0.0,0.0,0.09433962264150943
NGA,NG,3798.0,36827.0,36827.0,all saint's pry sch,55845.0,4.5964899,8.1341696,3,,,2011.0,,,60,2,,,60,3,,,60,0,,,1,11892,0.03333333333333333,0.05,0.0,0.0770440251572327
NGA,NG,3803.0,36932.0,36932.0,all saints ang pri sch,56268.0,4.8935627,6.8959293,1,,,2011.0,,,60,0,,,60,26,,,60,0,,,1,12390,0.0,0.43333333333333335,0.0,0.40880503144654085
NGA,NG,3778.0,36407.0,36407.0,all saints pry sch,55793.0,6.7915001,6.15346,3,,,2011.0,,,59,0,,,59,2,,,59,0,,,1,10455,0.0,0.03389830508474576,0.0,0.03197953309881675
NGA,NG,3779.0,36437.0,36437.0,allah yayi,14877.0,9.861323834,11.632032389999999,3,,,2014.0,,,50,6,,,50,2,,,50,0,,,1,10608,0.12,0.04,0.0,0.14641509433962263
NGA,NG,3797.0,36809.0,36809.0,alokoli,14305.0,7.0388,7.5655,3,,,2014.0,,,51,14,,,51,3,,,51,0,,,1,11790,0.27450980392156865,0.058823529411764705,0.0,0.29923179038541053
NGA,NG,3778.0,36416.0,36416.0,alor,14644.0,6.9584922,6.0814074,1,,,2011.0,,,49,4,,,49,0,,,49,0,,,1,10515,0.08163265306122448,0.0,0.0,0.07701193685021177
NGA,NG,3807.0,37030.0,37030.0,aluu,,6.8975,4.9111,3,,,1988.0,0.0,99.0,1865,643,,,1865,919,,,1865,796,,,3,30661,0.3447721179624665,0.4927613941018767,0.4268096514745308,0.7636757033876325
NGA,NG,3777.0,36376.0,36376.0,amadaka,14337.0,7.7145152,4.5264332,1,,,2014.0,,,50,7,,,50,13,,,50,2,,,1,10300,0.14,0.26,0.04,0.3670339622641509
NGA,NG,3785.0,36548.0,36548.0,amagu onicha,13835.0,7.8231982,6.1116318,1,,,2010.0,,,59,6,,,59,3,,,59,1,,,1,10770,0.1016949152542373,0.05084745762711865,0.01694915254237288,0.1526629966301601
NGA,NG,3785.0,36548.0,36548.0,amagu onicha pri sch,55744.0,7.8231982,6.1116318,2,,,2011.0,,,59,6,,,59,3,,,59,1,,,1,10772,0.1016949152542373,0.05084745762711865,0.01694915254237288,0.1526629966301601
NGA,NG,3788.0,36605.0,36605.0,amagunze,,7.6493858,6.3247984,1,,,1986.0,12.0,15.0,135,3,,,135,31,,,135,12,,,3,29235,0.022222222222222223,0.22962962962962963,0.08888888888888889,0.2959477530174012
NGA,NG,3788.0,36605.0,36605.0,amagunze,15398.0,7.6493858,6.3247984,1,,,2010.0,,,59,5,,,59,3,,,59,0,,,1,10855,0.0847457627118644,0.05084745762711865,0.0,0.12385293750982422
NGA,NG,3788.0,36609.0,36609.0,amala ubollo,15859.0,7.5588,6.9427,3,,,2010.0,,,53,20,,,53,3,,,53,0,,,1,10883,0.37735849056603776,0.05660377358490566,0.0,0.3892474996137751
NGA,NG,3811.0,37102.0,37102.0,amanawa,14548.0,5.10809,11.9336105,1,,,2009.0,,,60,2,,,60,0,,,60,1,,,1,13071,0.03333333333333333,0.0,0.016666666666666666,0.046645702306079666
NGA,NG,3811.0,37102.0,37102.0,amanawa model pri school,55987.0,5.1362801,12.12199,3,,,2011.0,,,60,2,,,60,0,,,60,1,,,1,13067,0.03333333333333333,0.0,0.016666666666666666,0.046645702306079666
NGA,NG,3778.0,36417.0,36417.0,amanputu,14712.0,6.8209800000000005,5.78964,3,,,2011.0,,,53,12,,,53,2,,,53,0,,,1,10532,0.22641509433962265,0.03773584905660377,0.0,0.24113865808687707
NGA,NG,3778.0,36410.0,36410.0,amansea,14029.0,7.1264034,6.2632233,1,,,2011.0,,,49,3,,,49,12,,,49,0,,,1,10483,0.061224489795918366,0.24489795918367346,0.0,0.27464971356274503
NGA,NG,3803.0,36926.0,36926.0,amaperea,14405.0,6.728603333,6.2711500000000004,4,,,2012.0,,,51,13,,,51,21,,,51,5,,,1,12361,0.2549019607843137,0.4117647058823529,0.09803921568627451,0.5704499379347394
NGA,NG,3794.0,36748.0,36748.0,amarawa,15927.0,8.7729012,11.8979381,1,,,2013.0,,,50,28,,,50,0,,,50,0,,,1,11478,0.56,0.0,0.0,0.5283018867924528
NGA,NG,3792.0,36679.0,36679.0,amaryawa,15653.0,8.3636131,12.5712504,1,,,2013.0,,,46,6,,,46,0,,,46,0,,,1,11141,0.13043478260869565,0.0,0.0,0.12305168170631664
NGA,NG,3808.0,37048.0,37048.0,ambarura,14776.0,5.536476,13.605917999999999,3,,,2011.0,,,63,0,,,63,0,,,63,0,,,1,12811,0.0,0.0,0.0,0.0
NGA,NG,3808.0,37044.0,37044.0,ambarura model pri sch,55964.0,5.4605804,13.5952415,1,,,2011.0,,,63,0,,,63,0,,,63,0,,,1,12769,0.0,0.0,0.0,0.0
NGA,NG,3778.0,36412.0,36412.0,amikwe pry sch,55839.0,6.9643898,6.5039301,3,,,2011.0,,,53,4,,,53,10,,,53,1,,,1,10490,0.07547169811320754,0.18867924528301888,0.018867924528301886,0.24911662546301042
NGA,NG,3798.0,36831.0,36831.0,amodu/asumgbolu,14678.0,4.7419825,8.2876201,1,,,2012.0,,,57,5,,,57,9,,,57,1,,,1,11924,0.08771929824561403,0.15789473684210525,0.017543859649122806,0.2313598592554488
NGA,NG,3788.0,36610.0,36610.0,amofia agu affa,15864.0,7.25283,6.56704,3,,,2010.0,,,54,13,,,54,1,,,54,0,,,1,10888,0.24074074074074073,0.018518518518518517,0.0,0.240378393767632
NGA,NG,3793.0,36705.0,36705.0,amoru,16008.0,7.7227,11.0855409,1,,,2013.0,,,52,0,,,52,0,,,52,0,,,1,11273,0.0,0.0,0.0,0.0
NGA,NG,3804.0,36960.0,36960.0,anarun,14853.0,4.083333,7.616667,3,,,2014.0,,,50,3,,,50,16,,,50,0,,,1,12545,0.06,0.32,0.0,0.340377358490566
NGA,NG,3792.0,36674.0,36674.0,andaza,15109.0,9.4519882,11.7871912,1,,,2013.0,,,50,4,,,50,2,,,50,0,,,1,11111,0.08,0.04,0.0,0.11018867924528301
NGA,NG,3804.0,36940.0,36940.0,ang. grammer sch,55825.0,4.8172498,7.1086102,4,,,2011.0,,,51,0,,,51,5,,,51,0,,,1,12447,0.0,0.09803921568627451,0.0,0.09248982611912689
NGA,NG,3793.0,36692.0,36692.0,anguwar muazu kabala west,14936.0,7.3891486,10.4955769,1,,,2013.0,,,55,0,,,55,0,,,55,0,,,1,11206,0.0,0.0,0.0,0.0
NGA,NG,3797.0,36811.0,36811.0,angwa,14630.0,7.222433333,7.1132,3,,,2014.0,,,50,2,,,50,2,,,50,1,,,1,11799,0.04,0.04,0.02,0.0913509433962264
NGA,NG,3799.0,36852.0,36852.0,anifowose,14734.0,3.34205,6.5979311,1,,,2014.0,,,49,0,,,49,2,,,49,0,,,1,12091,0.0,0.04081632653061224,0.0,0.03850596842510588
NGA,NG,3811.0,37097.0,37097.0,anka,13964.0,5.9277625,12.10869,1,,,2009.0,,,60,3,,,60,1,,,60,0,,,1,13031,0.05,0.016666666666666666,0.0,0.0621069182389937
NGA,NG,3799.0,36857.0,36857.0,ansar ud deen pry sch,56240.0,3.3349282000000002,6.5577404999999995,1,,,2011.0,,,56,8,,,56,11,,,56,0,,,1,12129,0.14285714285714285,0.19642857142857142,0.0,0.2936080092414324
NGA,NG,3801.0,36891.0,36891.0,ansrul islam pry sch,56232.0,4.8234401,9.1129503,3,,,2011.0,,,57,2,,,57,5,,,57,0,,,1,12241,0.03508771929824561,0.08771929824561403,0.0,0.11295202587733814
NGA,NG,3801.0,36884.0,36884.0,anturu,15032.0,6.31667,9.2679484,1,,,2013.0,,,50,0,,,50,0,,,50,0,,,1,12237,0.0,0.0,0.0,0.0
NGA,NG,3777.0,36405.0,36405.0,anua,15905.0,7.9214698,5.0343299,2,,,2014.0,,,50,8,,,50,4,,,50,3,,,1,10444,0.16,0.08,0.06,0.2580830188679245
NGA,NG,3781.0,36466.0,36466.0,anyiin,15238.0,9.24534,7.81875,3,,,2011.0,,,50,4,,,50,0,,,50,0,,,1,10705,0.08,0.0,0.0,0.07547169811320754
NGA,NG,3799.0,36847.0,36847.0,apa community school,55850.0,3.3746259,6.5033149,1,,,2006.0,,,300,20,,,300,94,,,300,46,,,1,12068,0.06666666666666667,0.31333333333333335,0.15333333333333332,0.4314912648497553
NGA,NG,3802.0,36915.0,36915.0,apojola,15445.0,3.52819,7.2328184,1,,,2009.0,,,48,5,,,48,7,,,48,0,,,1,12288,0.10416666666666667,0.14583333333333334,0.0,0.2215179507337526
NGA,NG,3793.0,36702.0,36702.0,arak,15688.0,8.3307468,9.2482166,1,,,2013.0,,,50,0,,,50,0,,,50,0,,,1,11256,0.0,0.0,0.0,0.0
NGA,NG,3809.0,37064.0,37064.0,ardokola,13978.0,11.2523792,8.7556634,1,,,2010.0,,,60,19,,,60,3,,,60,0,,,1,12968,0.31666666666666665,0.05,0.0,0.33097484276729555
NGA,NG,3808.0,37061.0,37061.0,arkilla,15914.0,5.2110093,13.0238297,1,,,2011.0,,,58,6,,,58,0,,,58,0,,,1,12937,0.10344827586206896,0.0,0.0,0.09759271307742354
NGA,NG,3799.0,36848.0,36848.0,army children sch,55936.0,3.3730843999999998,6.5235055,2,,,2011.0,,,21,1,,,21,6,,,21,0,,,1,12071,0.047619047619047616,0.2857142857142857,0.0,0.30163008599666274
NGA,NG,3798.0,36838.0,36838.0,arobadi,15349.0,4.387352,8.6899354,1,,,2012.0,,,60,18,,,60,2,,,60,0,,,1,12005,0.3,0.03333333333333333,0.0,0.30503144654088044
NGA,NG,3798.0,36835.0,36835.0,aromiwe,14809.0,3.8166700000000002,7.9021368,1,,,2014.0,,,52,2,,,52,19,,,52,0,,,1,11983,0.038461538461538464,0.36538461538461536,0.0,0.36772915038517356
NGA,NG,3779.0,36445.0,36445.0,aru,15932.0,9.832075156,11.19878213,3,,,2014.0,,,50,6,,,50,2,,,50,0,,,1,10659,0.12,0.04,0.0,0.14641509433962263
NGA,NG,3781.0,36473.0,36473.0,asa,15584.0,8.151011667,7.16041,3,,,2011.0,,,50,2,,,50,0,,,50,0,,,1,10737,0.04,0.0,0.0,0.03773584905660377
NGA,NG,3777.0,36392.0,36392.0,asana,15344.0,7.741466467,4.890884667,3,,,2014.0,,,50,5,,,50,9,,,50,0,,,1,10375,0.1,0.18,0.0,0.2471698113207547
NGA,NG,3808.0,37047.0,37047.0,asara,14560.0,5.27911,13.44967,3,,,2011.0,,,60,2,,,60,1,,,60,0,,,1,12800,0.03333333333333333,0.016666666666666666,0.0,0.046645702306079666
NGA,NG,3804.0,36959.0,36959.0,asejire,14838.0,4.133333,7.366944,1,,,2014.0,,,53,21,,,53,28,,,53,1,,,1,12540,0.39622641509433965,0.5283018867924528,0.018867924528301886,0.679787455289481
NGA,NG,3790.0,36622.0,36622.0,ashaka gari,14455.0,11.5148604,10.8856182,1,,,2013.0,,,45,0,,,45,0,,,45,0,,,1,10985,0.0,0.0,0.0,0.0
NGA,NG,3799.0,36847.0,36847.0,ashipanu,14043.0,2.728986,6.38241,3,,,2014.0,,,47,5,,,47,17,,,47,8,,,1,12065,0.10638297872340426,0.3617021276595745,0.1702127659574468,0.4968815758459745
NGA,NG,3811.0,37106.0,37106.0,ashlafiya,15304.0,6.26681,12.00964,3,,,2009.0,,,48,2,,,48,3,,,48,0,,,1,13111,0.041666666666666664,0.0625,0.0,0.095813679245283
NGA,NG,3811.0,37106.0,37106.0,ashlafiya mps,56227.0,6.2668099,12.00964,3,,,2011.0,,,48,2,,,48,3,,,48,0,,,1,13107,0.041666666666666664,0.0625,0.0,0.095813679245283
NGA,NG,3793.0,36698.0,36698.0,ashuru,15140.0,7.73161,11.2643007,1,,,2013.0,,,50,0,,,50,0,,,50,0,,,1,11235,0.0,0.0,0.0,0.0
NGA,NG,3804.0,36950.0,36950.0,asipa,14664.0,3.9279243,7.8579719,1,,,2014.0,,,50,2,,,50,25,,,50,1,,,1,12502,0.04,0.5,0.02,0.499622641509434
NGA,NG,3793.0,36692.0,36692.0,askolaye,14937.0,7.41959,10.4548808,1,,,2013.0,,,50,0,,,50,0,,,50,0,,,1,11207,0.0,0.0,0.0,0.0
NGA,NG,3777.0,36400.0,36400.0,ata obio akpa,15566.0,5.6187249999999995,4.976152,4,,,2014.0,,,50,5,,,50,4,,,50,0,,,1,10418,0.1,0.08,0.0,0.1622641509433962
NGA,NG,3777.0,36397.0,36397.0,atabong,15500.0,8.1829,4.8501845,3,,,2014.0,,,51,27,,,51,20,,,51,6,,,1,10403,0.5294117647058824,0.39215686274509803,0.11764705882352941,0.7052909301084145
NGA,NG,3777.0,36394.0,36394.0,ataha nsit,15412.0,7.839156,4.674217,3,,,2014.0,,,51,9,,,51,0,,,51,0,,,1,10389,0.17647058823529413,0.0,0.0,0.16648168701442842
NGA,NG,3778.0,36421.0,36421.0,atani,15466.0,6.7467229,6.0130639,1,,,2011.0,,,54,5,,,54,0,,,54,0,,,1,10544,0.09259259259259259,0.0,0.0,0.08735150244584206
NGA,NG,3803.0,36927.0,36927.0,atosin,14636.0,5.0601736,7.162663,1,,,2012.0,,,50,0,,,50,3,,,50,0,,,1,12372,0.0,0.06,0.0,0.056603773584905655
NGA,NG,3803.0,36927.0,36927.0,atosin idanre,14637.0,5.1484196,7.0913555,1,,,2012.0,,,50,0,,,50,5,,,50,0,,,1,12363,0.0,0.1,0.0,0.09433962264150943
NGA,NG,3796.0,36784.0,36784.0,attahiru,13920.0,4.706518333,12.289044,4,,,2014.0,,,50,2,,,50,0,,,50,0,,,1,11663,0.04,0.0,0.0,0.03773584905660377
NGA,NG,3788.0,36606.0,36606.0,attakwu akegbe ugwu,15403.0,7.496807,6.4197784,1,,,2010.0,,,50,5,,,50,0,,,50,0,,,1,10862,0.1,0.0,0.0,0.09433962264150943
NGA,NG,3777.0,36404.0,36404.0,atte,15889.0,8.153,4.7492,3,,,2014.0,,,52,14,,,52,33,,,52,6,,,1,10439,0.2692307692307692,0.6346153846153846,0.11538461538461539,0.7205634183835589
NGA,NG,3793.0,36689.0,36689.0,atukun gada,14887.0,8.4622987,9.5091427,1,,,2013.0,,,50,0,,,50,0,,,50,0,,,1,11196,0.0,0.0,0.0,0.0
NGA,NG,3792.0,36669.0,36669.0,aujara,14867.0,9.4256031,12.0518625,1,,,2013.0,,,48,2,,,48,5,,,48,1,,,1,11084,0.041666666666666664,0.10416666666666667,0.020833333333333332,0.15035718575296994
NGA,NG,3792.0,36656.0,36656.0,auyo,14012.0,9.987731,12.3606302,1,,,2013.0,,,49,0,,,49,2,,,49,0,,,1,11024,0.0,0.04081632653061224,0.0,0.03850596842510588
NGA,NG,3788.0,36596.0,36596.0,awgu,14023.0,7.4760047,6.0639962,1,,,2010.0,,,51,12,,,51,3,,,51,0,,,1,10805,0.23529411764705882,0.058823529411764705,0.0,0.26441209114056274
NGA,NG,3788.0,36600.0,36600.0,awha,14436.0,7.2383178,6.4046531,1,,,2010.0,,,59,13,,,59,0,,,59,0,,,1,10827,0.22033898305084745,0.0,0.0,0.2078669651423089
NGA,NG,3778.0,36414.0,36414.0,awka,14383.0,6.81225,5.97872,3,,,2011.0,,,44,5,,,44,0,,,44,0,,,1,10503,0.11363636363636363,0.0,0.0,0.10720411663807888
NGA,NG,3803.0,36934.0,36934.0,awo,15530.0,4.866667,7.266667,4,,,2012.0,,,50,1,,,50,23,,,50,0,,,1,12409,0.02,0.46,0.0,0.4441509433962264
NGA,NG,3804.0,36946.0,36946.0,awo egbedore,14364.0,4.4,7.766667,3,,,2014.0,,,50,5,,,50,20,,,50,0,,,1,12480,0.1,0.4,0.0,0.4339622641509433
NGA,NG,3797.0,36812.0,36812.0,ayaa,14690.0,5.210242,7.1437,4,,,2014.0,,,50,19,,,50,0,,,50,0,,,1,11802,0.38,0.0,0.0,0.3584905660377358
NGA,NG,3790.0,36620.0,36620.0,ayaba,14126.0,11.04304,9.79917,3,,,2013.0,,,50,1,,,50,0,,,50,0,,,1,10973,0.02,0.0,0.0,0.018867924528301886
NGA,NG,3792.0,36656.0,36656.0,ayama,14013.0,7.407398167,12.82772797,4,,,2013.0,,,50,1,,,50,1,,,50,0,,,1,11023,0.02,0.02,0.0,0.03735849056603773
NGA,NG,3808.0,37059.0,37059.0,ayama,15807.0,7.407398167,12.82772797,4,,,2011.0,,,60,6,,,60,0,,,60,0,,,1,12911,0.1,0.0,0.0,0.09433962264150943
NGA,NG,3808.0,37059.0,37059.0,ayama pri sch,56404.0,4.93926,13.3709,3,,,2011.0,,,60,6,,,60,0,,,60,0,,,1,12917,0.1,0.0,0.0,0.09433962264150943
NGA,NG,3803.0,36924.0,36924.0,ayeda ogbese,13894.0,5.3834854,7.201357,1,,,2010.0,,,58,3,,,58,16,,,58,0,,,1,19781,0.05172413793103448,0.27586206896551724,0.0,0.29558252753909314
NGA,NG,3797.0,36817.0,36817.0,ayede,15294.0,8.752666667,8.161,4,,,2014.0,,,50,9,,,50,0,,,50,0,,,1,11827,0.18,0.0,0.0,0.16981132075471694
NGA,NG,3797.0,36811.0,36811.0,ayegba,14631.0,7.1736385,7.4933664,1,,,2014.0,,,50,3,,,50,0,,,50,0,,,1,11797,0.06,0.0,0.0,0.056603773584905655
NGA,NG,3797.0,36813.0,36813.0,ayegunle,14720.0,6.0361574,8.0784933,1,,,2014.0,,,50,8,,,50,3,,,50,0,,,1,11806,0.16,0.06,0.0,0.19849056603773582
NGA,NG,3804.0,36959.0,36959.0,ayepe,14839.0,4.4691022,7.5303234,1,,,2014.0,,,54,15,,,54,36,,,54,2,,,1,12538,0.2777777777777778,0.6666666666666666,0.037037037037037035,0.7246939462173564
NGA,NG,3799.0,36844.0,36844.0,ayobo,13925.0,3.2484745999999998,6.601891,1,,,2014.0,,,50,3,,,50,4,,,50,0,,,1,12050,0.06,0.08,0.0,0.12754716981132075
NGA,NG,3804.0,36952.0,36952.0,ayotoro,14674.0,4.5882392,7.8309731,1,,,2014.0,,,17,2,,,17,7,,,17,0,,,1,12512,0.11764705882352941,0.4117647058823529,0.0,0.4537442057844225
NGA,NG,3796.0,36802.0,36802.0,ayu,15937.0,5.9036644,11.1922881,3,,,2014.0,,,50,1,,,50,4,,,50,0,,,1,11754,0.02,0.08,0.0,0.09283018867924528
NGA,NG,3778.0,36417.0,36417.0,azia,,6.8940846,5.8825825,1,,,2006.0,5.0,30.0,111,9,,,111,23,,,111,9,,,1,31648,0.08108108108108109,0.2072072072072072,0.08108108108108109,0.31184553628976636
NGA,NG,3778.0,36417.0,36417.0,azia,14713.0,6.8940846,5.8825825,1,,,2011.0,,,58,10,,,58,0,,,58,0,,,1,10522,0.1724137931034483,0.0,0.0,0.16265452179570591
NGA,NG,3796.0,36789.0,36789.0,b/kebbi,14154.0,4.2006114,12.4317585,1,,,2014.0,,,43,6,,,43,1,,,43,0,,,1,11687,0.13953488372093023,0.023255813953488372,0.0,0.1505148116779085
NGA,NG,3792.0,36658.0,36658.0,b/kudu,14141.0,5.35,11.4530865,1,,,2013.0,,,49,2,,,49,0,,,49,1,,,1,11035,0.04081632653061224,0.0,0.02040816326530612,0.056973116547350544
NGA,NG,3811.0,37099.0,37099.0,b/magaji,14158.0,5.30136,12.3444895,1,,,2009.0,,,60,5,,,60,0,,,60,0,,,1,13047,0.08333333333333333,0.0,0.0,0.07861635220125784
NGA,NG,3811.0,37110.0,37110.0,b/mgaji model pri school,56470.0,6.8304901000000005,12.63149,3,,,2011.0,,,60,5,,,60,0,,,60,0,,,1,13151,0.08333333333333333,0.0,0.0,0.07861635220125784
NGA,NG,3795.0,36753.0,36753.0,b/mutum,14112.0,8.9963179,12.818062,1,,,2013.0,,,50,0,,,50,0,,,50,0,,,1,11505,0.0,0.0,0.0,0.0
NGA,NG,3795.0,36758.0,36758.0,b/rafi,14274.0,7.43728,11.2135,4,,,2013.0,,,52,14,,,52,0,,,52,0,,,1,11531,0.2692307692307692,0.0,0.0,0.25399129172714074
NGA,NG,3811.0,37110.0,37110.0,b/tsaba,16013.0,6.81762,12.67194,3,,,2009.0,,,50,7,,,50,5,,,50,0,,,1,13154,0.14,0.1,0.0,0.2132075471698113
NGA,NG,3811.0,37110.0,37110.0,b/tsaba mps,56471.0,6.8176198,12.67194,3,,,2011.0,,,50,7,,,50,5,,,50,0,,,1,13150,0.14,0.1,0.0,0.2132075471698113
NGA,NG,3795.0,36781.0,36781.0,babban duhu 'a',15673.0,7.152,12.4011,3,,,2013.0,,,50,9,,,50,0,,,50,0,,,1,11646,0.18,0.0,0.0,0.16981132075471694
NGA,NG,3798.0,36834.0,36834.0,baboko ?a?a?a2 lgea primary school,56082.0,4.5431032,8.4894418,1,,,2006.0,,,50,2,,,50,10,,,50,4,,,1,11968,0.04,0.2,0.08,0.27683018867924525
NGA,NG,3798.0,36834.0,36834.0,baboko lgea primary school,,4.5500001999999995,8.5,3,,,2006.0,5.0,12.0,50,2,,,50,10,,,50,4,,,1,30710,0.04,0.2,0.08,0.27683018867924525
NGA,NG,3792.0,36657.0,36657.0,babura,14038.0,8.8275802,12.6050122,3,,,2013.0,,,50,0,,,50,1,,,50,0,,,1,11028,0.0,0.02,0.0,0.018867924528301886
NGA,NG,3794.0,36746.0,36746.0,baburi,15849.0,8.6820636,11.2388955,1,,,2013.0,,,50,7,,,50,0,,,50,0,,,1,11470,0.14,0.0,0.0,0.1320754716981132
NGA,NG,3796.0,36785.0,36785.0,bachaka,13983.0,4.1487336,13.161588,3,,,2014.0,,,50,1,,,50,1,,,50,0,,,1,11667,0.02,0.02,0.0,0.03735849056603773
NGA,NG,3794.0,36747.0,36747.0,bachirawa,15879.0,8.4458421,12.0522134,1,,,2013.0,,,50,0,,,50,0,,,50,0,,,1,11476,0.0,0.0,0.0,0.0
NGA,NG,3799.0,36847.0,36847.0,badagry,14044.0,2.8876436,6.4315805,1,,,2014.0,,,50,0,,,50,1,,,50,3,,,1,12067,0.0,0.02,0.06,0.07433962264150942
NGA,NG,3793.0,36691.0,36691.0,badarawa,14931.0,7.4651828,10.5595993,1,,,2013.0,,,50,0,,,50,0,,,50,0,,,1,11202,0.0,0.0,0.0,0.0
NGA,NG,3811.0,37107.0,37107.0,badarawa,15722.0,6.5036433,13.0119332,1,,,2009.0,,,59,0,,,59,0,,,59,0,,,1,13117,0.0,0.0,0.0,0.0
NGA,NG,3811.0,37107.0,37107.0,badarawa jnr sec sch,56362.0,6.5036433,13.0119332,1,,,2011.0,,,59,0,,,59,0,,,59,0,,,1,13116,0.0,0.0,0.0,0.0
NGA,NG,3799.0,36849.0,36849.0,badore,14421.0,3.6014641,6.5037588,2,,,2014.0,,,55,3,,,55,11,,,55,2,,,1,12077,0.05454545454545454,0.2,0.03636363636363636,0.2557929206299704
NGA,NG,3794.0,36710.0,36710.0,badume,14122.0,8.3149539,12.1909344,1,,,2013.0,,,50,13,,,50,0,,,50,0,,,1,11294,0.26,0.0,0.0,0.2452830188679245
NGA,NG,3808.0,37056.0,37056.0,bafarawa estate,15759.0,5.2104800000000004,12.89729,3,,,2011.0,,,60,3,,,60,0,,,60,0,,,1,12878,0.05,0.0,0.0,0.04716981132075471
NGA,NG,3794.0,36714.0,36714.0,bagadawa,14298.0,8.5666077,12.0145692,1,,,2013.0,,,45,2,,,45,1,,,45,0,,,1,11313,0.044444444444444446,0.022222222222222223,0.0,0.06196133240158396
NGA,NG,3797.0,36823.0,36823.0,bagana,15527.0,7.5942029,8.0270087,1,,,2014.0,,,50,14,,,50,0,,,50,0,,,1,11858,0.28,0.0,0.0,0.2641509433962264
NGA,NG,3794.0,36709.0,36709.0,bagauda,14117.0,5.644571111,7.77222222,4,,,2013.0,,,49,0,,,49,0,,,49,0,,,1,11290,0.0,0.0,0.0,0.0
NGA,NG,3796.0,36787.0,36787.0,bagaye,14007.0,4.6398793,12.8946107,3,,,2014.0,,,50,0,,,50,0,,,50,0,,,1,11674,0.0,0.0,0.0,0.0
NGA,NG,3794.0,36708.0,36708.0,bagwai,14053.0,8.1393179,12.1520334,1,,,2013.0,,,50,4,,,50,0,,,50,0,,,1,11286,0.08,0.0,0.0,0.07547169811320754
NGA,NG,3779.0,36445.0,36445.0,baima,15933.0,9.7790227,11.0817851,1,,,2014.0,,,50,5,,,50,5,,,50,0,,,1,10655,0.1,0.1,0.0,0.1792452830188679
NGA,NG,3809.0,37072.0,37072.0,baissa,15170.0,10.6281014,7.229539,1,,,2010.0,,,50,7,,,50,3,,,50,0,,,1,12987,0.14,0.06,0.0,0.18075471698113207
NGA,NG,3776.0,36354.0,36354.0,bajabure,,11.05,8.316667,1,,,1997.0,5.0,18.0,96,10,,,96,15,,,96,11,,,3,30677,0.10416666666666667,0.15625,0.11458333333333333,0.31202784124410377
NGA,NG,3779.0,36432.0,36432.0,bajar,14283.0,9.515404701,10.07108331,3,,,2014.0,,,50,2,,,50,3,,,50,0,,,1,10582,0.04,0.06,0.0,0.0920754716981132
NGA,NG,3794.0,36740.0,36740.0,bakaji,15709.0,7.87261,12.1304,3,,,2013.0,,,50,33,,,50,0,,,50,0,,,1,11439,0.66,0.0,0.0,0.6226415094339622
NGA,NG,3796.0,36798.0,36798.0,bakari,15387.0,4.71781,10.358269,1,,,2014.0,,,56,5,,,56,0,,,56,0,,,1,11730,0.08928571428571429,0.0,0.0,0.08423180592991913
NGA,NG,3808.0,37061.0,37061.0,bakin gulbi,15915.0,5.21633,13.10333,3,,,2011.0,,,60,2,,,60,0,,,60,0,,,1,12941,0.03333333333333333,0.0,0.0,0.03144654088050314
NGA,NG,3808.0,37061.0,37061.0,bakin gulbi model pri sch,56446.0,5.2115698,13.109,3,,,2011.0,,,60,2,,,60,0,,,60,0,,,1,12933,0.03333333333333333,0.0,0.0,0.03144654088050314
NGA,NG,3794.0,36738.0,36738.0,bakin kasuwa,15632.0,8.25029,11.6738652,1,,,2013.0,,,50,5,,,50,6,,,50,1,,,1,11432,0.1,0.12,0.02,0.21116981132075469
NGA,NG,3796.0,36801.0,36801.0,bakuwai,15774.0,4.0491077,11.9286402,1,,,2014.0,,,55,2,,,55,4,,,55,0,,,1,11746,0.03636363636363636,0.07272727272727272,0.0,0.10042101980352408
NGA,NG,3792.0,36674.0,36674.0,balago,15110.0,9.6898316,11.9158288,1,,,2013.0,,,50,0,,,50,0,,,50,1,,,1,11114,0.0,0.0,0.02,0.018867924528301886
NGA,NG,3794.0,36725.0,36725.0,balan,14926.0,8.60097115,11.8541324,3,,,2013.0,,,50,35,,,50,0,,,50,0,,,1,11362,0.7,0.0,0.0,0.6603773584905659
NGA,NG,3794.0,36721.0,36721.0,balan,14505.0,8.60097115,11.8541324,3,,,2013.0,,,51,1,,,51,0,,,51,0,,,1,11341,0.0196078431372549,0.0,0.0,0.018497965223825377
NGA,NG,3790.0,36619.0,36619.0,balanga,14066.0,11.7151231,9.798351199999999,3,,,2013.0,,,52,0,,,52,0,,,52,0,,,1,10969,0.0,0.0,0.0,0.0
NGA,NG,3808.0,37061.0,37061.0,balarabe abubarkar jabi model pri sch,56447.0,5.1090002,13.0339,3,,,2011.0,,,60,2,,,60,0,,,60,0,,,1,12936,0.03333333333333333,0.0,0.0,0.03144654088050314
NGA,NG,3808.0,37041.0,37041.0,balle,14136.0,4.682501,13.4698714,1,,,2011.0,,,60,2,,,60,0,,,60,0,,,1,12737,0.03333333333333333,0.0,0.0,0.03144654088050314
NGA,NG,3798.0,36839.0,36839.0,balogun ward,15456.0,4.71667,8.1633524,1,,,2014.0,,,55,1,,,55,21,,,55,3,,,1,12014,0.01818181818181818,0.38181818181818183,0.05454545454545454,0.4020413081382986
NGA,NG,3796.0,36801.0,36801.0,bandan,15775.0,4.126954,11.749684,3,,,2014.0,,,51,10,,,51,0,,,51,0,,,1,11749,0.19607843137254902,0.0,0.0,0.18497965223825377
NGA,NG,3792.0,36682.0,36682.0,bandawa,15983.0,11.3101398,9.2686221,1,,,2013.0,,,44,4,,,44,0,,,44,0,,,1,11155,0.09090909090909091,0.0,0.0,0.08576329331046312
NGA,NG,3792.0,36672.0,36672.0,bandutse,15065.0,8.41615,11.7162434,1,,,2013.0,,,50,2,,,50,0,,,50,0,,,1,11100,0.04,0.0,0.0,0.03773584905660377
NGA,NG,3796.0,36795.0,36795.0,banganna,14971.0,4.28047,12.3342413,1,,,2014.0,,,54,0,,,54,1,,,54,0,,,1,11717,0.0,0.018518518518518517,0.0,0.017470300489168412
NGA,NG,3808.0,37046.0,37046.0,bangi,14540.0,4.6534303,13.3976356,1,,,2011.0,,,50,1,,,50,0,,,50,0,,,1,12789,0.02,0.0,0.0,0.018867924528301886
NGA,NG,3808.0,37046.0,37046.0,bangi pri sch,55981.0,4.6532502000000004,13.3976,3,,,2011.0,,,50,1,,,50,0,,,50,0,,,1,12786,0.02,0.0,0.0,0.018867924528301886
NGA,NG,3801.0,36884.0,36884.0,bangifu,15033.0,6.31667,9.2679484,1,,,2009.0,,,57,0,,,57,0,,,57,0,,,1,12238,0.0,0.0,0.0,0.0
NGA,NG,3779.0,36432.0,36432.0,bangim,14284.0,9.2,9.9894493,1,,,2014.0,,,50,6,,,50,2,,,50,0,,,1,10584,0.12,0.04,0.0,0.14641509433962263
NGA,NG,3796.0,36791.0,36791.0,bani zumbu,14260.0,3.765821,11.688272,3,,,2014.0,,,47,5,,,47,1,,,47,0,,,1,11696,0.10638297872340426,0.02127659574468085,0.0,0.1182982139959172
NGA,NG,3808.0,37051.0,37051.0,bankanu,15194.0,5.2371087,13.2474194,1,,,2011.0,,,59,2,,,59,0,,,59,0,,,1,12831,0.03389830508474576,0.0,0.0,0.03197953309881675
NGA,NG,3808.0,37051.0,37051.0,bankanu model pri sch,56194.0,5.2371087,13.2474194,1,,,2011.0,,,59,2,,,59,0,,,59,0,,,1,12837,0.03389830508474576,0.0,0.0,0.03197953309881675
NGA,NG,3779.0,36429.0,36429.0,banram south,14168.0,5.988678397,9.538149834,4,,,2014.0,,,50,1,,,50,1,,,50,0,,,1,10568,0.02,0.02,0.0,0.03735849056603773
NGA,NG,3809.0,37077.0,37077.0,bantaje,15954.0,10.1255164,8.0518814,1,,,2010.0,,,54,11,,,54,2,,,54,0,,,1,19801,0.2037037037037037,0.037037037037037035,0.0,0.21999637653026888
NGA,NG,3795.0,36755.0,36755.0,banye,14231.0,7.5788975,12.685842300000001,1,,,2013.0,,,50,0,,,50,0,,,50,0,,,1,11513,0.0,0.0,0.0,0.0
NGA,NG,3798.0,36834.0,36834.0,baptist lgea,,4.5500001999999995,8.5,3,,,2003.0,6.0,12.0,151,2,,,151,22,,,151,4,,,2,30698,0.013245033112582781,0.1456953642384106,0.026490066225165563,0.16919009522562758
NGA,NG,3779.0,36439.0,36439.0,bara,15094.0,10.7295146,10.3744372,1,,,2014.0,,,50,0,,,50,0,,,50,0,,,1,10618,0.0,0.0,0.0,0.0
NGA,NG,3794.0,36706.0,36706.0,barabe,13870.0,9.0368,11.968642599999999,1,,,2013.0,,,50,13,,,50,0,,,50,0,,,1,11277,0.26,0.0,0.0,0.2452830188679245
NGA,NG,3779.0,36432.0,36432.0,baraza,14285.0,9.43569795,9.952816516,3,,,2014.0,,,50,1,,,50,0,,,50,0,,,1,10585,0.02,0.0,0.0,0.018867924528301886
NGA,NG,3796.0,36801.0,36801.0,barbarejo,15776.0,3.9980485,11.5996266,1,,,2014.0,,,44,3,,,44,1,,,44,0,,,1,11747,0.06818181818181818,0.022727272727272728,0.0,0.08430141899267113
NGA,NG,3794.0,36729.0,36729.0,bargoni,15104.0,8.1229329,11.739337,1,,,2013.0,,,50,21,,,50,0,,,50,0,,,1,11378,0.42,0.0,0.0,0.3962264150943396
NGA,NG,3799.0,36860.0,36860.0,bariga,15738.0,3.3849441,6.5391037,1,,,2014.0,,,54,0,,,54,11,,,54,1,,,1,12140,0.0,0.2037037037037037,0.018518518518518517,0.2060848409555607
NGA,NG,3797.0,36821.0,36821.0,bariki,15490.0,6.2283035,7.5494986,1,,,2014.0,,,50,17,,,50,5,,,50,0,,,1,11847,0.34,0.1,0.0,0.3830188679245283
NGA,NG,3792.0,36664.0,36664.0,bariki,14543.0,9.39119,12.6343501,1,,,2013.0,,,24,0,,,24,0,,,24,0,,,1,11060,0.0,0.0,0.0,0.0
NGA,NG,3795.0,36771.0,36771.0,barkiya,15165.0,7.5355555,12.6642584,1,,,2013.0,,,53,1,,,53,0,,,53,0,,,1,11598,0.018867924528301886,0.0,0.0,0.017799928800284796
NGA,NG,3794.0,36711.0,36711.0,barkumi,14212.0,8.53993,11.696086,1,,,2013.0,,,50,4,,,50,0,,,50,0,,,1,11296,0.08,0.0,0.0,0.07547169811320754
NGA,NG,3790.0,36626.0,36626.0,baro nasarawo,15363.0,11.33261,11.0761232,1,,,2013.0,,,52,2,,,52,1,,,52,0,,,1,11007,0.038461538461538464,0.019230769230769232,0.0,0.053728927096125936
NGA,NG,3790.0,36626.0,36626.0,barowinde,15364.0,11.33261,11.0968118,1,,,2013.0,,,50,0,,,50,0,,,50,0,,,1,11005,0.0,0.0,0.0,0.0
NGA,NG,3798.0,36832.0,36832.0,baruba,14782.0,4.45698,8.50295,3,,,2012.0,,,59,3,,,59,27,,,59,0,,,1,11945,0.05084745762711865,0.4576271186440678,0.0,0.4577409441008601
NGA,NG,3792.0,36666.0,36666.0,basirka,14581.0,10.3189185,11.1503174,1,,,2013.0,,,49,10,,,49,0,,,49,0,,,1,11067,0.20408163265306123,0.0,0.0,0.19252984212552945
NGA,NG,3790.0,36622.0,36622.0,basoga,14456.0,11.43032,10.86008,3,,,2013.0,,,50,0,,,50,2,,,50,0,,,1,10984,0.0,0.04,0.0,0.03773584905660377
NGA,NG,3793.0,36685.0,36685.0,basurfe,14524.0,7.1923,11.03482,3,,,2013.0,,,50,0,,,50,0,,,50,0,,,1,11173,0.0,0.0,0.0,0.0
NGA,NG,3795.0,36751.0,36751.0,batagarawa,14098.0,7.5314298,12.867776899999999,3,,,2013.0,,,50,2,,,50,0,,,50,0,,,1,11495,0.04,0.0,0.0,0.03773584905660377
NGA,NG,3794.0,36707.0,36707.0,bataiya,13915.0,9.0239444,11.6672237,1,,,2013.0,,,50,6,,,50,0,,,50,0,,,1,11280,0.12,0.0,0.0,0.11320754716981131
NGA,NG,3794.0,36713.0,36713.0,batta kara,14250.0,8.51541,12.4382197,1,,,2013.0,,,50,0,,,50,5,,,50,0,,,1,11305,0.0,0.1,0.0,0.09433962264150943
NGA,NG,3808.0,37051.0,37051.0,bauchi,15195.0,5.2632,10.3009641,1,,,2011.0,,,56,3,,,56,0,,,56,0,,,1,12832,0.05357142857142857,0.0,0.0,0.050539083557951475
NGA,NG,3795.0,36753.0,36753.0,baure,14113.0,8.7456506,12.8375259,1,,,2013.0,,,57,2,,,57,0,,,57,0,,,1,11503,0.03508771929824561,0.0,0.0,0.03310162197947699
NGA,NG,3794.0,36737.0,36737.0,bawa,15623.0,8.46041,11.83573,3,,,2013.0,,,50,11,,,50,0,,,50,0,,,1,11426,0.22,0.0,0.0,0.20754716981132074
NGA,NG,3811.0,37104.0,37104.0,bayan tasha,15055.0,4.28908,12.59013,4,,,2009.0,,,59,4,,,59,0,,,59,0,,,1,13097,0.06779661016949153,0.0,0.0,0.0639590661976335
NGA,NG,3779.0,36428.0,36428.0,bayara,55866.0,9.7329998,10.216,3,,,1994.0,,,350,72,,,350,32,,,350,2,,,3,10563,0.2057142857142857,0.09142857142857143,0.005714285714285714,0.2664702788932284
NGA,NG,3794.0,36709.0,36709.0,bebeji,14118.0,8.2623222,11.6647762,1,,,2013.0,,,50,2,,,50,0,,,50,0,,,1,11288,0.04,0.0,0.0,0.03773584905660377
NGA,NG,3796.0,36804.0,36804.0,bedi,16018.0,5.3510196,11.4061522,3,,,2014.0,,,51,0,,,51,0,,,51,0,,,1,11760,0.0,0.0,0.0,0.0
NGA,NG,3808.0,37055.0,37055.0,behind water board,15743.0,4.84389,12.9923502,1,,,2011.0,,,58,4,,,58,0,,,58,0,,,1,12866,0.06896551724137931,0.0,0.0,0.06506180871828236
NGA,NG,3794.0,36741.0,36741.0,beta,15768.0,8.8993042,11.2746997,1,,,2013.0,,,50,23,,,50,0,,,50,0,,,1,11444,0.46,0.0,0.0,0.43396226415094336
NGA,NG,3782.0,36489.0,36489.0,bibalkwi primary sch,56012.0,12.133,10.383,3,,,2008.0,,,75,2,,,75,0,,,75,1,,,1,10749,0.02666666666666667,0.0,0.013333333333333334,0.03740041928721174
NGA,NG,3777.0,36382.0,36382.0,big town mkpanak,14611.0,8.0017027,4.5477259,1,,,2014.0,,,50,20,,,50,43,,,50,20,,,1,10326,0.4,0.86,0.4,0.8958490566037736
NGA,NG,3795.0,36762.0,36762.0,bilbis,14450.0,6.9423844,11.8724576,1,,,2013.0,,,49,5,,,49,2,,,49,0,,,1,11552,0.10204081632653061,0.04081632653061224,0.0,0.1308417090363292
NGA,NG,3811.0,37109.0,37109.0,bilbis,15840.0,6.9423844,11.8724576,1,,,2009.0,,,60,5,,,60,0,,,60,0,,,1,13141,0.08333333333333333,0.0,0.0,0.07861635220125784
NGA,NG,3811.0,37109.0,37109.0,bilbis pri school,56421.0,6.9423844,11.8724576,1,,,2011.0,,,60,5,,,60,0,,,60,0,,,1,13145,0.08333333333333333,0.0,0.0,0.07861635220125784
NGA,NG,3811.0,37099.0,37099.0,billashe,14159.0,6.9793,12.55566,3,,,2009.0,,,60,9,,,60,0,,,60,0,,,1,13044,0.15,0.0,0.0,0.14150943396226412
NGA,NG,3795.0,36754.0,36754.0,bindawa,14131.0,7.8096037,12.6706146,1,,,2013.0,,,52,1,,,52,1,,,52,0,,,1,11510,0.019230769230769232,0.019230769230769232,0.0,0.03593558110974656
NGA,NG,3808.0,37048.0,37048.0,binji,14777.0,4.9117284,13.222221,1,,,2011.0,,,61,2,,,61,0,,,61,0,,,1,12807,0.03278688524590164,0.0,0.0,0.030931023816888337
NGA,NG,3792.0,36659.0,36659.0,birniwa,14146.0,10.2361806,12.7911379,1,,,2013.0,,,50,0,,,50,4,,,50,0,,,1,11039,0.0,0.08,0.0,0.07547169811320754
NGA,NG,3792.0,36659.0,36659.0,birniwa tsaba pri school,55873.0,10.2361806,12.7911379,1,,,2011.0,,,50,0,,,50,0,,,50,0,,,1,11040,0.0,0.0,0.0,0.0
NGA,NG,3779.0,36428.0,36428.0,birshin fulani,14107.0,9.7656243,10.2479122,1,,,2014.0,,,51,0,,,51,0,,,51,0,,,1,19743,0.0,0.0,0.0,0.0
NGA,NG,3801.0,36884.0,36884.0,bishini,15034.0,6.31667,9.6231842,1,,,2013.0,,,55,0,,,55,0,,,55,0,,,1,12235,0.0,0.0,0.0,0.0
NGA,NG,3798.0,36838.0,36838.0,bode saadu,15350.0,4.7789,8.93963,3,,,2012.0,,,60,3,,,60,6,,,60,0,,,1,12001,0.05,0.1,0.0,0.13679245283018868
NGA,NG,3808.0,37042.0,37042.0,bodinga,14163.0,5.1679936,12.8753444,3,,,2011.0,,,60,5,,,60,0,,,60,0,,,1,12747,0.08333333333333333,0.0,0.0,0.07861635220125784
NGA,NG,3790.0,36618.0,36618.0,bogo,13874.0,11.1730615,10.279142,1,,,2013.0,,,50,3,,,50,2,,,50,1,,,1,10963,0.06,0.04,0.02,0.10910188679245282
NGA,NG,3779.0,36429.0,36429.0,bogoro,14169.0,9.6049091,9.6679241,1,,,2014.0,,,50,0,,,50,1,,,50,0,,,1,10570,0.0,0.02,0.0,0.018867924528301886
NGA,NG,3790.0,36627.0,36627.0,boh,15733.0,11.279305,9.7814446,1,,,2013.0,,,50,2,,,50,2,,,50,0,,,1,11011,0.04,0.04,0.0,0.07396226415094338
NGA,NG,3790.0,36625.0,36625.0,bojude,15185.0,11.02771,10.54086,3,,,2013.0,,,50,1,,,50,1,,,50,0,,,1,11001,0.02,0.02,0.0,0.03735849056603773
NGA,NG,3790.0,36623.0,36623.0,bolari,14529.0,11.169963,10.2770257,1,,,2013.0,,,50,1,,,50,2,,,50,0,,,1,10991,0.02,0.04,0.0,0.055849056603773574
NGA,NG,3793.0,36701.0,36701.0,bomo,15658.0,7.6385368,11.1944017,1,,,2013.0,,,50,0,,,50,0,,,50,0,,,1,11253,0.0,0.0,0.0,0.0
NGA,NG,3794.0,36711.0,36711.0,bono,14213.0,7.828755556,7.83703704,4,,,2013.0,,,50,23,,,50,0,,,50,0,,,1,11297,0.46,0.0,0.0,0.43396226415094336
NGA,NG,3803.0,36934.0,36934.0,bordan n/p sch,56302.0,5.0177798,7.1953402,3,,,2011.0,,,51,5,,,51,18,,,51,0,,,1,12408,0.09803921568627451,0.35294117647058826,0.0,0.3928097321059389
NGA,NG,3792.0,36675.0,36675.0,bosuwa,15258.0,9.5648,12.6045,3,,,2013.0,,,50,3,,,50,2,,,50,0,,,1,11118,0.06,0.04,0.0,0.0920754716981132
NGA,NG,3792.0,36675.0,36675.0,bosuwa pri school,56221.0,9.564900399999999,12.6045,3,,,2011.0,,,49,0,,,49,0,,,49,0,,,1,11120,0.0,0.0,0.0,0.0
NGA,NG,3790.0,36621.0,36621.0,bozon shilwa,14317.0,10.77167,10.8229629,1,,,2013.0,,,50,1,,,50,0,,,50,0,,,1,10978,0.02,0.0,0.0,0.018867924528301886
NGA,NG,3794.0,36719.0,36719.0,buda,14499.0,11.16458,11.5484585,1,,,2013.0,,,50,9,,,50,0,,,50,0,,,1,11333,0.18,0.0,0.0,0.16981132075471694
NGA,NG,3798.0,36832.0,36832.0,budo oba/goriola,14783.0,4.65761,8.56857,3,,,2012.0,,,53,2,,,53,5,,,53,0,,,1,11940,0.03773584905660377,0.09433962264150944,0.0,0.12124102446986439
NGA,NG,3797.0,36816.0,36816.0,budon,15244.0,6.5162842,8.3368333,1,,,2014.0,,,50,15,,,50,0,,,50,0,,,1,11823,0.3,0.0,0.0,0.28301886792452824
NGA,NG,3795.0,36765.0,36765.0,bugaje,14892.0,7.3818795999999995,12.9918442,1,,,2013.0,,,50,1,,,50,0,,,50,0,,,1,11563,0.02,0.0,0.0,0.018867924528301886
NGA,NG,3796.0,36793.0,36793.0,buhari model pri sch,56010.0,4.64183,12.4022,3,,,2011.0,,,61,13,,,61,0,,,61,1,,,1,11704,0.21311475409836064,0.0,0.01639344262295082,0.213221237950845
NGA,NG,3792.0,36660.0,36660.0,buji,14199.0,9.7678687,11.6766108,1,,,2013.0,,,50,3,,,50,2,,,50,0,,,1,11044,0.06,0.04,0.0,0.0920754716981132
NGA,NG,3808.0,37041.0,37041.0,bukari,14137.0,4.90955,13.222221,1,,,2011.0,,,61,3,,,61,0,,,61,0,,,1,12735,0.04918032786885246,0.0,0.0,0.046396535725332505
NGA,NG,3808.0,37041.0,37041.0,bukari model pri sch,55871.0,4.90274,13.1239,3,,,2011.0,,,61,3,,,61,0,,,61,0,,,1,12738,0.04918032786885246,0.0,0.0,0.046396535725332505
NGA,NG,3811.0,37102.0,37102.0,bukkuyum model pri sch,55988.0,5.4686068,12.1365984,1,,,2011.0,,,56,5,,,56,0,,,56,0,,,1,13069,0.08928571428571429,0.0,0.0,0.08423180592991913
NGA,NG,3811.0,37102.0,37102.0,bukkuyum model pri school,55989.0,5.4686068,12.1365984,1,,,2011.0,,,60,2,,,60,1,,,60,0,,,1,13066,0.03333333333333333,0.016666666666666666,0.0,0.046645702306079666
NGA,NG,3792.0,36670.0,36670.0,bulangu,14941.0,10.1101184,12.0884599,1,,,2013.0,,,48,6,,,48,0,,,48,1,,,1,11087,0.125,0.0,0.020833333333333332,0.13512185534591195
NGA,NG,3796.0,36792.0,36792.0,bulun shibkkau,14445.0,5.11127,11.507973400000001,1,,,2014.0,,,34,1,,,34,1,,,34,0,,,1,11700,0.029411764705882353,0.029411764705882353,0.0,0.05467780897042501
NGA,NG,3796.0,36791.0,36791.0,buma,14261.0,4.948384,11.15935525,4,,,2014.0,,,50,1,,,50,1,,,50,0,,,1,11694,0.02,0.02,0.0,0.03735849056603773
NGA,NG,3796.0,36793.0,36793.0,bundusule,14576.0,4.64227,12.4985661,1,,,2014.0,,,42,1,,,42,0,,,42,0,,,1,11705,0.023809523809523808,0.0,0.0,0.0224618149146451
NGA,NG,3794.0,36711.0,36711.0,bunkure gari,14214.0,8.5418899,11.696086,1,,,2013.0,,,51,1,,,51,6,,,51,0,,,1,19754,0.0196078431372549,0.11764705882352941,0.0,0.12730952536397466
NGA,NG,3779.0,36443.0,36443.0,bununu,15783.0,9.6814748,9.8820816,1,,,2014.0,,,50,1,,,50,3,,,50,0,,,1,10640,0.02,0.06,0.0,0.07433962264150942
NGA,NG,3796.0,36790.0,36790.0,bunza,14217.0,4.0108086,12.0915882,1,,,2014.0,,,55,7,,,55,0,,,55,0,,,1,11692,0.12727272727272726,0.0,0.0,0.12006861063464834
NGA,NG,3794.0,36716.0,36716.0,burji,14308.0,8.4101984,11.8920353,1,,,2013.0,,,50,9,,,50,0,,,50,0,,,1,11319,0.18,0.0,0.0,0.16981132075471694
NGA,NG,3781.0,36458.0,36458.0,buruku,14222.0,9.2231387,7.4178411,1,,,2011.0,,,51,18,,,51,0,,,51,0,,,1,10673,0.35294117647058826,0.0,0.0,0.33296337402885684
NGA,NG,3793.0,36684.0,36684.0,buruku,14236.0,7.2315774,10.6195507,1,,,2013.0,,,54,0,,,54,0,,,54,0,,,1,11166,0.0,0.0,0.0,0.0
NGA,NG,3789.0,36612.0,36612.0,burum,13935.0,7.4964116,8.9086592,1,,,2014.0,,,51,19,,,51,3,,,51,0,,,1,10915,0.37254901960784315,0.058823529411764705,0.0,0.38628103849753
NGA,NG,3794.0,36746.0,36746.0,burum burum,15850.0,8.7247164,11.3907382,1,,,2013.0,,,50,1,,,50,0,,,50,0,,,1,11468,0.02,0.0,0.0,0.018867924528301886
NGA,NG,3794.0,36738.0,36738.0,butu butu,15633.0,8.2158297,11.9458536,1,,,2013.0,,,50,10,,,50,0,,,50,0,,,1,11429,0.2,0.0,0.0,0.18867924528301885
NGA,NG,3789.0,36614.0,36614.0,bwari,14226.0,7.3786689,9.2855902,1,,,2014.0,,,50,5,,,50,0,,,50,0,,,1,10930,0.1,0.0,0.0,0.09433962264150943
NGA,NG,3789.0,36614.0,36614.0,byazhi,14227.0,7.38333,9.2152557,1,,,2014.0,,,50,12,,,50,1,,,50,0,,,1,10936,0.24,0.02,0.0,0.24075471698113204
NGA,NG,3788.0,36596.0,36596.0,c.p.s,55831.0,7.3621701999999996,6.1506901,3,,,2011.0,,,59,5,,,59,3,,,59,0,,,1,10806,0.0847457627118644,0.05084745762711865,0.0,0.12385293750982422
NGA,NG,3788.0,36605.0,36605.0,c.p.s,56243.0,7.6665902,6.3363099,3,,,2011.0,,,55,8,,,55,3,,,55,3,,,1,10860,0.14545454545454545,0.05454545454545454,0.05454545454545454,0.2227690911926059
NGA,NG,3788.0,36605.0,36605.0,c.p.s,56244.0,7.6665902,6.3363099,3,,,2011.0,,,59,5,,,59,3,,,59,0,,,1,10857,0.0847457627118644,0.05084745762711865,0.0,0.12385293750982422
NGA,NG,3788.0,36598.0,36598.0,c.p.s,55933.0,7.5787902,6.4791001999999995,3,,,2011.0,,,60,1,,,60,6,,,60,0,,,1,10818,0.016666666666666666,0.1,0.0,0.10849056603773584
NGA,NG,3788.0,36611.0,36611.0,c.p.s,56442.0,7.2418799,6.7645102,3,,,2011.0,,,50,2,,,50,1,,,50,0,,,1,10901,0.04,0.02,0.0,0.055849056603773574
NGA,NG,3788.0,36611.0,36611.0,c.p.s,56443.0,7.2418799,6.7645102,3,,,2011.0,,,60,5,,,60,1,,,60,0,,,1,10898,0.08333333333333333,0.016666666666666666,0.0,0.09302935010482179
NGA,NG,3788.0,36607.0,36607.0,c.p.s,56253.0,7.3402801,6.8988199,3,,,2011.0,,,58,5,,,58,4,,,58,0,,,1,10875,0.08620689655172414,0.06896551724137931,0.0,0.1407802930024903
NGA,NG,3788.0,36607.0,36607.0,c.p.s,56252.0,7.3402801,6.8988199,3,,,2011.0,,,53,2,,,53,0,,,53,0,,,1,10866,0.03773584905660377,0.0,0.0,0.03559985760056959
NGA,NG,3783.0,36513.0,36513.0,calabar,,8.3417006,4.9757165,1,,,1999.0,3.0,14.0,400,50,,,400,189,,,400,11,,,3,30675,0.125,0.4725,0.0275,0.519934404481132
NGA,NG,3804.0,36955.0,36955.0,cappa agunroda area,14766.0,8.88902,7.3758,4,,,2014.0,,,41,0,,,41,10,,,41,0,,,1,12524,0.0,0.24390243902439024,0.0,0.23009664058904736
NGA,NG,3809.0,37066.0,37066.0,central lri sch,55905.0,9.8913002,7.7134199,3,,,2011.0,,,54,13,,,54,4,,,54,0,,,1,12971,0.24074074074074073,0.07407407407407407,0.0,0.2801718559929601
NGA,NG,3788.0,36607.0,36607.0,central pri sch,56254.0,7.5857897,6.4752552,1,,,2011.0,,,50,3,,,50,2,,,50,0,,,1,10868,0.06,0.04,0.0,0.0920754716981132
NGA,NG,3788.0,36600.0,36600.0,central pri sch,55954.0,7.5857897,6.4752552,1,,,2011.0,,,59,13,,,59,0,,,59,0,,,1,10829,0.22033898305084745,0.0,0.0,0.2078669651423089
NGA,NG,3809.0,37072.0,37072.0,central pri sch,56177.0,10.62249,7.2065701,3,,,2011.0,,,54,10,,,54,3,,,54,0,,,1,12991,0.18518518518518517,0.05555555555555555,0.0,0.21740818386520688
NGA,NG,3798.0,36830.0,36830.0,central pry,55922.0,5.2392998,8.0696602,3,,,2011.0,,,57,1,,,57,9,,,57,0,,,1,11919,0.017543859649122806,0.15789473684210525,0.0,0.16289482395163676
NGA,NG,3798.0,36829.0,36829.0,central pry,55915.0,5.2849002,8.8546667,3,,,2011.0,,,59,3,,,59,0,,,59,0,,,1,11908,0.05084745762711865,0.0,0.0,0.04796929964822513
NGA,NG,3778.0,36419.0,36419.0,central pry sch,56248.0,6.8687301,5.9338498,3,,,2011.0,,,60,4,,,60,5,,,60,0,,,1,10536,0.06666666666666667,0.08333333333333333,0.0,0.1362683438155136
NGA,NG,3778.0,36420.0,36420.0,central pry sch,56250.0,6.8962102,5.9572301,3,,,2011.0,,,49,15,,,49,0,,,49,0,,,1,10538,0.30612244897959184,0.0,0.0,0.28879476318829417
NGA,NG,3778.0,36425.0,36425.0,central sch,56314.0,7.1493001,6.0135899,3,,,2011.0,,,51,1,,,51,6,,,51,0,,,1,10556,0.0196078431372549,0.11764705882352941,0.0,0.12730952536397466
NGA,NG,3778.0,36411.0,36411.0,central sch,55836.0,7.0267801,6.1409602,3,,,2011.0,,,53,2,,,53,0,,,53,0,,,1,10487,0.03773584905660377,0.0,0.0,0.03559985760056959
NGA,NG,3798.0,36834.0,36834.0,centre igboro lgea primary school,,4.5500001999999995,8.5,3,,,2006.0,5.0,12.0,50,1,,,50,9,,,50,1,,,1,30711,0.02,0.18,0.02,0.20044528301886788
NGA,NG,3792.0,36678.0,36678.0,chai chai,15637.0,9.16192,12.0111566,1,,,2013.0,,,50,6,,,50,0,,,50,0,,,1,11132,0.12,0.0,0.0,0.11320754716981131
NGA,NG,3811.0,37103.0,37103.0,chakal,14556.0,9.640406667,12.19359,4,,,2009.0,,,63,9,,,63,0,,,63,0,,,1,13080,0.14285714285714285,0.0,0.0,0.1347708894878706
NGA,NG,3811.0,37101.0,37101.0,chakal model pri school,55881.0,6.7184401,12.19359,3,,,2011.0,,,63,9,,,63,0,,,63,0,,,1,13062,0.14285714285714285,0.0,0.0,0.1347708894878706
NGA,NG,3793.0,36693.0,36693.0,chakwama,14951.0,7.366667,9.433333,3,,,2013.0,,,50,0,,,50,0,,,50,0,,,1,11214,0.0,0.0,0.0,0.0
NGA,NG,3795.0,36755.0,36755.0,charanchi,14232.0,7.7280914,12.6729947,1,,,2013.0,,,50,0,,,50,0,,,50,0,,,1,11517,0.0,0.0,0.0,0.0
NGA,NG,3797.0,36815.0,36815.0,chikara,15114.0,7.541,8.389,4,,,2014.0,,,55,8,,,55,1,,,55,0,,,1,11816,0.14545454545454545,0.01818181818181818,0.0,0.15187899578980196
NGA,NG,3779.0,36438.0,36438.0,chinade,15026.0,10.4213947,11.5203184,1,,,2014.0,,,50,7,,,50,2,,,50,1,,,1,10612,0.14,0.04,0.02,0.1801056603773585
NGA,NG,3794.0,36749.0,36749.0,chinama,15949.0,8.84505,11.7942415,1,,,2013.0,,,50,3,,,50,0,,,50,0,,,1,11485,0.06,0.0,0.0,0.056603773584905655
NGA,NG,3794.0,36747.0,36747.0,chiroma tukwane,15880.0,8.5336525,8.4840219,1,,,2013.0,,,50,4,,,50,0,,,50,0,,,1,11472,0.08,0.0,0.0,0.07547169811320754
NGA,NG,3794.0,36710.0,36710.0,chiromawa,14123.0,8.3910127,11.6243843,1,,,2013.0,,,51,6,,,51,0,,,51,0,,,1,11293,0.11764705882352941,0.0,0.0,0.11098779134295227
NGA,NG,3794.0,36720.0,36720.0,chiromawa,14489.0,8.3910127,11.6243843,1,,,2013.0,,,50,2,,,50,0,,,50,0,,,1,11337,0.04,0.0,0.0,0.03773584905660377
NGA,NG,3808.0,37054.0,37054.0,chopal,15699.0,4.99388,12.6549,3,,,2011.0,,,60,5,,,60,0,,,60,0,,,1,12860,0.08333333333333333,0.0,0.0,0.07861635220125784
NGA,NG,3808.0,37063.0,37063.0,chopal pry sch,56461.0,4.9938798,12.6549,3,,,2011.0,,,60,5,,,60,0,,,60,0,,,1,12962,0.08333333333333333,0.0,0.0,0.07861635220125784
NGA,NG,3794.0,36706.0,36706.0,chula,13871.0,8.96753,11.9908,3,,,2013.0,,,52,1,,,52,0,,,52,0,,,1,11276,0.019230769230769232,0.0,0.0,0.018142235123367198
NGA,NG,3808.0,37057.0,37057.0,ciroma bello pri sch,56378.0,5.26124,13.0734,3,,,2011.0,,,53,0,,,53,0,,,53,0,,,1,12886,0.0,0.0,0.0,0.0
NGA,NG,3803.0,36931.0,36931.0,city model pri sch,56093.0,4.8372126,7.107425,2,,,2011.0,,,50,9,,,50,10,,,50,1,,,1,12380,0.18,0.2,0.02,0.3369056603773585
NGA,NG,3802.0,36906.0,36906.0,coker,14688.0,3.13798,6.77178,3,,,2009.0,,,44,1,,,44,2,,,44,0,,,1,12266,0.022727272727272728,0.045454545454545456,0.0,0.06334788710431934
NGA,NG,3778.0,36407.0,36407.0,comm dev pry sch,55794.0,6.8660201999999995,6.29389,3,,,2011.0,,,50,2,,,50,3,,,50,0,,,1,10452,0.04,0.06,0.0,0.0920754716981132
NGA,NG,3803.0,36926.0,36926.0,comm high sch,55938.0,4.8956499,6.44414,3,,,2011.0,,,50,8,,,50,4,,,50,0,,,1,12360,0.16,0.08,0.0,0.2143396226415094
NGA,NG,3788.0,36600.0,36600.0,comm pri sch,55955.0,7.1891899,6.3909001,3,,,2011.0,,,55,6,,,55,2,,,55,0,,,1,10833,0.10909090909090909,0.03636363636363636,0.0,0.13347887104319348
NGA,NG,3788.0,36600.0,36600.0,comm pri sch,55957.0,7.1891899,6.3909001,3,,,2011.0,,,57,4,,,57,1,,,57,0,,,1,10835,0.07017543859649122,0.017543859649122806,0.0,0.08159259452835994
NGA,NG,3788.0,36600.0,36600.0,comm pri sch,55956.0,7.1891899,6.3909001,3,,,2011.0,,,58,5,,,58,1,,,58,0,,,1,10832,0.08620689655172414,0.017241379310344827,0.0,0.0961905189240123
NGA,NG,3798.0,36831.0,36831.0,comm pry,56036.0,5.03545,8.5580702,3,,,2011.0,,,54,1,,,54,7,,,54,1,,,1,11931,0.018518518518518517,0.12962962962962962,0.018518518518518517,0.15242178146259724
NGA,NG,3778.0,36414.0,36414.0,comm pry sch,55927.0,6.8122501,5.9787202,3,,,2011.0,,,44,5,,,44,0,,,44,0,,,1,10500,0.11363636363636363,0.0,0.0,0.10720411663807888
NGA,NG,3778.0,36412.0,36412.0,comm pry sch,55840.0,6.9769802,6.70507,3,,,2011.0,,,55,4,,,55,0,,,55,0,,,1,10492,0.07272727272727272,0.0,0.0,0.06861063464837049
NGA,NG,3798.0,36836.0,36836.0,comm pry sch,56109.0,5.1833329,8.2166662,3,,,2011.0,,,60,2,,,60,17,,,60,0,,,1,11984,0.03333333333333333,0.2833333333333333,0.0,0.28983228511530396
NGA,NG,3788.0,36605.0,36605.0,comm. pri. sch,56245.0,7.5013802,6.4446992,2,,,2011.0,,,60,1,,,60,4,,,60,0,,,1,10854,0.016666666666666666,0.06666666666666667,0.0,0.07756813417190775
NGA,NG,3788.0,36605.0,36605.0,comm.pri. sch,56246.0,7.6579499,6.3059101,3,,,2011.0,,,60,3,,,60,1,,,60,0,,,1,10858,0.05,0.016666666666666666,0.0,0.0621069182389937
NGA,NG,3788.0,36597.0,36597.0,comm.pri. sch,55929.0,7.5543098,6.62012,3,,,2011.0,,,59,8,,,59,5,,,59,0,,,1,10815,0.13559322033898305,0.0847457627118644,0.0,0.19702644544779474
NGA,NG,3788.0,36597.0,36597.0,comm.pri. sch,55931.0,7.5543098,6.62012,3,,,2011.0,,,52,0,,,52,1,,,52,0,,,1,10810,0.0,0.019230769230769232,0.0,0.018142235123367198
NGA,NG,3788.0,36597.0,36597.0,comm.pri. sch,55930.0,7.5543098,6.62012,3,,,2011.0,,,54,2,,,54,1,,,54,0,,,1,10812,0.037037037037037035,0.018518518518518517,0.0,0.05176385330123974
NGA,NG,3788.0,36610.0,36610.0,comm.pri.sch,56431.0,7.2820001,6.2754302,3,,,2011.0,,,30,2,,,30,1,,,30,0,,,1,10895,0.06666666666666667,0.03333333333333333,0.0,0.09224318658280922
NGA,NG,3778.0,36425.0,36425.0,community high sch,56315.0,7.1426201,6.0065598,3,,,2011.0,,,56,3,,,56,2,,,56,0,,,1,10557,0.05357142857142857,0.03571428571428571,0.0,0.08242683865999229
NGA,NG,3788.0,36600.0,36600.0,community pri sch,55958.0,7.2287698,6.3249302,3,,,2011.0,,,60,4,,,60,1,,,60,0,,,1,10834,0.06666666666666667,0.016666666666666666,0.0,0.07756813417190775
NGA,NG,3778.0,36417.0,36417.0,community pry sch,56046.0,6.8942198999999995,5.87395,3,,,2011.0,,,53,12,,,53,2,,,53,0,,,1,10531,0.22641509433962265,0.03773584905660377,0.0,0.24113865808687707
NGA,NG,3778.0,36417.0,36417.0,community pry sch,56048.0,6.8942198999999995,5.87395,3,,,2011.0,,,58,10,,,58,0,,,58,0,,,1,10528,0.1724137931034483,0.0,0.0,0.16265452179570591
NGA,NG,3778.0,36417.0,36417.0,community pry sch,56047.0,6.8942198999999995,5.87395,3,,,2011.0,,,57,9,,,57,0,,,57,0,,,1,10529,0.15789473684210525,0.0,0.0,0.14895729890764645
NGA,NG,3778.0,36410.0,36410.0,community pry sch,55833.0,7.0328498,6.2588902,3,,,2011.0,,,52,12,,,52,3,,,52,0,,,1,10478,0.23076923076923078,0.057692307692307696,0.0,0.25957351791894606
NGA,NG,3788.0,36608.0,36608.0,community pry sch,56312.0,7.1438198,6.25141,3,,,2011.0,,,49,3,,,49,12,,,49,0,,,1,10878,0.061224489795918366,0.24489795918367346,0.0,0.27464971356274503
NGA,NG,3803.0,36920.0,36920.0,comp. high sch,55765.0,5.7509298,7.5026398,3,,,2011.0,,,51,1,,,51,8,,,51,0,,,1,12305,0.0196078431372549,0.1568627450980392,0.0,0.16358004541069107
NGA,NG,3778.0,36421.0,36421.0,cps,56276.0,6.6956902,5.8792701,3,,,2011.0,,,55,1,,,55,0,,,55,0,,,1,10546,0.01818181818181818,0.0,0.0,0.01715265866209262
NGA,NG,3778.0,36416.0,36416.0,cps,56031.0,6.8111601,6.03793,3,,,2011.0,,,58,3,,,58,4,,,58,1,,,1,10516,0.05172413793103448,0.06896551724137931,0.017241379310344827,0.12485330148063965
NGA,NG,3778.0,36415.0,36415.0,cps,56029.0,6.9268999,6.12815,3,,,2011.0,,,53,0,,,53,0,,,53,0,,,1,10507,0.0,0.0,0.0,0.0
NGA,NG,3778.0,36409.0,36409.0,cps,55807.0,6.9833999,6.0981898,3,,,2011.0,,,49,0,,,49,0,,,49,0,,,1,10477,0.0,0.0,0.0,0.0
NGA,NG,3778.0,36407.0,36407.0,cps,55796.0,6.8191299,6.2642398,3,,,2011.0,,,44,5,,,44,2,,,44,1,,,1,10457,0.11363636363636363,0.045454545454545456,0.022727272727272728,0.16335338020781648
NGA,NG,3778.0,36407.0,36407.0,cps,55795.0,6.8191299,6.2642398,3,,,2011.0,,,50,2,,,50,1,,,50,0,,,1,10458,0.04,0.02,0.0,0.055849056603773574
NGA,NG,3778.0,36408.0,36408.0,cps,55804.0,6.7300301000000005,6.45119,3,,,2011.0,,,55,8,,,55,0,,,55,0,,,1,10467,0.14545454545454545,0.0,0.0,0.13722126929674097
NGA,NG,3800.0,36867.0,36867.0,"cps, abdul zanga",15081.0,7.5252,8.504,3,,,2013.0,,,48,0,,,48,0,,,48,0,,,1,12188,0.0,0.0,0.0,0.0
NGA,NG,3800.0,36866.0,36866.0,"cps, aloshi",15070.0,8.8026648,8.2404823,1,,,2013.0,,,55,3,,,55,0,,,55,0,,,1,12180,0.05454545454545454,0.0,0.0,0.05145797598627787
NGA,NG,3806.0,37009.0,37009.0,"cps, dadur",15216.0,9.8244,9.2265,3,,,2013.0,,,48,4,,,48,2,,,48,0,,,1,12673,0.08333333333333333,0.041666666666666664,0.0,0.11464884696016771
NGA,NG,3800.0,36873.0,36873.0,"cps, gwargwada",15832.0,7.08444,8.389202,1,,,2013.0,,,49,10,,,49,1,,,49,0,,,1,12221,0.20408163265306123,0.02040816326530612,0.0,0.20785364588654096
NGA,NG,3794.0,36736.0,36736.0,"cps, kana",15368.0,7.522,8.3252,4,,,2013.0,,,41,4,,,41,1,,,41,0,,,1,11413,0.0975609756097561,0.024390243902439025,0.0,0.1128034750204842
NGA,NG,3800.0,36866.0,36866.0,"cps, keana",15071.0,8.8004489,8.150144,2,,,2013.0,,,55,0,,,55,0,,,55,0,,,1,12179,0.0,0.0,0.0,0.0
NGA,NG,3794.0,36736.0,36736.0,"cps, kofar kudu",15369.0,8.5309068,11.9562591,1,,,2013.0,,,44,12,,,44,0,,,44,0,,,1,11412,0.2727272727272727,0.0,0.0,0.2572898799313893
NGA,NG,3800.0,36865.0,36865.0,"cps, kugbaru",15017.0,6.63951,10.63949,1,,,2013.0,,,56,0,,,56,0,,,56,0,,,1,12174,0.0,0.0,0.0,0.0
NGA,NG,3794.0,36736.0,36736.0,"cps, laminga",15370.0,7.810963,8.6804704,1,,,2013.0,,,36,11,,,36,1,,,36,0,,,1,11414,0.3055555555555556,0.027777777777777776,0.0,0.30645818774749595
NGA,NG,3794.0,36736.0,36736.0,"cps, loko",15371.0,7.84116,7.997967,4,,,2013.0,,,61,7,,,61,0,,,61,0,,,1,11417,0.11475409836065574,0.0,0.0,0.10825858335910918
NGA,NG,3800.0,36865.0,36865.0,"cps, maraba",15018.0,6.63951,9.0266823,1,,,2013.0,,,43,8,,,43,0,,,43,0,,,1,12173,0.18604651162790697,0.0,0.0,0.1755155770074594
NGA,NG,3800.0,36865.0,36865.0,"cps, masaka",15019.0,7.673611,9.005,3,,,2013.0,,,43,10,,,43,1,,,43,0,,,1,12172,0.23255813953488372,0.023255813953488372,0.0,0.23623172137922588
NGA,NG,3806.0,37003.0,37003.0,"cps, mushere",14173.0,9.0479475,9.1580252,1,,,2013.0,,,48,13,,,48,1,,,48,0,,,1,12596,0.2708333333333333,0.020833333333333332,0.0,0.269834250524109
NGA,NG,3794.0,36736.0,36736.0,"cps, nasarawa north",15372.0,7.7059999999999995,8.543800000000001,4,,,2013.0,,,50,8,,,50,1,,,50,0,,,1,11416,0.16,0.02,0.0,0.16679245283018865
NGA,NG,3794.0,36736.0,36736.0,"cps, odeni gida",15373.0,7.5838,8.1721,4,,,2013.0,,,44,17,,,44,0,,,44,1,,,1,11421,0.38636363636363635,0.0,0.022727272727272728,0.377650865429596
NGA,NG,3800.0,36865.0,36865.0,"cps, tatara",15020.0,6.63951,10.63949,1,,,2013.0,,,55,0,,,55,0,,,55,0,,,1,12177,0.0,0.0,0.0,0.0
NGA,NG,3800.0,36873.0,36873.0,"cps, toto",15833.0,7.0780814,8.389202,1,,,2013.0,,,50,0,,,50,0,,,50,0,,,1,12220,0.0,0.0,0.0,0.0
NGA,NG,3800.0,36873.0,36873.0,"cps, ugya",15834.0,7.938,8.1215,3,,,2013.0,,,53,0,,,53,0,,,53,0,,,1,12219,0.0,0.0,0.0,0.0
NGA,NG,3809.0,37075.0,37075.0,crcn nur/pri sch,56386.0,9.9833336,7.2666669,3,,,2011.0,,,41,10,,,41,1,,,41,0,,,1,13010,0.24390243902439024,0.024390243902439025,0.0,0.2474941914628534
NGA,NG,3806.0,37009.0,37009.0,"css, pyayal",15217.0,9.917,9.4655,3,,,2013.0,,,49,0,,,49,0,,,49,0,,,1,12677,0.0,0.0,0.0,0.0
NGA,NG,3795.0,36766.0,36766.0,d/kanjima,14946.0,7.6940100000000005,11.6505302,1,,,2013.0,,,50,6,,,50,9,,,50,0,,,1,11570,0.12,0.18,0.0,0.2626415094339622
NGA,NG,3789.0,36617.0,36617.0,dabi,15180.0,7.005,8.8469761,1,,,2014.0,,,45,3,,,45,0,,,45,0,,,1,10961,0.06666666666666667,0.0,0.0,0.06289308176100628
NGA,NG,3792.0,36678.0,36678.0,dabi,15638.0,9.0225628,12.0949305,1,,,2013.0,,,50,1,,,50,0,,,50,0,,,1,11133,0.02,0.0,0.0,0.018867924528301886
NGA,NG,3806.0,37007.0,37007.0,dadda,14981.0,10.3847,9.5386,3,,,2013.0,,,50,9,,,50,0,,,50,0,,,1,12661,0.18,0.0,0.0,0.16981132075471694
NGA,NG,3795.0,36765.0,36765.0,daddara,14893.0,7.3908283,13.089822,1,,,2013.0,,,50,1,,,50,0,,,50,0,,,1,11565,0.02,0.0,0.0,0.018867924528301886
NGA,NG,3794.0,36716.0,36716.0,dadin kowa,14309.0,8.6298119,10.7000994,1,,,2013.0,,,50,2,,,50,0,,,50,0,,,1,11322,0.04,0.0,0.0,0.03773584905660377
NGA,NG,3790.0,36628.0,36628.0,dadin kowa,15978.0,9.8004278,10.94069023,4,,,2013.0,,,50,1,,,50,0,,,50,0,,,1,11016,0.02,0.0,0.0,0.018867924528301886
NGA,NG,3796.0,36787.0,36787.0,dafashi,14008.0,4.5998,12.8932167,1,,,2014.0,,,51,3,,,51,0,,,51,0,,,1,11673,0.058823529411764705,0.0,0.0,0.05549389567147613
NGA,NG,3808.0,37063.0,37063.0,dagawa,15963.0,5.0793902,12.7639986,1,,,2011.0,,,60,7,,,60,0,,,60,0,,,1,12958,0.11666666666666667,0.0,0.0,0.110062893081761
NGA,NG,3808.0,37058.0,37058.0,dagawa pry sch,56394.0,5.0793902,12.7639986,1,,,2011.0,,,60,7,,,60,0,,,60,0,,,1,12896,0.11666666666666667,0.0,0.0,0.110062893081761
NGA,NG,3804.0,36964.0,36964.0,dagbolu osogbo,15520.0,4.55698,7.77104,3,,,2014.0,,,48,1,,,48,3,,,48,1,,,1,12564,0.020833333333333332,0.0625,0.020833333333333332,0.09542981033805029
NGA,NG,3790.0,36624.0,36624.0,dagon ruwa,14976.0,11.30889,9.8201485,1,,,2013.0,,,50,5,,,50,2,,,50,0,,,1,10993,0.1,0.04,0.0,0.12830188679245283
NGA,NG,3794.0,36749.0,36749.0,dagumawa,15950.0,8.8252502,11.7636351,1,,,2013.0,,,41,5,,,41,6,,,41,0,,,1,11486,0.12195121951219512,0.14634146341463414,0.0,0.236269965092656
NGA,NG,3794.0,36707.0,36707.0,daho,13916.0,9.2231387,11.7059494,1,,,2013.0,,,50,1,,,50,6,,,50,0,,,1,11282,0.02,0.12,0.0,0.12981132075471694
NGA,NG,3799.0,36842.0,36842.0,dairy farm,13848.0,3.327183,6.626395,3,,,2014.0,,,53,1,,,53,1,,,53,0,,,1,12039,0.018867924528301886,0.018867924528301886,0.0,0.03526400988735667
NGA,NG,3794.0,36736.0,36736.0,dakada,15374.0,8.5919561,12.0021794,1,,,2013.0,,,50,0,,,50,1,,,50,0,,,1,11419,0.0,0.02,0.0,0.018867924528301886
NGA,NG,3792.0,36671.0,36671.0,dakayyawa,15046.0,9.4032,12.2111,3,,,2013.0,,,47,0,,,47,0,,,47,0,,,1,11093,0.0,0.0,0.0,0.0
NGA,NG,3790.0,36628.0,36628.0,dakum,15979.0,11.49806,10.29058,3,,,2013.0,,,50,0,,,50,0,,,50,0,,,1,11014,0.0,0.0,0.0,0.0
NGA,NG,3794.0,36719.0,36719.0,dal,14500.0,8.8225815,11.4706991,3,,,2013.0,,,50,7,,,50,0,,,50,0,,,1,11332,0.14,0.0,0.0,0.1320754716981132
NGA,NG,3794.0,36712.0,36712.0,dala,14242.0,8.5007116,12.0052643,1,,,2013.0,,,50,2,,,50,0,,,50,0,,,1,11300,0.04,0.0,0.0,0.03773584905660377
NGA,NG,3790.0,36626.0,36626.0,dalati nafada,15365.0,11.3345967,11.0968118,1,,,2013.0,,,50,1,,,50,1,,,50,0,,,1,11006,0.02,0.02,0.0,0.03735849056603773
NGA,NG,3794.0,36746.0,36746.0,dalawa,15851.0,8.6490584,11.3184942,1,,,2013.0,,,50,6,,,50,5,,,50,0,,,1,11469,0.12,0.1,0.0,0.1962264150943396
NGA,NG,3794.0,36732.0,36732.0,dalili,15160.0,8.4074573,11.7762772,1,,,2013.0,,,50,2,,,50,0,,,50,0,,,1,11395,0.04,0.0,0.0,0.03773584905660377
NGA,NG,3795.0,36754.0,36754.0,dallaji,14132.0,7.80942,12.699155,1,,,2013.0,,,53,13,,,53,0,,,53,0,,,1,11511,0.24528301886792453,0.0,0.0,0.23139907440370236
NGA,NG,3796.0,36786.0,36786.0,dallatu,13988.0,4.52687,12.7494718,1,,,2014.0,,,37,1,,,37,0,,,37,0,,,1,11672,0.02702702702702703,0.0,0.0,0.025497195308516064
NGA,NG,3795.0,36780.0,36780.0,damari hayin kawuwa,15668.0,7.0939725,11.3861767,1,,,2013.0,,,50,6,,,50,0,,,50,0,,,1,11642,0.12,0.0,0.0,0.11320754716981131
NGA,NG,3779.0,36430.0,36430.0,dambam,14245.0,10.7069688,11.6795092,1,,,2014.0,,,50,3,,,50,0,,,50,0,,,1,10573,0.06,0.0,0.0,0.056603773584905655
NGA,NG,3794.0,36713.0,36713.0,dambatta,14251.0,8.6160674,12.4382197,1,,,2013.0,,,50,0,,,50,0,,,50,0,,,1,11306,0.0,0.0,0.0,0.0
NGA,NG,3794.0,36727.0,36727.0,dambazau,15012.0,10.719204,10.694536,4,,,2013.0,,,50,24,,,50,0,,,50,0,,,1,11370,0.48,0.0,0.0,0.45283018867924524
NGA,NG,3793.0,36705.0,36705.0,dambo,16009.0,7.7742702,11.0729157,1,,,2013.0,,,50,0,,,50,0,,,50,0,,,1,11271,0.0,0.0,0.0,0.0
NGA,NG,3811.0,37098.0,37098.0,dambo jss,55852.0,5.8740201,12.60822,3,,,2011.0,,,60,12,,,60,0,,,60,0,,,1,13039,0.2,0.0,0.0,0.18867924528301885
NGA,NG,3811.0,37098.0,37098.0,dambo pri sch,55853.0,5.8740201,12.60822,3,,,2011.0,,,56,3,,,56,0,,,56,0,,,1,13036,0.05357142857142857,0.0,0.0,0.050539083557951475
NGA,NG,3779.0,36430.0,36430.0,damiyo,14246.0,10.72860717,11.55860001,3,,,2014.0,,,50,4,,,50,1,,,50,0,,,1,10574,0.08,0.02,0.0,0.09283018867924528
NGA,NG,3795.0,36756.0,36756.0,dan musa,14255.0,7.332753,12.2626868,1,,,2013.0,,,40,4,,,40,0,,,40,0,,,1,11520,0.1,0.0,0.0,0.09433962264150943
NGA,NG,3795.0,36760.0,36760.0,dan   aunai,14327.0,8.1900967,12.894166,1,,,2013.0,,,50,1,,,50,0,,,50,0,,,1,11538,0.02,0.0,0.0,0.018867924528301886
NGA,NG,3792.0,36680.0,36680.0,dan damo,15763.0,7.025432,11.228156,4,,,2013.0,,,50,1,,,50,0,,,50,0,,,1,11145,0.02,0.0,0.0,0.018867924528301886
NGA,NG,3792.0,36675.0,36675.0,dan kumbo,15259.0,9.356209400000001,12.7201885,1,,,2013.0,,,50,0,,,50,0,,,50,0,,,1,11119,0.0,0.0,0.0,0.0
NGA,NG,3793.0,36697.0,36697.0,dan maliki,15136.0,8.35445,10.585059,3,,,2013.0,,,50,0,,,50,0,,,50,0,,,1,11231,0.0,0.0,0.0,0.0
NGA,NG,3808.0,37043.0,37043.0,dan masari lackan m.p.s,55896.0,5.2866101,12.9459,3,,,2011.0,,,60,5,,,60,0,,,60,0,,,1,12756,0.08333333333333333,0.0,0.0,0.07861635220125784
NGA,NG,3795.0,36756.0,36756.0,danali,14256.0,7.4878431,12.1516345,1,,,2013.0,,,55,1,,,55,2,,,55,0,,,1,11521,0.01818181818181818,0.03636363636363636,0.0,0.050834242944019954
NGA,NG,3811.0,37105.0,37105.0,danbaza,15300.0,5.697716667,12.48828,3,,,2009.0,,,60,2,,,60,1,,,60,0,,,1,13103,0.03333333333333333,0.016666666666666666,0.0,0.046645702306079666
NGA,NG,3811.0,37108.0,37108.0,danbaza model pri sch,56389.0,6.1799364,12.5256286,1,,,2011.0,,,60,2,,,60,1,,,60,0,,,1,13133,0.03333333333333333,0.016666666666666666,0.0,0.046645702306079666
NGA,NG,3795.0,36751.0,36751.0,dandagoro,14099.0,7.6439611,12.9123324,1,,,2013.0,,,50,0,,,50,2,,,50,0,,,1,11493,0.0,0.04,0.0,0.03773584905660377
NGA,NG,3792.0,36672.0,36672.0,dandi,15066.0,12.2715479,12.7519069,4,,,2013.0,,,51,0,,,51,0,,,51,0,,,1,11102,0.0,0.0,0.0,0.0
NGA,NG,3795.0,36756.0,36756.0,dandire,14257.0,7.2329255,12.285239,1,,,2013.0,,,44,4,,,44,0,,,44,1,,,1,11519,0.09090909090909091,0.0,0.022727272727272728,0.10525495088102292
NGA,NG,3795.0,36757.0,36757.0,dandume,14265.0,7.2221421,11.390665,1,,,2013.0,,,48,7,,,48,0,,,48,0,,,1,11525,0.14583333333333334,0.0,0.0,0.13757861635220126
NGA,NG,3794.0,36748.0,36748.0,danfari,15928.0,8.6862333,11.983522,1,,,2013.0,,,50,27,,,50,0,,,50,0,,,1,11479,0.54,0.0,0.0,0.5094339622641509
NGA,NG,3795.0,36772.0,36772.0,dangamau,15175.0,7.98298,12.4621016,1,,,2013.0,,,50,2,,,50,1,,,50,0,,,1,11602,0.04,0.02,0.0,0.055849056603773574
NGA,NG,3794.0,36736.0,36736.0,dangana,15375.0,8.5556382,12.0208328,1,,,2013.0,,,44,2,,,44,0,,,44,0,,,1,11422,0.045454545454545456,0.0,0.0,0.04288164665523156
NGA,NG,3789.0,36617.0,36617.0,dangara,15181.0,6.9269386,8.5827338,1,,,2014.0,,,51,15,,,51,1,,,51,0,,,1,10953,0.29411764705882354,0.0196078431372549,0.0,0.29052686557419855
NGA,NG,3808.0,37054.0,37054.0,dange,15700.0,5.3442408,12.8576389,1,,,2011.0,,,61,6,,,61,0,,,61,0,,,1,12862,0.09836065573770492,0.0,0.0,0.09279307145066501
NGA,NG,3796.0,36799.0,36799.0,dangira,15678.0,5.6,11.0654717,1,,,2014.0,,,40,2,,,40,4,,,40,0,,,1,11737,0.05,0.1,0.0,0.13679245283018868
NGA,NG,3808.0,37056.0,37056.0,dango,15760.0,5.39803,13.71558,3,,,2011.0,,,60,0,,,60,0,,,60,0,,,1,12877,0.0,0.0,0.0,0.0
NGA,NG,3808.0,37044.0,37044.0,dango pri sch,55965.0,5.3980298,13.7156,3,,,2011.0,,,60,0,,,60,0,,,60,0,,,1,12774,0.0,0.0,0.0,0.0
NGA,NG,3793.0,36689.0,36689.0,dangoma,14888.0,6.235596167,10.889578,3,,,2013.0,,,53,0,,,53,0,,,53,0,,,1,11191,0.0,0.0,0.0,0.0
NGA,NG,3796.0,36795.0,36795.0,dangoma,14972.0,4.1526561,12.2992536,1,,,2014.0,,,53,6,,,53,1,,,53,1,,,1,11715,0.11320754716981132,0.018867924528301886,0.018867924528301886,0.13807143062634583
NGA,NG,3794.0,36729.0,36729.0,dangora,15105.0,8.1447804,11.5581197,1,,,2013.0,,,54,1,,,54,1,,,54,0,,,1,11381,0.018518518518518517,0.018518518518518517,0.0,0.03461707689520407
NGA,NG,3796.0,36785.0,36785.0,dangwagora,13984.0,4.044964,12.718123,3,,,2014.0,,,36,0,,,36,4,,,36,0,,,1,11666,0.0,0.1111111111111111,0.0,0.10482180293501046
NGA,NG,3792.0,36680.0,36680.0,dangwanki,15764.0,9.2511,12.8008,3,,,2013.0,,,50,0,,,50,0,,,50,0,,,1,11144,0.0,0.0,0.0,0.0
NGA,NG,3792.0,36677.0,36677.0,dangyatin,15322.0,9.7121206,12.1634477,1,,,2013.0,,,50,4,,,50,0,,,50,0,,,1,11129,0.08,0.0,0.0,0.07547169811320754
NGA,NG,3798.0,36833.0,36833.0,danialu,14785.0,4.6014996,8.4649009,1,,,2012.0,,,51,0,,,51,6,,,51,0,,,1,11954,0.0,0.11764705882352941,0.0,0.11098779134295227
NGA,NG,3794.0,36722.0,36722.0,danja,14515.0,7.5599321,11.379367,1,,,2013.0,,,50,27,,,50,0,,,50,0,,,1,11345,0.54,0.0,0.0,0.5094339622641509
NGA,NG,3795.0,36767.0,36767.0,dankaba,14962.0,7.7742702,13.2517456,1,,,2013.0,,,50,2,,,50,0,,,50,0,,,1,11573,0.04,0.0,0.0,0.03773584905660377
NGA,NG,3795.0,36767.0,36767.0,dankama,14963.0,8.172446933,13.04441248,3,,,2013.0,,,49,6,,,49,0,,,49,0,,,1,11576,0.12244897959183673,0.0,0.0,0.11551790527531766
NGA,NG,3792.0,36682.0,36682.0,dankama,15984.0,8.172446933,13.04441248,4,,,2013.0,,,50,1,,,50,0,,,50,0,,,1,11154,0.02,0.0,0.0,0.018867924528301886
NGA,NG,3796.0,36802.0,36802.0,danko,15938.0,5.6457951,11.3799005,2,,,2014.0,,,47,10,,,47,1,,,47,1,,,1,11751,0.2127659574468085,0.02127659574468085,0.02127659574468085,0.23198953080342283
NGA,NG,3794.0,36748.0,36748.0,danlasan,15929.0,8.7756556,11.8724316,1,,,2013.0,,,52,0,,,52,1,,,52,0,,,1,11480,0.0,0.019230769230769232,0.0,0.018142235123367198
NGA,NG,3795.0,36758.0,36758.0,danmaiguata,14275.0,7.56249,11.379367,1,,,2013.0,,,50,13,,,50,0,,,50,0,,,1,11530,0.26,0.0,0.0,0.2452830188679245
NGA,NG,3811.0,37101.0,37101.0,danmarke,14208.0,7.43135,10.19633333,4,,,2009.0,,,57,4,,,57,0,,,57,0,,,1,13058,0.07017543859649122,0.0,0.0,0.06620324395895398
NGA,NG,3794.0,36734.0,36734.0,danmarke,15273.0,8.43253,12.4199145,1,,,2013.0,,,50,2,,,50,0,,,50,0,,,1,11404,0.04,0.0,0.0,0.03773584905660377
NGA,NG,3811.0,37101.0,37101.0,danmarke pri school,55882.0,6.5629001,12.2356,3,,,2011.0,,,57,4,,,57,0,,,57,0,,,1,13063,0.07017543859649122,0.0,0.0,0.06620324395895398
NGA,NG,3794.0,36722.0,36722.0,dansarai,14516.0,7.7960118,11.9974738,1,,,2013.0,,,51,10,,,51,5,,,51,0,,,1,11349,0.19607843137254902,0.09803921568627451,0.0,0.2593342183340224
NGA,NG,3792.0,36679.0,36679.0,dansure,15654.0,8.3252705,12.6236677,1,,,2013.0,,,50,2,,,50,0,,,50,0,,,1,11139,0.04,0.0,0.0,0.03773584905660377
NGA,NG,3794.0,36717.0,36717.0,danwaire,14442.0,7.884911111,8.15,4,,,2013.0,,,50,4,,,50,4,,,50,0,,,1,11323,0.08,0.08,0.0,0.1449056603773585
NGA,NG,3795.0,36773.0,36773.0,danyashe,15253.0,8.1884949,13.0786319,1,,,2013.0,,,36,3,,,36,0,,,36,0,,,1,11611,0.08333333333333333,0.0,0.0,0.07861635220125784
NGA,NG,3792.0,36680.0,36680.0,danzomo,15765.0,9.356209400000001,12.4703326,1,,,2013.0,,,50,0,,,50,0,,,50,0,,,1,11142,0.0,0.0,0.0,0.0
NGA,NG,3779.0,36431.0,36431.0,darazo,14279.0,10.555989199999999,11.1189439,3,,,2014.0,,,50,3,,,50,0,,,50,0,,,1,10579,0.06,0.0,0.0,0.056603773584905655
NGA,NG,3795.0,36783.0,36783.0,dargege,15998.0,8.45312,13.01603,3,,,2013.0,,,50,1,,,50,0,,,50,0,,,1,11655,0.02,0.0,0.0,0.018867924528301886
NGA,NG,3794.0,36743.0,36743.0,darmanawa,15812.0,8.5473821,11.9557577,1,,,2013.0,,,49,4,,,49,1,,,49,0,,,1,11454,0.08163265306122448,0.02040816326530612,0.0,0.09469324888214814
NGA,NG,3779.0,36432.0,36432.0,darussalam,14286.0,10.12501716,10.03989458,3,,,2014.0,,,50,0,,,50,0,,,50,0,,,1,10583,0.0,0.0,0.0,0.0
NGA,NG,3779.0,36432.0,36432.0,dass,14287.0,9.4610722,10.1023474,1,,,2014.0,,,50,0,,,50,0,,,50,0,,,1,10586,0.0,0.0,0.0,0.0
NGA,NG,3808.0,37048.0,37048.0,dasuki model pri sch,56072.0,5.6557999,13.7546,3,,,2011.0,,,59,5,,,59,0,,,59,0,,,1,12809,0.0847457627118644,0.0,0.0,0.07994883274704188
NGA,NG,3796.0,36799.0,36799.0,daura,15679.0,5.6,13.0314945,1,,,2014.0,,,50,2,,,50,1,,,50,1,,,1,11739,0.04,0.02,0.02,0.0736
NGA,NG,3794.0,36727.0,36727.0,daura,15013.0,8.3156633,13.0317845,1,,,2013.0,,,52,1,,,52,4,,,52,0,,,1,11371,0.019230769230769232,0.07692307692307693,0.0,0.08931561906888467
NGA,NG,3792.0,36667.0,36667.0,daurawa,14591.0,8.5569943,11.9653623,1,,,2013.0,,,49,2,,,49,0,,,49,0,,,1,11073,0.04081632653061224,0.0,0.0,0.03850596842510588
NGA,NG,3794.0,36743.0,36743.0,daurawa,15813.0,8.5569943,11.9653623,1,,,2013.0,,,50,1,,,50,0,,,50,0,,,1,11456,0.02,0.0,0.0,0.018867924528301886
NGA,NG,3794.0,36747.0,36747.0,dausara,15881.0,8.5812819,12.0728181,3,,,2013.0,,,53,0,,,53,3,,,53,0,,,1,11474,0.0,0.05660377358490566,0.0,0.05339978640085439
NGA,NG,3794.0,36715.0,36715.0,dawaki kudu,14293.0,8.5913335,11.841376,1,,,2013.0,,,50,1,,,50,0,,,50,0,,,1,11317,0.02,0.0,0.0,0.018867924528301886
NGA,NG,3794.0,36715.0,36715.0,dawakiji,14294.0,8.6765618,11.8416012,1,,,2013.0,,,50,2,,,50,0,,,50,0,,,1,11318,0.04,0.0,0.0,0.03773584905660377
NGA,NG,3794.0,36714.0,36714.0,dawanau,14299.0,8.432131,12.0894389,1,,,2013.0,,,50,11,,,50,0,,,50,0,,,1,11312,0.22,0.0,0.0,0.20754716981132074
NGA,NG,3803.0,36924.0,36924.0,dayo jegele pri sch,55783.0,5.2314401,7.3063502,3,,,2011.0,,,58,11,,,58,13,,,58,0,,,1,12338,0.1896551724137931,0.22413793103448276,0.0,0.35026809952213217
NGA,NG,3803.0,36936.0,36936.0,dayspring n/p sch,56316.0,5.7656398,6.9335899,3,,,2011.0,,,50,10,,,50,2,,,50,0,,,1,12425,0.2,0.04,0.0,0.21886792452830187
NGA,NG,3790.0,36628.0,36628.0,deba,15980.0,11.3866326,10.2134361,1,,,2013.0,,,50,0,,,50,0,,,50,0,,,1,11013,0.0,0.0,0.0,0.0
NGA,NG,3794.0,36727.0,36727.0,dederi,15014.0,8.055263,11.844737,3,,,2013.0,,,50,1,,,50,2,,,50,0,,,1,11368,0.02,0.04,0.0,0.055849056603773574
NGA,NG,3809.0,37072.0,37072.0,didan,15171.0,10.53882,7.33219,3,,,2010.0,,,51,13,,,51,5,,,51,0,,,1,12988,0.2549019607843137,0.09803921568627451,0.0,0.30938753599849106
NGA,NG,3779.0,36436.0,36436.0,diga,14842.0,10.000805,11.9241658,3,,,2014.0,,,50,4,,,50,1,,,50,0,,,1,10603,0.08,0.02,0.0,0.09283018867924528
NGA,NG,3779.0,36445.0,36445.0,digawa/dairu,15934.0,9.723973274,11.06846809,3,,,2014.0,,,50,11,,,50,2,,,50,0,,,1,10658,0.22,0.04,0.0,0.2369811320754717
NGA,NG,3796.0,36795.0,36795.0,diggi,14973.0,4.0337846,12.3567435,1,,,2014.0,,,53,0,,,53,0,,,53,0,,,1,11716,0.0,0.0,0.0,0.0
NGA,NG,3792.0,36659.0,36659.0,diginsa,14147.0,10.0135929,12.8664791,1,,,2013.0,,,50,2,,,50,2,,,50,0,,,1,11037,0.04,0.04,0.0,0.07396226415094338
NGA,NG,3808.0,37062.0,37062.0,dimbiso,15958.0,5.4672962,13.3346402,1,,,2011.0,,,50,0,,,50,2,,,50,0,,,1,12944,0.0,0.04,0.0,0.03773584905660377
NGA,NG,3794.0,36735.0,36735.0,dingir,15334.0,8.6142193,12.1936317,3,,,2013.0,,,50,2,,,50,0,,,50,0,,,1,11410,0.04,0.0,0.0,0.03773584905660377
NGA,NG,3796.0,36799.0,36799.0,diri,15680.0,5.555108133,11.12574767,3,,,2014.0,,,50,1,,,50,0,,,50,0,,,1,11735,0.02,0.0,0.0,0.018867924528301886
NGA,NG,3794.0,36742.0,36742.0,diribo,15788.0,9.1805041,11.4699863,3,,,2013.0,,,51,23,,,51,0,,,51,0,,,1,11451,0.45098039215686275,0.0,0.0,0.4254532001479837
NGA,NG,3790.0,36625.0,36625.0,dirri,15186.0,8.31616,10.5085436,1,,,2013.0,,,50,4,,,50,0,,,50,0,,,1,11002,0.08,0.0,0.0,0.07547169811320754
NGA,NG,3779.0,36442.0,36442.0,disina,15728.0,9.9171742,11.4818951,1,,,2014.0,,,50,4,,,50,1,,,50,0,,,1,10636,0.08,0.02,0.0,0.09283018867924528
NGA,NG,3781.0,36465.0,36465.0,div,15190.0,9.580259999999999,6.8222000000000005,3,,,2011.0,,,52,16,,,52,0,,,52,0,,,1,10698,0.3076923076923077,0.0,0.0,0.29027576197387517
NGA,NG,3789.0,36615.0,36615.0,dobi,14566.0,6.9939398,9.0603773,1,,,2010.0,,,60,8,,,60,0,,,60,0,,,1,10943,0.13333333333333333,0.0,0.0,0.12578616352201255
NGA,NG,3794.0,36741.0,36741.0,dogara 2,15769.0,8.95633,11.3453338,1,,,2013.0,,,50,6,,,50,0,,,50,0,,,1,11447,0.12,0.0,0.0,0.11320754716981131
NGA,NG,3808.0,37060.0,37060.0,dogon marke,15854.0,5.57049,12.5719,3,,,2011.0,,,60,5,,,60,0,,,60,0,,,1,12920,0.08333333333333333,0.0,0.0,0.07861635220125784
NGA,NG,3808.0,37060.0,37060.0,dogon marke pri sch,56427.0,5.5704899,12.5719,3,,,2011.0,,,60,5,,,60,0,,,60,0,,,1,12918,0.08333333333333333,0.0,0.0,0.07861635220125784
NGA,NG,3794.0,36749.0,36749.0,dogon marke,15951.0,8.84505,11.6384473,1,,,2013.0,,,50,5,,,50,0,,,50,0,,,1,11484,0.1,0.0,0.0,0.09433962264150943
NGA,NG,3789.0,36613.0,36613.0,dogon ruwa,13826.0,7.14,9.0113,3,,,2014.0,,,51,10,,,51,0,,,51,0,,,1,10924,0.19607843137254902,0.0,0.0,0.18497965223825377
NGA,NG,3795.0,36776.0,36776.0,doguru,15308.0,8.0359736,13.1744072,3,,,2013.0,,,42,3,,,42,0,,,42,1,,,1,11624,0.07142857142857142,0.0,0.023809523809523808,0.08824284430753432
NGA,NG,3794.0,36716.0,36716.0,doguwa,14310.0,8.704075,10.8125373,1,,,2013.0,,,50,6,,,50,1,,,50,0,,,1,11321,0.12,0.02,0.0,0.12981132075471694
NGA,NG,3794.0,36744.0,36744.0,doka,15822.0,8.3020008,11.9928385,1,,,2013.0,,,50,9,,,50,0,,,50,0,,,1,11462,0.18,0.0,0.0,0.16981132075471694
NGA,NG,3794.0,36737.0,36737.0,doka,15624.0,8.3020008,11.9928385,1,,,2013.0,,,50,2,,,50,0,,,50,0,,,1,11424,0.04,0.0,0.0,0.03773584905660377
NGA,NG,3795.0,36776.0,36776.0,doka,15309.0,8.198271133,12.3256529,4,,,2013.0,,,50,1,,,50,0,,,50,1,,,1,11622,0.02,0.0,0.02,0.03735849056603773
NGA,NG,3794.0,36738.0,36738.0,doka dawo,15634.0,8.3020008,11.9928385,1,,,2013.0,,,52,0,,,52,6,,,52,3,,,1,11428,0.0,0.11538461538461539,0.057692307692307696,0.15700011164452382
NGA,NG,3792.0,36663.0,36663.0,doko,14494.0,9.109,12.331,3,,,2013.0,,,50,2,,,50,0,,,50,0,,,1,11055,0.04,0.0,0.0,0.03773584905660377
NGA,NG,3792.0,36659.0,36659.0,dole,14148.0,7.664811429,12.48339143,4,,,2013.0,,,50,1,,,50,0,,,50,0,,,1,11038,0.02,0.0,0.0,0.018867924528301886
NGA,NG,3796.0,36791.0,36791.0,dole kaina,14262.0,3.6724649,11.740292,1,,,2014.0,,,50,0,,,50,1,,,50,0,,,1,11695,0.0,0.02,0.0,0.018867924528301886
NGA,NG,3811.0,37104.0,37104.0,dolen,15056.0,6.59222,12.65192,3,,,2009.0,,,60,7,,,60,0,,,60,0,,,1,13096,0.11666666666666667,0.0,0.0,0.110062893081761
NGA,NG,3811.0,37104.0,37104.0,dolen model pri school,56166.0,6.5922198,12.65192,3,,,2011.0,,,60,7,,,60,0,,,60,0,,,1,13093,0.11666666666666667,0.0,0.0,0.110062893081761
NGA,NG,3796.0,36804.0,36804.0,domo,16019.0,5.22879,11.4384457,1,,,2014.0,,,57,2,,,57,8,,,57,0,,,1,11761,0.03508771929824561,0.14035087719298245,0.0,0.16086226821605484
NGA,NG,3793.0,36698.0,36698.0,domoso,15141.0,7.650196552,11.27025604,3,,,2013.0,,,50,0,,,50,0,,,50,0,,,1,11236,0.0,0.0,0.0,0.0
NGA,NG,3790.0,36619.0,36619.0,dong,14067.0,11.6903652,9.9511655,3,,,2013.0,,,50,4,,,50,5,,,50,0,,,1,10970,0.08,0.1,0.0,0.1622641509433962
NGA,NG,3796.0,36804.0,36804.0,dongo,16020.0,5.22879,11.4384457,1,,,2014.0,,,56,1,,,56,6,,,56,0,,,1,11762,0.017857142857142856,0.10714285714285714,0.0,0.11611956103195994
NGA,NG,3795.0,36754.0,36754.0,doro,14133.0,6.775926,10.94905543,4,,,2013.0,,,50,4,,,50,0,,,50,0,,,1,11512,0.08,0.0,0.0,0.07547169811320754
NGA,NG,3808.0,37054.0,37054.0,dorowa,15701.0,5.17148,12.627158,3,,,2011.0,,,52,9,,,52,0,,,52,0,,,1,12858,0.17307692307692307,0.0,0.0,0.16328011611030477
NGA,NG,3808.0,37054.0,37054.0,dorowa pry sch,56359.0,5.1753302,12.6291,3,,,2011.0,,,52,9,,,52,0,,,52,0,,,1,12864,0.17307692307692307,0.0,0.0,0.16328011611030477
NGA,NG,3811.0,37105.0,37105.0,dosara,15301.0,6.1605277,12.5298182,1,,,2009.0,,,50,11,,,50,5,,,50,2,,,1,13100,0.22,0.1,0.04,0.3076226415094339
NGA,NG,3811.0,37108.0,37108.0,dosara mps,56390.0,6.1605277,12.5298182,1,,,2011.0,,,50,11,,,50,5,,,50,2,,,1,13129,0.22,0.1,0.04,0.3076226415094339
NGA,NG,3792.0,36668.0,36668.0,dubantu,14596.0,10.0345676,12.4445034,1,,,2013.0,,,50,0,,,50,0,,,50,0,,,1,11077,0.0,0.0,0.0,0.0
NGA,NG,3795.0,36772.0,36772.0,dudduni,15176.0,7.593,12.3236,3,,,2013.0,,,37,7,,,37,0,,,37,1,,,1,11606,0.1891891891891892,0.0,0.02702702702702703,0.19915376876111196
NGA,NG,3794.0,36725.0,36725.0,dugabau,14927.0,8.2096785,11.8011204,1,,,2013.0,,,50,27,,,50,0,,,50,0,,,1,11363,0.54,0.0,0.0,0.5094339622641509
NGA,NG,3794.0,36732.0,36732.0,dukawa,15161.0,8.5885858,11.787808,1,,,2013.0,,,50,31,,,50,0,,,50,1,,,1,11394,0.62,0.0,0.02,0.5920754716981131
NGA,NG,3795.0,36763.0,36763.0,dukke,14460.0,7.2505,11.5719,3,,,2013.0,,,46,4,,,46,1,,,46,0,,,1,11556,0.08695652173913043,0.021739130434782608,0.0,0.10075971038270855
NGA,NG,3790.0,36621.0,36621.0,dukku,14318.0,10.7732854,10.8229629,1,,,2013.0,,,50,0,,,50,0,,,50,0,,,1,10980,0.0,0.0,0.0,0.0
NGA,NG,3779.0,36443.0,36443.0,duklin bauchi,15784.0,9.3207407,9.586043358,3,,,2014.0,,,50,6,,,50,0,,,50,0,,,1,10637,0.12,0.0,0.0,0.11320754716981131
NGA,NG,3795.0,36764.0,36764.0,dukuma,14796.0,8.05028,12.7127178,1,,,2013.0,,,50,19,,,50,0,,,50,0,,,1,11558,0.38,0.0,0.0,0.3584905660377358
NGA,NG,3808.0,37050.0,37050.0,dukura,15077.0,7.06151,12.14416,4,,,2011.0,,,57,2,,,57,0,,,57,0,,,1,12825,0.03508771929824561,0.0,0.0,0.03310162197947699
NGA,NG,3808.0,37058.0,37058.0,dukura pry sch,56395.0,4.7725301,12.1442,3,,,2011.0,,,57,2,,,57,0,,,57,0,,,1,12894,0.03508771929824561,0.0,0.0,0.03310162197947699
NGA,NG,3796.0,36794.0,36794.0,dumbegu,14883.0,4.37917,12.2257507,1,,,2014.0,,,50,2,,,50,4,,,50,0,,,1,11711,0.04,0.08,0.0,0.11018867924528301
NGA,NG,3794.0,36745.0,36745.0,dumbulun,15845.0,8.0166667,12.1833333,3,,,2013.0,,,50,18,,,50,0,,,50,0,,,1,11465,0.36,0.0,0.0,0.3396226415094339
NGA,NG,3794.0,36728.0,36728.0,durba,15089.0,8.7183362,11.5687187,1,,,2013.0,,,50,22,,,50,0,,,50,0,,,1,11376,0.44,0.0,0.0,0.4150943396226415
NGA,NG,3808.0,37051.0,37051.0,durbawa,15196.0,5.3259358,13.0674358,1,,,2011.0,,,60,1,,,60,0,,,60,0,,,1,12836,0.016666666666666666,0.0,0.0,0.01572327044025157
NGA,NG,3794.0,36742.0,36742.0,durbunai,15789.0,9.1560448,11.4853125,3,,,2013.0,,,50,8,,,50,1,,,50,0,,,1,11452,0.16,0.02,0.0,0.16679245283018865
NGA,NG,3788.0,36610.0,36610.0,durukutu,15865.0,7.3274576,6.484905933,3,,,2010.0,,,55,12,,,55,0,,,55,0,,,1,10893,0.21818181818181817,0.0,0.0,0.20583190394511147
NGA,NG,3794.0,36725.0,36725.0,durun,14928.0,8.2267665,11.8889606,1,,,2013.0,,,50,7,,,50,2,,,50,0,,,1,11359,0.14,0.04,0.0,0.16452830188679246
NGA,NG,3792.0,36661.0,36661.0,dutse,14322.0,9.3340158,11.7023512,1,,,2013.0,,,45,5,,,45,0,,,45,0,,,1,11050,0.1111111111111111,0.0,0.0,0.10482180293501046
NGA,NG,3793.0,36705.0,36705.0,dutse abba,16010.0,9.3340158,11.7023512,2,,,2013.0,,,50,0,,,50,0,,,50,0,,,1,11270,0.0,0.0,0.0,0.0
NGA,NG,3794.0,36740.0,36740.0,dutse bakoshi,15710.0,9.3340158,11.7023512,2,,,2013.0,,,50,1,,,50,0,,,50,0,,,1,11440,0.02,0.0,0.0,0.018867924528301886
NGA,NG,3779.0,36429.0,36429.0,dutsen lawan,14170.0,9.4894972,9.735869600000001,1,,,2014.0,,,50,0,,,50,0,,,50,0,,,1,10572,0.0,0.0,0.0,0.0
NGA,NG,3795.0,36760.0,36760.0,dutsi,14328.0,8.1557066,12.9311273,1,,,2013.0,,,50,2,,,50,0,,,50,0,,,1,11540,0.04,0.0,0.0,0.03773584905660377
NGA,NG,3795.0,36761.0,36761.0,dutsinma,14332.0,7.4976536,12.4544798,1,,,2013.0,,,52,1,,,52,0,,,52,0,,,1,11542,0.019230769230769232,0.0,0.0,0.018142235123367198
NGA,NG,3796.0,36796.0,36796.0,dutsinmari,15119.0,4.4182089,11.1971838,1,,,2014.0,,,50,1,,,50,3,,,50,0,,,1,11723,0.02,0.06,0.0,0.07433962264150942
NGA,NG,3795.0,36775.0,36775.0,duwa,15290.0,7.4782,12.4729,3,,,2013.0,,,37,12,,,37,0,,,37,0,,,1,11619,0.32432432432432434,0.0,0.0,0.3059663437021927
NGA,NG,3803.0,36924.0,36924.0,ebenezer ang pri sch,55784.0,4.8372126,7.107425,2,,,2011.0,,,59,8,,,59,22,,,59,2,,,1,12342,0.13559322033898305,0.3728813559322034,0.03389830508474576,0.44933035445651465
NGA,NG,3797.0,36806.0,36806.0,ebiya,13861.0,6.4109109,7.5236736,1,,,2014.0,,,50,6,,,50,11,,,50,0,,,1,11772,0.12,0.22,0.0,0.29584905660377353
NGA,NG,3803.0,36927.0,36927.0,ebun ogunyimika sec. sch,56024.0,5.0942253,7.1445574,1,,,2011.0,,,50,0,,,50,5,,,50,0,,,1,12364,0.0,0.1,0.0,0.09433962264150943
NGA,NG,3799.0,36856.0,36856.0,ebute metta,15212.0,3.3769472,6.4817446,1,,,2014.0,,,52,2,,,52,17,,,52,5,,,1,12122,0.038461538461538464,0.3269230769230769,0.09615384615384616,0.3915475433910736
NGA,NG,3797.0,36811.0,36811.0,echala edeke,14632.0,7.1512,7.35,3,,,2014.0,,,53,11,,,53,0,,,53,0,,,1,11800,0.20754716981132076,0.0,0.0,0.19579921680313278
NGA,NG,3806.0,37005.0,37005.0,ecwa hwollaza community,14905.0,9.096222222,8.8439,3,,,2013.0,,,44,0,,,44,8,,,44,0,,,1,12624,0.0,0.18181818181818182,0.0,0.17152658662092624
NGA,NG,3798.0,36836.0,36836.0,ecwa pry sch,56110.0,5.1059999,8.1430502,3,,,2011.0,,,54,3,,,54,16,,,54,0,,,1,11987,0.05555555555555555,0.2962962962962963,0.0,0.31640655330382794
NGA,NG,3798.0,36840.0,36840.0,ecwa pry sch,56285.0,5.2887402,8.2174702,3,,,2011.0,,,59,5,,,59,11,,,59,0,,,1,12022,0.0847457627118644,0.1864406779661017,0.0,0.24093055021057708
NGA,NG,3798.0,36831.0,36831.0,ecwa pry sch,56037.0,3.41667,8.3874268,1,,,2011.0,,,59,5,,,59,3,,,59,0,,,1,11937,0.0847457627118644,0.05084745762711865,0.0,0.12385293750982422
NGA,NG,3788.0,36607.0,36607.0,ede oballa,15421.0,7.4002871,6.7859795,1,,,2010.0,,,50,3,,,50,2,,,50,0,,,1,10869,0.06,0.04,0.0,0.0920754716981132
NGA,NG,3804.0,36945.0,36945.0,ededemeji,14353.0,7.290554407,7.6925609999999995,4,,,2014.0,,,49,4,,,49,20,,,49,0,,,1,12473,0.08163265306122448,0.40816326530612246,0.0,0.4306381774889393
NGA,NG,3797.0,36815.0,36815.0,edeha,15115.0,6.781,8.0613,3,,,2014.0,,,55,15,,,55,0,,,55,0,,,1,11819,0.2727272727272727,0.0,0.0,0.2572898799313893
NGA,NG,3788.0,36607.0,36607.0,edem ani,15422.0,7.3570576,6.8698065,1,,,2010.0,,,58,5,,,58,5,,,58,0,,,1,10872,0.08620689655172414,0.08620689655172414,0.0,0.15564355102864963
NGA,NG,3777.0,36395.0,36395.0,edem idem okpot,15417.0,7.954616,4.727071,3,,,2014.0,,,50,39,,,50,13,,,50,2,,,1,10394,0.78,0.26,0.04,0.795954716981132
NGA,NG,3777.0,36402.0,36402.0,edem idim,15875.0,7.85474,4.66291,3,,,2014.0,,,53,2,,,53,12,,,53,0,,,1,10427,0.03773584905660377,0.22641509433962265,0.0,0.24113865808687707
NGA,NG,3777.0,36404.0,36404.0,edem idun,15890.0,8.1092,4.85,3,,,2014.0,,,54,2,,,54,12,,,54,0,,,1,10437,0.037037037037037035,0.2222222222222222,0.0,0.2368196288531718
NGA,NG,3777.0,36402.0,36402.0,edem iyang,15876.0,8.09251,4.958642,3,,,2014.0,,,52,20,,,52,23,,,52,14,,,1,10425,0.38461538461538464,0.4423076923076923,0.2692307692307692,0.7067957162855006
NGA,NG,3777.0,36397.0,36397.0,ediehi ube,15501.0,7.73325,4.8242837,1,,,2014.0,,,52,30,,,52,33,,,52,6,,,1,10400,0.5769230769230769,0.6346153846153846,0.11538461538461539,0.8143877586073632
NGA,NG,3777.0,36375.0,36375.0,ediene,13830.0,7.8052282,4.9809279,1,,,2014.0,,,54,31,,,54,19,,,54,0,,,1,10291,0.5740740740740741,0.35185185185185186,0.0,0.6829593394932317
NGA,NG,3777.0,36400.0,36400.0,ediene itung,15567.0,7.78919,4.92183,3,,,2014.0,,,50,21,,,50,33,,,50,0,,,1,10415,0.42,0.66,0.0,0.7573584905660378
NGA,NG,3777.0,36378.0,36378.0,edo,14410.0,8.019351,4.644513,3,,,2014.0,,,50,23,,,50,16,,,50,1,,,1,10307,0.46,0.32,0.02,0.6039094339622642
NGA,NG,3798.0,36829.0,36829.0,edopi,14358.0,7.94161,8.8891769,1,,,2012.0,,,59,3,,,59,0,,,59,0,,,1,11904,0.05084745762711865,0.0,0.0,0.04796929964822513
NGA,NG,3804.0,36950.0,36950.0,edunabon,14665.0,4.4542311,7.5292589,1,,,2014.0,,,52,4,,,52,39,,,52,3,,,1,12498,0.07692307692307693,0.75,0.057692307692307696,0.7382494138662498
NGA,NG,3798.0,36839.0,36839.0,eesa,15457.0,4.71667,8.1393408,1,,,2014.0,,,50,5,,,50,6,,,50,2,,,1,12017,0.1,0.12,0.04,0.2261132075471698
