iso3,iso2,admin1_id,admin2_id,iu_id,location,site_id,longitude,latitude,georeliability,location_type,survey_type,year,age_start,age_end,hk_examined,hk_positive,hk_perc_highinfection,hk_perc_moderateinfection,asc_examined,asc_positive,asc_perc_highinfection,asc_perc_moderateinfection,tt_examined,tt_positive,tt_perc_highinfection,tt_perc_moderateinfection,quality,sn
SSD,SS,4575.0,44350.0,44350.0,abiriu pri,16315.0,29.427625,6.938401667,3,,,2016,,,45,3,,,45,0,,,45,0,,,1,13717
SSD,SS,4578.0,44371.0,44371.0,abong primary school,,32.2086111,9.1566667,3,school,mapping,2018,10.0,14.0,50,0,0.0,0.0,50,0,0.0,0.0,50,0,0.0,0.0,1,36702
SSD,SS,4578.0,44372.0,44372.0,aburoc primary school,,32.0063,9.844183,3,school,mapping,2018,9.0,15.0,50,0,0.0,0.0,50,0,0.0,0.0,50,0,0.0,0.0,1,36707
SSD,SS,4576.0,44358.0,44358.0,abyei,56911.0,27.5119,8.8635397,3,,,2009,,,62,0,,,62,0,,,62,0,,,1,13777
SSD,SS,4576.0,44360.0,44360.0,acen mac,56950.0,27.7069,8.65872,3,,,2009,,,57,1,,,57,0,,,57,0,,,1,13807
SSD,SS,4576.0,44360.0,44360.0,achuan,56951.0,27.678699,8.69279,3,,,2009,,,53,2,,,53,0,,,53,0,,,1,13804
SSD,SS,4578.0,44371.0,44371.0,adong girls primary school,,32.160118,9.239817,3,school,mapping,2018,10.0,14.0,50,0,0.0,0.0,50,1,0.0,0.0,50,0,0.0,0.0,1,36703
SSD,SS,4576.0,44358.0,44358.0,adoor,56912.0,27.7537,8.9491196,3,,,2009,,,67,0,,,67,0,,,67,0,,,1,13786
SSD,SS,4576.0,44358.0,44358.0,ador agot,56913.0,27.528,8.8982697,3,,,2009,,,65,2,,,65,0,,,65,0,,,1,13775
SSD,SS,4576.0,44358.0,44358.0,ador agot,56913.0,27.528,8.8982697,3,,,2009,,,64,1,,,64,0,,,64,0,,,1,13778
SSD,SS,4575.0,44352.0,44352.0,aduel,16369.0,29.89597167,6.63203,3,,,2016,,,51,0,,,51,5,,,51,0,,,1,13727
SSD,SS,4579.0,44383.0,44383.0,agok ecs,,28.5794444,9.3647222,3,school,mapping,2018,9.0,15.0,49,0,0.0,0.0,49,0,0.0,0.0,49,0,0.0,0.0,1,36745
SSD,SS,4576.0,44361.0,44361.0,agoor,56960.0,26.7948,9.1096401,3,,,2009,,,64,1,,,64,0,,,64,0,,,1,13819
SSD,SS,4576.0,44358.0,44358.0,ajakriek,56914.0,27.7845,9.0450802,3,,,2009,,,61,0,,,61,0,,,61,0,,,1,13772
SSD,SS,4574.0,44344.0,44344.0,ajiengo,16360.0,34.19153,7.048823333,3,,,2016,,,48,32,,,48,0,,,48,6,,,1,13709
SSD,SS,4578.0,44371.0,44371.0,ajuba primary school,,32.0376665,9.291867,3,school,mapping,2018,10.0,15.0,50,0,0.0,0.0,50,0,0.0,0.0,50,0,0.0,0.0,1,36704
SSD,SS,4576.0,44360.0,44360.0,akac,56952.0,27.7129,8.5656605,3,,,2009,,,62,7,,,62,0,,,62,0,,,1,13801
SSD,SS,4574.0,44333.0,44333.0,akobo primary school,,33.0058333,7.7916667,3,school,mapping,2018,10.0,14.0,49,0,0.0,0.0,49,0,0.0,0.0,49,0,0.0,0.0,1,36684
SSD,SS,4575.0,44355.0,44355.0,akon kon,16416.0,30.421605,6.641575,3,,,2016,,,50,3,,,50,2,,,50,1,,,1,13745
SSD,SS,4576.0,44361.0,44361.0,akong,56961.0,27.308901,8.8188295,3,,,2009,,,61,0,,,61,0,,,61,0,,,1,13821
SSD,SS,4579.0,44387.0,44387.0,akop pri,16384.0,29.16480833,8.361721667,3,,,2016,,,50,0,,,50,0,,,50,0,,,1,13910
SSD,SS,4576.0,44361.0,44361.0,akuak rual,56962.0,26.4757,9.0177498,3,,,2009,,,66,0,,,66,0,,,66,0,,,1,13823
SSD,SS,4574.0,44344.0,44344.0,alari pri,16361.0,34.01805167,7.17011,3,,,2016,,,49,26,,,49,0,,,49,0,,,1,13708
SSD,SS,4579.0,44387.0,44387.0,aliek pri,16385.0,28.68529167,8.396645,3,,,2016,,,48,0,,,48,0,,,48,0,,,1,13912
SSD,SS,4577.0,44370.0,44370.0,alilang,57107.0,29.958,9.9964199,3,,,2010,,,58,0,,,58,0,,,58,0,,,1,13891
SSD,SS,4575.0,44356.0,44356.0,aluak luak,16421.0,30.10234667,6.474511667,3,,,2016,,,50,0,,,50,0,,,50,0,,,1,13749
SSD,SS,4576.0,44357.0,44357.0,aluek,56904.0,27.528099,8.43859,3,,,2009,,,29,2,,,29,0,,,29,0,,,1,13758
SSD,SS,4580.0,44394.0,44394.0,amadi,109445.0,30.3366391,5.5159611,3,,,2016,10.0,0.0,50,1,,,50,0,,,50,0,,,1,1676
SSD,SS,4576.0,44358.0,44358.0,amath,56915.0,27.885401,9.0830097,3,,,2009,,,65,1,,,65,0,,,65,0,,,1,13781
SSD,SS,4576.0,44361.0,44361.0,amatnyang,56963.0,27.1341,9.1256199,3,,,2009,,,62,0,,,62,0,,,62,0,,,1,13824
SSD,SS,4581.0,44402.0,44402.0,ambanga primary school,,25.333033,8.49295,3,school,mapping,2018,8.0,15.0,50,8,0.0,0.0,50,0,0.0,0.0,50,0,0.0,0.0,1,36754
SSD,SS,4576.0,44359.0,44359.0,amel,56937.0,27.194901,9.0742598,3,,,2009,,,60,0,,,60,0,,,60,0,,,1,13793
SSD,SS,4574.0,44336.0,44336.0,amiel,109409.0,31.30401,7.73173,3,,,2016,10.0,0.0,51,0,,,51,0,,,51,0,,,1,1661
SSD,SS,4575.0,44353.0,44353.0,amok,16374.0,29.68725,7.563925,3,,,2016,,,50,1,,,50,0,,,50,0,,,1,13733
SSD,SS,4575.0,44350.0,44350.0,angngnal coboni,16316.0,29.22498833,6.851526667,3,,,2016,,,50,0,,,50,0,,,50,0,,,1,13720
SSD,SS,4579.0,44388.0,44388.0,angol pri,16389.0,28.81445167,7.601961667,3,,,2016,,,50,0,,,50,0,,,50,0,,,1,13918
SSD,SS,4579.0,44385.0,44385.0,anguoth,16328.0,28.193765,8.781503333,3,,,2016,,,54,0,,,54,0,,,54,0,,,1,13900
SSD,SS,4576.0,44359.0,44359.0,ariath,56938.0,27.2269,9.1017399,3,,,2009,,,63,0,,,63,0,,,63,0,,,1,13796
SSD,SS,4576.0,44360.0,44360.0,aroyo town,56953.0,27.8533,8.6659603,3,,,2009,,,65,20,,,65,0,,,65,0,,,1,13806
SSD,SS,4575.0,44355.0,44355.0,arup  nyiel,16417.0,30.51676333,6.601316667,3,,,2016,,,48,0,,,48,0,,,48,0,,,1,13744
SSD,SS,4575.0,44352.0,44352.0,atiaba,16370.0,29.96934167,6.572121667,3,,,2016,,,50,1,,,50,4,,,50,0,,,1,13731
SSD,SS,4579.0,44389.0,44389.0,aweng pri,16401.0,28.55899667,9.101055,3,,,2016,,,46,0,,,46,0,,,46,0,,,1,13922
SSD,SS,4578.0,44378.0,44378.0,aweth primary school,,32.485008,11.37924,3,school,mapping,2018,9.0,15.0,50,0,0.0,0.0,50,0,0.0,0.0,50,0,0.0,0.0,1,36725
SSD,SS,4581.0,44403.0,44403.0,awil gedid primary school,,27.9696444,7.7105556,3,school,mapping,2018,10.0,15.0,50,0,0.0,0.0,50,0,0.0,0.0,50,0,0.0,0.0,1,36759
SSD,SS,4579.0,44387.0,44387.0,awul,16386.0,28.738075,8.188695,3,,,2016,,,44,0,,,44,0,,,44,0,,,1,13906
SSD,SS,4576.0,44358.0,44358.0,baac,56916.0,27.5646,9.2038498,3,,,2009,,,59,0,,,59,0,,,59,0,,,1,13765
SSD,SS,4580.0,44397.0,44397.0,bakpara,,28.256417,4.563917,3,school,mapping,2018,10.0,14.0,50,0,0.0,0.0,50,0,0.0,0.0,50,0,0.0,0.0,1,36778
SSD,SS,4578.0,44371.0,44371.0,baliet primary school,,32.057667,9.294617,3,school,mapping,2018,10.0,15.0,50,0,0.0,0.0,50,0,0.0,0.0,50,0,0.0,0.0,1,36705
SSD,SS,4580.0,44394.0,44394.0,baya pri,16357.0,30.31856,5.349023333,3,,,2016,,,49,2,,,49,0,,,49,0,,,1,13932
SSD,SS,4577.0,44367.0,44367.0,bienyang,57056.0,29.091801,9.05336,3,,,2010,,,66,0,,,66,0,,,66,2,,,1,13870
SSD,SS,4577.0,44369.0,44369.0,bimrok block13,57075.0,29.811501,9.2742796,3,,,2010,,,67,0,,,67,0,,,67,0,,,1,13874
SSD,SS,4577.0,44370.0,44370.0,biu center,57108.0,30.3029,9.6455297,3,,,2010,,,61,0,,,61,0,,,61,0,,,1,13886
SSD,SS,4577.0,44362.0,44362.0,blemkaf,56903.0,28.812401,9.3864899,3,,,2010,,,61,0,,,61,0,,,61,0,,,1,13828
SSD,SS,4580.0,44400.0,44400.0,bodo,16411.0,28.5177794,4.635065,1,,,2016,,,50,8,,,50,0,,,50,0,,,1,13935
SSD,SS,4572.0,44323.0,44323.0,bokana,57089.0,31.7199,5.6443,3,,,2010,,,74,14,,,74,0,,,74,2,,,1,13679
SSD,SS,4572.0,44319.0,44319.0,bori,56987.0,31.655899,4.97505,3,,,2010,,,66,44,,,66,0,,,66,4,,,1,13638
SSD,SS,4572.0,44323.0,44323.0,bosa ajut,57090.0,31.797701,5.67977,3,,,2010,,,65,5,,,65,0,,,65,0,,,1,13676
SSD,SS,4577.0,44364.0,44364.0,bou,57028.0,29.7285,8.8427095,3,,,2010,,,64,0,,,64,0,,,64,0,,,1,13840
SSD,SS,4575.0,44349.0,44349.0,bunagok,16306.0,30.994185,6.21098,3,,,2016,,,48,0,,,48,0,,,48,0,,,1,13713
SSD,SS,4572.0,44319.0,44319.0,bungu,56988.0,31.333401,4.6013398,3,,,2010,,,57,19,,,57,0,,,57,1,,,1,13628
SSD,SS,4578.0,44375.0,44375.0,bunji primary school,,33.7305556,9.965277799999999,3,school,mapping,2018,10.0,14.0,50,0,0.0,0.0,50,0,0.0,0.0,50,0,0.0,0.0,1,36717
SSD,SS,4577.0,44366.0,44366.0,buol,57048.0,30.098301,8.3614902,3,,,2010,,,64,1,,,64,0,,,64,0,,,1,13854
SSD,SS,4576.0,44358.0,44358.0,burakuoc,56917.0,27.5513,8.85464,3,,,2009,,,70,0,,,70,0,,,70,0,,,1,13768
SSD,SS,4576.0,44360.0,44360.0,burayak,56954.0,27.5578,8.4391403,3,,,2009,,,61,6,,,61,0,,,61,0,,,1,13802
SSD,SS,4574.0,44333.0,44333.0,burmath primary school,,33.0166667,7.6397222,3,school,mapping,2018,10.0,14.0,50,4,0.0,0.0,50,0,0.0,0.0,50,0,0.0,0.0,1,36685
SSD,SS,4576.0,44358.0,44358.0,burrap,56918.0,27.6138,8.9414701,3,,,2009,,,48,0,,,48,0,,,48,0,,,1,13782
SSD,SS,4574.0,44342.0,44342.0,chotbora,,30.919724,9.0778165,3,school,mapping,2018,9.0,14.0,47,0,0.0,0.0,47,0,0.0,0.0,47,0,0.0,0.0,1,36689
SSD,SS,4577.0,44369.0,44369.0,chotchara,57076.0,29.6112,9.0471897,3,,,2010,,,46,0,,,46,0,,,46,0,,,1,13880
SSD,SS,4578.0,44381.0,44381.0,chumadi primary,,32.9807778,11.5430556,3,school,mapping,2018,9.0,14.0,50,0,0.0,0.0,50,0,0.0,0.0,50,0,0.0,0.0,1,36735
SSD,SS,4579.0,44383.0,44383.0,comboni abyei primary,,28.6038889,9.4641667,3,school,mapping,2018,9.0,15.0,50,0,0.0,0.0,50,0,0.0,0.0,50,0,0.0,0.0,1,36746
SSD,SS,4581.0,44402.0,44402.0,comboni primary school,,25.6761111,8.4625,3,school,mapping,2018,9.0,14.0,48,0,0.0,0.0,48,0,0.0,0.0,48,0,0.0,0.0,1,36755
SSD,SS,4575.0,44352.0,44352.0,cuei.cok,16371.0,29.74652,6.724226667,3,,,2016,,,50,1,,,50,18,,,50,0,,,1,13730
SSD,SS,4577.0,44369.0,44369.0,daira b,57077.0,29.7878,9.2495098,3,,,2010,,,70,0,,,70,0,,,70,0,,,1,13883
SSD,SS,4578.0,44375.0,44375.0,dangaji basic school,,33.693184,9.931767,3,school,mapping,2018,10.0,14.0,50,0,0.0,0.0,50,0,0.0,0.0,50,0,0.0,0.0,1,36718
SSD,SS,4577.0,44365.0,44365.0,dar el salam,57037.0,30.3069,8.1885595,3,,,2010,,,59,3,,,59,1,,,59,1,,,1,13843
SSD,SS,4578.0,44378.0,44378.0,dellal ajak primary school,,32.485001,11.37923,3,school,mapping,2018,9.0,15.0,50,0,0.0,0.0,50,0,0.0,0.0,50,0,0.0,0.0,1,36726
SSD,SS,4575.0,44351.0,44351.0,deng wlial,16364.0,29.67765333,6.823906667,3,,,2016,,,50,2,,,50,0,,,50,0,,,1,13724
SSD,SS,4577.0,44363.0,44363.0,deng bow,56980.0,29.977699,9.3120604,3,,,2010,,,53,0,,,53,0,,,53,0,,,1,13829
SSD,SS,4574.0,44333.0,44333.0,dengjok primary school,,33.0011111,7.8813889,3,school,mapping,2018,10.0,14.0,50,0,0.0,0.0,50,0,0.0,0.0,50,0,0.0,0.0,1,36686
SSD,SS,4579.0,44388.0,44388.0,dengnhial two pri,16390.0,28.71614,7.261505,3,,,2016,,,51,0,,,51,0,,,51,0,,,1,13915
SSD,SS,4578.0,44372.0,44372.0,dethwok primary school,,32.0063,9.844183,3,school,mapping,2018,9.0,15.0,49,0,0.0,0.0,49,0,0.0,0.0,49,0,0.0,0.0,1,36708
SSD,SS,4576.0,44358.0,44358.0,dhaik,56919.0,27.7101,8.9198999,3,,,2009,,,62,0,,,62,0,,,62,0,,,1,13783
SSD,SS,4577.0,44366.0,44366.0,dhorthiel,57049.0,30.072901,8.4007101,3,,,2010,,,62,0,,,62,0,,,62,0,,,1,13853
SSD,SS,4577.0,44365.0,44365.0,dhorwich musk,57038.0,30.2213,8.2227097,3,,,2010,,,67,0,,,67,0,,,67,0,,,1,13842
SSD,SS,4581.0,44403.0,44403.0,dier akok,,28.000467,7.71655,3,school,mapping,2018,9.0,14.0,49,0,0.0,0.0,49,0,0.0,0.0,49,0,0.0,0.0,1,36760
SSD,SS,4578.0,44379.0,44379.0,dimtama 2,,32.3266667,10.4216667,3,school,mapping,2018,11.0,17.0,49,0,0.0,0.0,49,0,0.0,0.0,49,0,0.0,0.0,1,36730
SSD,SS,4575.0,44354.0,44354.0,domuloto,16406.0,29.62106,6.249883333,3,,,2016,,,38,0,,,38,0,,,38,0,,,1,13738
SSD,SS,4572.0,44323.0,44323.0,dongunamachin,57091.0,31.6663,5.59553,3,,,2010,,,65,9,,,65,0,,,65,0,,,1,13680
SSD,SS,4577.0,44364.0,44364.0,dook,57029.0,29.7285,8.8427401,3,,,2010,,,68,0,,,68,0,,,68,0,,,1,13837
SSD,SS,4574.0,44342.0,44342.0,door nyawepri,,30.9055556,9.1702778,3,school,mapping,2018,9.0,14.0,50,0,0.0,0.0,50,0,0.0,0.0,50,0,0.0,0.0,1,36690
SSD,SS,4580.0,44395.0,44395.0,dulo primary school,,30.7579895,6.84121,4,school,mapping,2018,8.0,15.0,50,0,0.0,0.0,50,0,0.0,0.0,50,0,0.0,0.0,1,36773
SSD,SS,4572.0,44319.0,44319.0,gabat,56989.0,31.616301,4.8558002,3,,,2010,,,48,20,,,48,0,,,48,0,,,1,13654
SSD,SS,4572.0,44320.0,44320.0,gaderu,57018.0,31.50893,3.953232,1,,,2010,,,66,28,,,66,0,,,66,0,,,1,13659
SSD,SS,4580.0,44399.0,44399.0,gamunakpe,,29.494049,5.5742,3,school,mapping,2018,9.0,14.0,40,0,0.0,0.0,40,0,0.0,0.0,40,0,0.0,0.0,1,36783
SSD,SS,4572.0,44319.0,44319.0,gangi,56990.0,31.248199,4.4797802,3,,,2010,,,55,14,,,55,0,,,55,0,,,1,13648
SSD,SS,4579.0,44387.0,44387.0,ganglet,57096.0,29.0124,8.1287298,3,,,2010,,,44,0,,,44,0,,,44,0,,,1,13909
SSD,SS,4575.0,44350.0,44350.0,gar el gel,16317.0,29.15508333,7.024198333,3,,,2016,,,50,0,,,50,0,,,50,0,,,1,13721
SSD,SS,4578.0,44375.0,44375.0,gassmalla primary school,,28.07117,9.9654,4,school,mapping,2018,10.0,14.0,50,0,0.0,0.0,50,0,0.0,0.0,50,0,0.0,0.0,1,36719
SSD,SS,4577.0,44365.0,44365.0,gear,57039.0,30.1444,8.38346,3,,,2010,,,64,0,,,64,0,,,64,0,,,1,13848
SSD,SS,4578.0,44381.0,44381.0,geiger,57073.0,32.761002,11.978,3,,,2008,,,219,0,,,219,0,,,219,0,,,1,13892
SSD,SS,4578.0,44381.0,44381.0,geiger primary,,32.7588889,11.9905556,3,school,mapping,2018,9.0,14.0,50,0,0.0,0.0,50,0,0.0,0.0,50,0,0.0,0.0,1,36736
SSD,SS,4575.0,44356.0,44356.0,geng geng,16422.0,30.60177167,6.432133333,3,,,2016,,,36,3,,,36,0,,,36,0,,,1,13750
SSD,SS,4572.0,44322.0,44322.0,geri,57068.0,30.619101,3.7730999,3,,,2010,,,65,29,,,65,0,,,65,0,,,1,13675
SSD,SS,4580.0,44395.0,44395.0,gira primary school,,30.757959,6.84118,4,school,mapping,2018,8.0,14.0,50,0,0.0,0.0,50,0,0.0,0.0,50,0,0.0,0.0,1,36774
SSD,SS,4575.0,44349.0,44349.0,githum,16307.0,31.33226667,6.483701667,3,,,2016,,,52,10,,,52,1,,,52,0,,,1,13714
SSD,SS,4576.0,44359.0,44359.0,gok machar,56939.0,26.866501,9.2146502,3,,,2009,,,57,0,,,57,0,,,57,0,,,1,13788
SSD,SS,4574.0,44335.0,44335.0,gok yom,109399.0,30.78497,9.17763,1,,,2016,10.0,0.0,50,0,,,50,0,,,50,0,,,1,1656
SSD,SS,4578.0,44379.0,44379.0,goldora,,32.460949,7.1044,4,school,mapping,2018,10.0,14.0,43,0,0.0,0.0,43,0,0.0,0.0,43,0,0.0,0.0,1,36731
SSD,SS,4578.0,44372.0,44372.0,gollo primary school,,32.153618,9.959933,3,school,mapping,2018,10.0,15.0,50,0,0.0,0.0,50,0,0.0,0.0,50,0,0.0,0.0,1,36709
SSD,SS,4576.0,44361.0,44361.0,gongrual,56964.0,27.187901,9.0664597,3,,,2009,,,62,0,,,62,0,,,62,0,,,1,13816
SSD,SS,4576.0,44361.0,44361.0,goren i,56965.0,26.375799,8.9363899,3,,,2009,,,60,4,,,60,0,,,60,0,,,1,13826
SSD,SS,4577.0,44369.0,44369.0,guang guangna,57078.0,29.569401,9.0846901,3,,,2010,,,64,0,,,64,0,,,64,0,,,1,13878
SSD,SS,4575.0,44354.0,44354.0,guba pri,16407.0,29.63218333,6.508871667,3,,,2016,,,50,0,,,50,0,,,50,0,,,1,13740
SSD,SS,4572.0,44319.0,44319.0,gudele,56991.0,31.5084511,4.8401285,2,,,2010,,,64,9,,,64,0,,,64,0,,,1,13642
SSD,SS,4577.0,44363.0,44363.0,gued,56981.0,29.936399,9.2915201,3,,,2010,,,57,0,,,57,0,,,57,4,,,1,13835
SSD,SS,4577.0,44364.0,44364.0,gueny,57030.0,30.1017,8.7832603,3,,,2010,,,60,0,,,60,0,,,60,0,,,1,13836
SSD,SS,4577.0,44363.0,44363.0,guernguena,56982.0,30.0651,9.2063503,3,,,2010,,,63,0,,,63,0,,,63,0,,,1,13830
SSD,SS,4575.0,44354.0,44354.0,gulmar,16408.0,29.48824667,6.57094,3,,,2016,,,37,0,,,37,0,,,37,0,,,1,13739
SSD,SS,4572.0,44319.0,44319.0,hai marati east,56992.0,30.941299,5.13237,3,,,2010,,,60,9,,,60,0,,,60,0,,,1,13652
SSD,SS,4572.0,44319.0,44319.0,hai mauna,56993.0,31.5777738,4.8560425,1,,,2010,,,50,5,,,50,0,,,50,0,,,1,13629
SSD,SS,4576.0,44360.0,44360.0,hai salaam,56955.0,27.556100999999998,8.4393196,3,,,2009,,,49,3,,,49,0,,,49,0,,,1,13809
SSD,SS,4577.0,44363.0,44363.0,hai salam,56983.0,29.910801,9.1581497,3,,,2010,,,65,0,,,65,0,,,65,0,,,1,13831
SSD,SS,4576.0,44358.0,44358.0,halibul,56920.0,27.464701,8.8944101,3,,,2009,,,61,0,,,61,0,,,61,0,,,1,13774
SSD,SS,4573.0,44332.0,44332.0,hilieu,16393.0,32.57046,4.4102396,1,,,2016,,,50,0,,,50,2,,,50,4,,,1,13702
SSD,SS,4580.0,44392.0,44392.0,hill side primary school,,29.4769,4.922133,3,school,mapping,2018,9.0,14.0,50,1,0.0,0.0,50,0,0.0,0.0,50,0,0.0,0.0,1,36768
SSD,SS,4581.0,44401.0,44401.0,holy city,,28.0452778,8.0072222,3,school,mapping,2018,8.0,15.0,49,0,0.0,0.0,49,0,0.0,0.0,49,0,0.0,0.0,1,36749
SSD,SS,4580.0,44391.0,44391.0,hope primary school,,29.1330556,4.7997222,3,school,mapping,2018,10.0,14.0,49,10,0.0,0.0,49,0,0.0,0.0,49,0,0.0,0.0,1,36764
SSD,SS,4573.0,44330.0,44330.0,illuhum pri,16343.0,32.4729,5.043647,1,,,2016,,,52,0,,,52,1,,,52,0,,,1,13698
SSD,SS,4576.0,44359.0,44359.0,jaac,56940.0,27.185699,9.4746904,3,,,2009,,,61,0,,,61,0,,,61,0,,,1,13787
SSD,SS,4572.0,44320.0,44320.0,jalimo,57019.0,31.5947,3.7501700000000002,3,,,2010,,,66,2,,,66,0,,,66,0,,,1,13660
SSD,SS,4572.0,44319.0,44319.0,jalite kudok,56994.0,31.857599,4.6897998,3,,,2010,,,51,16,,,51,0,,,51,0,,,1,13651
SSD,SS,4578.0,44373.0,44373.0,jangok,,33.505219,9.05317,3,school,mapping,2018,5.0,13.0,38,0,0.0,0.0,38,0,0.0,0.0,38,0,0.0,0.0,1,36712
SSD,SS,4577.0,44364.0,44364.0,jany jany,57031.0,29.7285,8.8427401,3,,,2010,,,67,0,,,67,0,,,67,0,,,1,13839
SSD,SS,4577.0,44365.0,44365.0,jarber,57040.0,30.132099,8.3073397,3,,,2010,,,74,0,,,74,0,,,74,0,,,1,13851
SSD,SS,4575.0,44351.0,44351.0,jir pri,16365.0,29.700525,6.809723333,3,,,2016,,,50,0,,,50,0,,,50,0,,,1,13722
SSD,SS,4572.0,44323.0,44323.0,jor,57092.0,31.711100000000002,5.5092402,3,,,2010,,,72,27,,,72,0,,,72,0,,,1,13682
SSD,SS,4572.0,44319.0,44319.0,juba,,31.57125,4.859363,1,,,1990,1.0,99.0,241,87,,,241,3,,,241,2,,,3,30735
SSD,SS,4572.0,44323.0,44323.0,juba bayak,57093.0,31.57125,4.859363,1,,,2010,,,75,13,,,75,0,,,75,0,,,1,13677
SSD,SS,4572.0,44319.0,44319.0,juba nabari,56996.0,31.57125,4.859363,1,,,2010,,,57,7,,,57,0,,,57,0,,,1,13641
SSD,SS,4577.0,44367.0,44367.0,juom,57057.0,28.846201,9.0476904,3,,,2010,,,70,0,,,70,0,,,70,1,,,1,13866
SSD,SS,4577.0,44366.0,44366.0,kak,57050.0,30.0357,8.3139296,3,,,2010,,,60,0,,,60,0,,,60,0,,,1,13852
SSD,SS,4578.0,44378.0,44378.0,kaka primary school,,32.619999,11.2904,3,school,mapping,2018,9.0,14.0,49,0,0.0,0.0,49,0,0.0,0.0,49,0,0.0,0.0,1,36727
SSD,SS,4580.0,44392.0,44392.0,kalusi primary school,,29.598337,5.3099832,3,school,mapping,2018,10.0,13.0,50,2,0.0,0.0,50,0,0.0,0.0,50,0,0.0,0.0,1,36769
SSD,SS,4577.0,44365.0,44365.0,kangkoi,57041.0,30.116899,8.3342505,3,,,2010,,,60,1,,,60,0,,,60,0,,,1,13846
SSD,SS,4572.0,44320.0,44320.0,kansuk,57020.0,31.5539,3.98593,3,,,2010,,,74,35,,,74,0,,,74,0,,,1,13658
SSD,SS,4576.0,44357.0,44357.0,kanwanji,56905.0,26.8237,8.0589104,3,,,2009,,,70,0,,,70,0,,,70,0,,,1,13757
SSD,SS,4573.0,44329.0,44329.0,kapoeta mix,16338.0,33.5923941,4.7713162,1,,,2016,,,50,1,,,50,0,,,50,0,,,1,13696
SSD,SS,4576.0,44358.0,44358.0,karagala,56921.0,27.520599,8.8770399,3,,,2009,,,8,0,,,8,0,,,8,0,,,1,13769
SSD,SS,4580.0,44394.0,44394.0,karika,16358.0,30.03698833,5.130336667,3,,,2016,,,50,1,,,50,0,,,50,0,,,1,13930
SSD,SS,4576.0,44358.0,44358.0,karmarial,56922.0,27.496799,8.8964005,3,,,2009,,,64,0,,,64,0,,,64,0,,,1,13764
SSD,SS,4572.0,44319.0,44319.0,karpecho,56997.0,31.6071,4.8547401,3,,,2010,,,72,26,,,72,0,,,72,0,,,1,13633
SSD,SS,4573.0,44328.0,44328.0,karukomuge,16332.0,33.55526,5.067425,3,,,2016,,,48,0,,,48,0,,,48,0,,,1,13692
SSD,SS,4572.0,44319.0,44319.0,kasaba,56998.0,31.6073,4.82656,3,,,2010,,,57,10,,,57,0,,,57,0,,,1,13630
SSD,SS,4572.0,44319.0,44319.0,katigiri,56999.0,30.9338,4.6907701,3,,,2010,,,68,45,,,68,0,,,68,0,,,1,13627
SSD,SS,4573.0,44329.0,44329.0,katiko,16339.0,33.3735468,4.294114,3,,,2016,,,50,1,,,50,0,,,50,0,,,1,13697
SSD,SS,4573.0,44329.0,44329.0,katome pri,16340.0,33.59956167,4.7638616670000005,3,,,2016,,,50,1,,,50,0,,,50,0,,,1,13693
SSD,SS,4580.0,44392.0,44392.0,kazan i primary school,,29.4676,4.887417,3,school,mapping,2018,9.0,14.0,50,9,0.0,0.0,50,1,0.0,0.0,50,0,0.0,0.0,1,36770
SSD,SS,4577.0,44363.0,44363.0,keat,56984.0,29.947399,8.8727503,3,,,2010,,,45,0,,,45,0,,,45,0,,,1,13834
SSD,SS,4577.0,44366.0,44366.0,kech,57051.0,29.942101,8.1626797,3,,,2010,,,24,0,,,24,0,,,24,0,,,1,13859
SSD,SS,4572.0,44320.0,44320.0,kendiri,57021.0,31.4021,3.8067900999999997,3,,,2010,,,63,23,,,63,0,,,63,0,,,1,13666
SSD,SS,4572.0,44321.0,44321.0,kenyi,57033.0,31.416667,4.883333,1,,,2010,,,63,40,,,63,0,,,63,1,,,1,13669
SSD,SS,4579.0,44385.0,44385.0,kharic,16329.0,28.00814833,8.086831667,3,,,2016,,,52,0,,,52,0,,,52,0,,,1,13898
SSD,SS,4581.0,44402.0,44402.0,khor buga primary school,,25.5536304,8.4758467,3,school,mapping,2018,9.0,15.0,50,0,0.0,0.0,50,0,0.0,0.0,50,0,0.0,0.0,1,36756
SSD,SS,4572.0,44322.0,44322.0,kimba,57069.0,30.8591,3.57669,3,,,2010,,,60,24,,,60,0,,,60,2,,,1,13674
SSD,SS,4572.0,44322.0,44322.0,kindii,57070.0,30.7675,3.6931000000000003,3,,,2010,,,70,33,,,70,0,,,70,0,,,1,13672
SSD,SS,4579.0,44389.0,44389.0,koch koch,57100.0,28.558901,9.0484304,3,,,2010,,,60,0,,,60,0,,,60,0,,,1,13919
SSD,SS,4578.0,44372.0,44372.0,kodok combien primary sch,,32.153618,9.959933,3,school,mapping,2018,9.0,15.0,50,0,0.0,0.0,50,0,0.0,0.0,50,0,0.0,0.0,1,36710
SSD,SS,4572.0,44319.0,44319.0,koligo,57000.0,31.5921,4.7394199,3,,,2010,,,58,12,,,58,0,,,58,0,,,1,13645
SSD,SS,4576.0,44361.0,44361.0,kolroth,56966.0,27.2698,8.9488096,3,,,2009,,,65,2,,,65,0,,,65,0,,,1,13813
SSD,SS,4577.0,44369.0,44369.0,komagual,57079.0,29.5513,9.5364799,3,,,2010,,,61,0,,,61,0,,,61,0,,,1,13879
SSD,SS,4574.0,44343.0,44343.0,kondako primary school,,33.133217,6.811933,3,school,mapping,2018,10.0,14.0,50,0,0.0,0.0,50,0,0.0,0.0,50,0,0.0,0.0,1,36694
SSD,SS,4574.0,44346.0,44346.0,kongor,109486.0,31.34119,7.159369,1,,,2016,10.0,0.0,47,2,,,47,0,,,47,0,,,1,1678
SSD,SS,4580.0,44393.0,44393.0,kotobi,16352.0,30.1993381,5.2447541,1,,,2016,,,50,4,,,50,1,,,50,0,,,1,13929
SSD,SS,4581.0,44401.0,44401.0,kuajiena,,28.4436,7.29205,3,school,mapping,2018,10.0,15.0,49,0,0.0,0.0,49,0,0.0,0.0,49,0,0.0,0.0,1,36750
SSD,SS,4577.0,44363.0,44363.0,kuanyruo,56985.0,30.043501,9.32654,3,,,2010,,,60,0,,,60,0,,,60,0,,,1,13833
SSD,SS,4572.0,44319.0,44319.0,kuda,57001.0,31.6071,4.8547401,3,,,2010,,,62,36,,,62,0,,,62,0,,,1,13640
SSD,SS,4578.0,44373.0,44373.0,kuembor,,33.4980755,9.0283585,3,school,mapping,2018,6.0,15.0,35,0,0.0,0.0,35,0,0.0,0.0,35,0,0.0,0.0,1,36713
SSD,SS,4574.0,44342.0,44342.0,kuemduok,,30.762006,9.3455105,3,school,mapping,2018,10.0,15.0,50,0,0.0,0.0,50,0,0.0,0.0,50,0,0.0,0.0,1,36691
SSD,SS,4577.0,44367.0,44367.0,kuerbunona center,57058.0,29.1082,9.13064,3,,,2010,,,68,0,,,68,0,,,68,0,,,1,13860
SSD,SS,4577.0,44365.0,44365.0,kuerier,57042.0,30.1357,8.3295803,3,,,2010,,,62,0,,,62,0,,,62,0,,,1,13847
SSD,SS,4577.0,44363.0,44363.0,kuerlatjor,56986.0,29.9366,9.2916603,3,,,2010,,,62,0,,,62,0,,,62,0,,,1,13832
SSD,SS,4577.0,44366.0,44366.0,kuok,57052.0,30.0739,8.4436398,3,,,2010,,,66,3,,,66,0,,,66,0,,,1,13858
SSD,SS,4577.0,44369.0,44369.0,kur,57080.0,29.657101,8.9392099,3,,,2010,,,54,0,,,54,0,,,54,0,,,1,13872
SSD,SS,4577.0,44370.0,44370.0,labang,57109.0,30.093399,9.6698599,3,,,2010,,,63,0,,,63,0,,,63,0,,,1,13890
SSD,SS,4572.0,44321.0,44321.0,lainya,57034.0,31.0048384,4.2550657,1,,,2010,,,67,45,,,67,0,,,67,0,,,1,13668
SSD,SS,4581.0,44402.0,44402.0,lamba primary school,,25.6872222,8.4519444,3,school,mapping,2018,9.0,15.0,49,0,0.0,0.0,49,0,0.0,0.0,49,0,0.0,0.0,1,36757
SSD,SS,4579.0,44387.0,44387.0,lang kap pri,16387.0,28.91422,8.559738333,3,,,2016,,,50,0,,,50,0,,,50,0,,,1,13914
SSD,SS,4574.0,44343.0,44343.0,langachod mixed primary school,,28.1338889,6.7911111,4,school,mapping,2018,10.0,14.0,42,0,0.0,0.0,42,0,0.0,0.0,42,0,0.0,0.0,1,36695
SSD,SS,4576.0,44361.0,44361.0,langic,56967.0,26.8416,9.1097403,3,,,2009,,,61,0,,,61,0,,,61,0,,,1,13822
SSD,SS,4580.0,44393.0,44393.0,lanyi pri,16353.0,30.50648833,5.253523333,3,,,2016,,,50,0,,,50,0,,,50,0,,,1,13928
SSD,SS,4572.0,44324.0,44324.0,lasu,57102.0,30.467199,3.9495399,3,,,2010,,,61,42,,,61,0,,,61,1,,,1,13687
SSD,SS,4574.0,44344.0,44344.0,liech pri,16362.0,34.28317833,6.98038,3,,,2016,,,45,12,,,45,0,,,45,12,,,1,13707
SSD,SS,4579.0,44384.0,44384.0,lietnhom,16323.0,28.47855333,8.614911667,3,,,2016,,,55,0,,,55,0,,,55,0,,,1,13895
SSD,SS,4576.0,44358.0,44358.0,lietnhom,56923.0,27.4097,8.8977604,3,,,2009,,,65,2,,,65,0,,,65,0,,,1,13785
SSD,SS,4572.0,44319.0,44319.0,limuro,57002.0,31.333401,4.60149,3,,,2010,,,70,46,,,70,0,,,70,1,,,1,13649
SSD,SS,4579.0,44387.0,44387.0,lingera,57097.0,29.150999,8.5801802,3,,,2010,,,64,0,,,64,0,,,64,0,,,1,13907
SSD,SS,4572.0,44319.0,44319.0,lirya center,57003.0,31.851299,4.6925602,3,,,2010,,,61,39,,,61,0,,,61,1,,,1,13631
SSD,SS,4572.0,44319.0,44319.0,lokiliri,57004.0,31.9375,4.5736299,3,,,2010,,,55,27,,,55,0,,,55,1,,,1,13639
SSD,SS,4572.0,44319.0,44319.0,lolongo,57005.0,31.5956,4.8175502,3,,,2010,,,58,4,,,58,0,,,58,0,,,1,13646
SSD,SS,4572.0,44320.0,44320.0,lomin,57022.0,31.659,3.82741,3,,,2010,,,67,10,,,67,0,,,67,1,,,1,13664
SSD,SS,4573.0,44328.0,44328.0,lomoyen,16333.0,33.46297833,4.905348333,3,,,2016,,,52,0,,,52,0,,,52,0,,,1,13691
SSD,SS,4572.0,44324.0,44324.0,longumere,57103.0,30.7421,3.9177698999999997,3,,,2010,,,64,30,,,64,0,,,64,0,,,1,13684
SSD,SS,4578.0,44379.0,44379.0,lual ruun,,32.460899,10.2708,3,school,mapping,2018,10.0,14.0,40,0,0.0,0.0,40,0,0.0,0.0,40,0,0.0,0.0,1,36732
SSD,SS,4576.0,44361.0,44361.0,luethabur,56968.0,27.238899,8.9096899,3,,,2009,,,65,2,,,65,0,,,65,0,,,1,13814
SSD,SS,4580.0,44393.0,44393.0,lui pri,16354.0,30.4501653,5.3436878,1,,,2016,,,50,4,,,50,0,,,50,0,,,1,13927
SSD,SS,4574.0,44343.0,44343.0,lukurnyang mixed primary school,,33.131767,6.799683,3,school,mapping,2018,10.0,14.0,40,0,0.0,0.0,40,0,0.0,0.0,40,0,0.0,0.0,1,36696
SSD,SS,4576.0,44359.0,44359.0,mabok kuot,56941.0,26.932899,9.14188,3,,,2009,,,61,4,,,61,0,,,61,0,,,1,13799
SSD,SS,4576.0,44358.0,44358.0,mabong tong,56924.0,27.7127,8.9831104,3,,,2009,,,62,7,,,62,0,,,62,0,,,1,13784
SSD,SS,4576.0,44361.0,44361.0,maduany,56969.0,27.358999,8.81182,3,,,2009,,,68,1,,,68,0,,,68,0,,,1,13825
SSD,SS,4573.0,44331.0,44331.0,magwi central,109436.0,32.2994127,4.1304496,1,,,2016,10.0,0.0,52,0,,,52,0,,,52,0,,,1,1671
SSD,SS,4580.0,44400.0,44400.0,maingbangaru,16412.0,28.33780667,4.622443333,3,,,2016,,,50,5,,,50,0,,,50,0,,,1,13934
SSD,SS,4576.0,44359.0,44359.0,majak kar,56942.0,27.0222,9.2279701,3,,,2009,,,65,0,,,65,0,,,65,0,,,1,13798
SSD,SS,4576.0,44361.0,44361.0,majak piol,56970.0,27.2719,8.8699903,3,,,2009,,,61,0,,,61,1,,,61,0,,,1,13818
SSD,SS,4579.0,44385.0,44385.0,majakbol,16330.0,27.96773333,8.89726,3,,,2016,,,51,0,,,51,0,,,51,0,,,1,13897
SSD,SS,4579.0,44384.0,44384.0,majok,16324.0,28.22530167,8.153308333,3,,,2016,,,50,0,,,50,0,,,50,0,,,1,13896
SSD,SS,4579.0,44389.0,44389.0,majok aher,16402.0,28.42037333,9.078078333,3,,,2016,,,49,0,,,49,0,,,49,0,,,1,13924
SSD,SS,4580.0,44400.0,44400.0,makpandu,16413.0,28.678978999999998,4.7400576999999995,1,,,2016,,,50,3,,,50,0,,,50,0,,,1,13936
SSD,SS,4579.0,44386.0,44386.0,makuac pri,16379.0,29.48151167,7.987038333,3,,,2016,,,47,0,,,47,0,,,47,0,,,1,13905
SSD,SS,4576.0,44359.0,44359.0,makuach piol,56943.0,26.867901,9.2536297,3,,,2009,,,62,0,,,62,0,,,62,0,,,1,13790
SSD,SS,4576.0,44361.0,44361.0,makuei,56971.0,27.171301,9.0921001,3,,,2009,,,63,0,,,63,0,,,63,0,,,1,13812
SSD,SS,4575.0,44354.0,44354.0,makundi,16409.0,29.85714167,6.346541667,3,,,2016,,,31,0,,,31,0,,,31,0,,,1,13741
SSD,SS,4576.0,44361.0,44361.0,makuom,56972.0,26.728399,9.1172895,3,,,2009,,,57,3,,,57,0,,,57,0,,,1,13811
SSD,SS,4580.0,44392.0,44392.0,malaga adventist primary sch.,,29.789614,5.0200252,3,school,mapping,2018,9.0,14.0,50,0,0.0,0.0,50,0,0.0,0.0,50,0,0.0,0.0,1,36771
SSD,SS,4578.0,44377.0,44377.0,malakai,,31.6494444,9.5366667,3,school,mapping,2018,8.0,14.0,49,0,0.0,0.0,49,0,0.0,0.0,49,0,0.0,0.0,1,36722
SSD,SS,4575.0,44355.0,44355.0,malek pri,16418.0,30.80003167,6.719255,3,,,2016,,,51,1,,,51,5,,,51,0,,,1,13743
SSD,SS,4575.0,44350.0,44350.0,maloupec,16318.0,29.0911,7.062591667,3,,,2016,,,50,2,,,50,0,,,50,0,,,1,13719
SSD,SS,4578.0,44373.0,44373.0,malow,,33.7571949,8.934,3,school,mapping,2018,5.0,15.0,40,0,0.0,0.0,40,0,0.0,0.0,40,0,0.0,0.0,1,36714
SSD,SS,4579.0,44389.0,44389.0,maluar kir,16403.0,28.19403333,9.090778333,3,,,2016,,,52,0,,,52,0,,,52,0,,,1,13923
SSD,SS,4575.0,44353.0,44353.0,malueeth,16375.0,29.64334167,7.650103333,3,,,2016,,,33,1,,,33,0,,,33,0,,,1,13736
SSD,SS,4577.0,44369.0,44369.0,mamkuai,57081.0,29.789,9.2846203,3,,,2010,,,61,0,,,61,0,,,61,0,,,1,13884
SSD,SS,4576.0,44357.0,44357.0,manbiel,56906.0,26.834299,8.1338701,3,,,2009,,,46,16,,,46,0,,,46,0,,,1,13759
SSD,SS,4572.0,44319.0,44319.0,mangala,57006.0,31.767985,5.1800179,1,,,2010,,,62,21,,,62,0,,,62,1,,,1,13656
SSD,SS,4577.0,44367.0,44367.0,mankein,57059.0,29.095444,9.0496741,1,,,2010,,,63,0,,,63,0,,,63,0,,,1,13863
SSD,SS,4575.0,44353.0,44353.0,maper pri,16376.0,29.71255333,7.68516,3,,,2016,,,50,0,,,50,0,,,50,0,,,1,13737
SSD,SS,4575.0,44356.0,44356.0,mapuordit,16423.0,30.07321667,6.339273333,4,,,2016,,,50,2,,,50,0,,,50,0,,,1,13748
SSD,SS,4577.0,44369.0,44369.0,mar malual,57082.0,29.6791,9.1685896,3,,,2010,,,64,0,,,64,0,,,64,0,,,1,13882
SSD,SS,4576.0,44357.0,44357.0,marchar tuop,56907.0,27.303801,8.5612297,3,,,2009,,,66,3,,,66,0,,,66,0,,,1,13756
SSD,SS,4578.0,44382.0,44382.0,marial,,32.6585711,10.2794186,3,school,mapping,2018,9.0,13.0,49,0,0.0,0.0,49,4,0.0,0.0,49,0,0.0,0.0,1,36741
SSD,SS,4581.0,44401.0,44401.0,marial bai,,28.049183,7.8733,3,school,mapping,2018,10.0,16.0,51,0,0.0,0.0,51,0,0.0,0.0,51,0,0.0,0.0,1,36751
SSD,SS,4576.0,44359.0,44359.0,mariel agep,56944.0,27.346399,8.9602804,3,,,2009,,,62,0,,,62,0,,,62,0,,,1,13789
SSD,SS,4576.0,44361.0,44361.0,mariem,56973.0,27.2974,8.9394302,3,,,2009,,,59,0,,,59,0,,,59,0,,,1,13815
SSD,SS,4577.0,44367.0,44367.0,matar,57060.0,29.1693,9.2248602,3,,,2010,,,65,0,,,65,0,,,65,0,,,1,13864
SSD,SS,4576.0,44358.0,44358.0,mathiandit,56925.0,27.6101,9.2064896,3,,,2009,,,68,0,,,68,0,,,68,0,,,1,13760
SSD,SS,4577.0,44369.0,44369.0,mathiang,57083.0,29.619499,9.0261097,3,,,2010,,,54,0,,,54,0,,,54,0,,,1,13877
SSD,SS,4578.0,44373.0,44373.0,mathiang,,33.505219,9.23767,3,school,mapping,2018,5.0,15.0,49,0,0.0,0.0,49,0,0.0,0.0,49,0,0.0,0.0,1,36715
SSD,SS,4575.0,44351.0,44351.0,mathiang thiei,16366.0,29.644205,6.778028333,3,,,2016,,,50,0,,,50,0,,,50,0,,,1,13723
SSD,SS,4576.0,44358.0,44358.0,mayanadot,56926.0,27.6091,8.8793402,3,,,2009,,,63,0,,,63,0,,,63,0,,,1,13763
SSD,SS,4576.0,44359.0,44359.0,mayem ulem,56945.0,27.284599,9.0451603,3,,,2009,,,63,1,,,63,0,,,63,0,,,1,13795
SSD,SS,4579.0,44385.0,44385.0,mayen gumel,16331.0,27.946697,8.3116348,1,,,2016,,,51,0,,,51,0,,,51,0,,,1,13899
SSD,SS,4579.0,44386.0,44386.0,mayen ador pri,16380.0,29.27201167,7.836096667,3,,,2016,,,51,1,,,51,0,,,51,0,,,1,13903
SSD,SS,4574.0,44346.0,44346.0,mayom,109487.0,29.1652303,9.2266079,1,,,2016,10.0,0.0,50,0,,,50,0,,,50,0,,,1,1679
SSD,SS,4577.0,44367.0,44367.0,mayom center,57061.0,29.1652303,9.2266079,1,,,2010,,,66,0,,,66,0,,,66,0,,,1,13862
SSD,SS,4575.0,44353.0,44353.0,meen akueileing village,16377.0,29.663565,7.457925,3,,,2016,,,50,1,,,50,1,,,50,0,,,1,13735
SSD,SS,4574.0,44333.0,44333.0,meer primary school,,33.0218889,7.7391444,3,school,mapping,2018,10.0,14.0,50,0,0.0,0.0,50,0,0.0,0.0,50,0,0.0,0.0,1,36687
SSD,SS,4580.0,44392.0,44392.0,michael tawil primary school,,29.453234,4.904767,3,school,mapping,2018,9.0,14.0,50,2,0.0,0.0,50,0,0.0,0.0,50,0,0.0,0.0,1,36772
SSD,SS,4580.0,44393.0,44393.0,mide pri,16355.0,30.731596670000002,5.06896,3,,,2016,,,50,0,,,50,0,,,50,0,,,1,13926
SSD,SS,4578.0,44371.0,44371.0,mijok primary school,,28.358333299999998,9.3616667,4,school,mapping,2018,10.0,14.0,50,0,0.0,0.0,50,0,0.0,0.0,50,0,0.0,0.0,1,36706
SSD,SS,4575.0,44349.0,44349.0,mingkaman pri,16308.0,31.51555833,6.047026667,3,,,2016,,,45,0,,,45,0,,,45,0,,,1,13715
SSD,SS,4572.0,44319.0,44319.0,miri kio,57007.0,30.985001,5.0886698,3,,,2010,,,61,29,,,61,0,,,61,0,,,1,13650
SSD,SS,4577.0,44364.0,44364.0,mirmir,57032.0,30.1014,8.46492,3,,,2010,,,58,0,,,58,0,,,58,0,,,1,13838
SSD,SS,4579.0,44383.0,44383.0,miyom ngok,,28.6038889,9.3633333,3,school,mapping,2018,9.0,15.0,50,0,0.0,0.0,50,0,0.0,0.0,50,0,0.0,0.0,1,36747
SSD,SS,4580.0,44399.0,44399.0,mobaiku,,27.442266,5.567983,3,school,mapping,2018,9.0,14.0,43,1,0.0,0.0,43,0,0.0,0.0,43,0,0.0,0.0,1,36784
SSD,SS,4572.0,44319.0,44319.0,mogiri,57008.0,31.852221,4.846687,1,,,2010,,,59,12,,,59,0,,,59,0,,,1,13647
SSD,SS,4572.0,44319.0,44319.0,moje,57009.0,31.027,4.4569602,3,,,2010,,,63,49,,,63,0,,,63,0,,,1,13626
SSD,SS,4578.0,44381.0,44381.0,monydeng agiing,,32.8213889,11.7197222,3,school,mapping,2018,9.0,14.0,50,0,0.0,0.0,50,0,0.0,0.0,50,0,0.0,0.0,1,36737
SSD,SS,4573.0,44332.0,44332.0,moti,16394.0,32.57046,4.4102396,1,,,2016,,,39,0,,,39,0,,,39,0,,,1,13703
SSD,SS,4579.0,44383.0,44383.0,mulmul,,28.4571667,9.5916667,3,school,mapping,2018,9.0,14.0,50,0,0.0,0.0,50,0,0.0,0.0,50,0,0.0,0.0,1,36748
SSD,SS,4580.0,44394.0,44394.0,mundri one,16359.0,30.286035,5.3434416670000005,3,,,2016,,,50,1,,,50,0,,,50,0,,,1,13933
SSD,SS,4577.0,44367.0,44367.0,muot,57062.0,29.1716,8.9801598,3,,,2010,,,58,0,,,58,0,,,58,0,,,1,13869
SSD,SS,4580.0,44399.0,44399.0,mupoi,,27.624670000000002,5.453517,3,school,mapping,2018,7.0,14.0,46,0,0.0,0.0,46,0,0.0,0.0,46,0,0.0,0.0,1,36785
SSD,SS,4573.0,44330.0,44330.0,mura pri,109434.0,32.7144509,4.810563,1,,,2016,10.0,0.0,51,0,,,51,0,,,51,0,,,1,1669
SSD,SS,4581.0,44403.0,44403.0,mutamadia,,27.993299,7.998165,3,school,mapping,2018,9.0,14.0,48,0,0.0,0.0,48,0,0.0,0.0,48,0,0.0,0.0,1,36761
SSD,SS,4580.0,44395.0,44395.0,mvolo center primary sch.,,30.757931,6.84115,4,school,mapping,2018,9.0,14.0,50,2,0.0,0.0,50,0,0.0,0.0,50,0,0.0,0.0,1,36775
SSD,SS,4580.0,44395.0,44395.0,mvolo sda primary sch.,,29.9625,6.0588889,3,school,mapping,2018,9.0,14.0,49,1,0.0,0.0,49,0,0.0,0.0,49,0,0.0,0.0,1,36776
SSD,SS,4580.0,44397.0,44397.0,naangbimo,,28.213568,4.620283,3,school,mapping,2018,10.0,14.0,49,0,0.0,0.0,49,0,0.0,0.0,49,0,0.0,0.0,1,36779
SSD,SS,4580.0,44400.0,44400.0,nakpangauo,16414.0,28.39528833,4.564548333,3,,,2016,,,50,0,,,50,0,,,50,0,,,1,13937
SSD,SS,4577.0,44365.0,44365.0,naliam,57043.0,30.253201,8.2263498,3,,,2010,,,59,0,,,59,0,,,59,0,,,1,13845
SSD,SS,4580.0,44397.0,44397.0,namaiku primary school,,28.231167,4.680083,3,school,mapping,2018,9.0,14.0,50,0,0.0,0.0,50,0,0.0,0.0,50,0,0.0,0.0,1,36780
SSD,SS,4578.0,44379.0,44379.0,new sudan,,32.5433333,7.1041,4,school,mapping,2018,10.0,14.0,48,0,0.0,0.0,48,0,0.0,0.0,48,0,0.0,0.0,1,36733
SSD,SS,4579.0,44386.0,44386.0,ngapagok pri,16381.0,29.09662667,7.847261667,3,,,2016,,,51,0,,,51,0,,,51,0,,,1,13901
SSD,SS,4576.0,44361.0,44361.0,ngol mal,56974.0,27.3566,8.8748198,3,,,2009,,,63,0,,,63,0,,,63,0,,,1,13827
SSD,SS,4572.0,44319.0,44319.0,ngulere,57010.0,31.855,4.8884501,3,,,2010,,,61,29,,,61,0,,,61,0,,,1,13643
SSD,SS,4579.0,44384.0,44384.0,nguongker,56978.0,29.035101,9.0181398,3,,,2010,,,65,0,,,65,0,,,65,0,,,1,13893
SSD,SS,4579.0,44387.0,44387.0,nier,57098.0,28.78,7.69,1,,,2010,,,50,2,,,50,0,,,50,0,,,1,13911
SSD,SS,4576.0,44358.0,44358.0,njangmir,56927.0,27.5522,9.0860596,3,,,2009,,,72,1,,,72,0,,,72,0,,,1,13766
SSD,SS,4578.0,44381.0,44381.0,nujkur chol,,32.8094444,11.76,3,school,mapping,2018,9.0,14.0,50,0,0.0,0.0,50,0,0.0,0.0,50,0,0.0,0.0,1,36738
SSD,SS,4572.0,44319.0,44319.0,nyakuron,57011.0,31.5845454,4.8426921,1,,,2010,,,45,2,,,45,0,,,45,1,,,1,13653
SSD,SS,4576.0,44357.0,44357.0,nyalath,56908.0,27.285299,8.7115698,3,,,2009,,,47,1,,,47,0,,,47,0,,,1,13755
SSD,SS,4576.0,44361.0,44361.0,nyamlel (akwangap),56975.0,26.971901,9.1220798,3,,,2009,,,63,2,,,63,0,,,63,0,,,1,13810
SSD,SS,4575.0,44355.0,44355.0,nyang pri,16419.0,30.597315,6.702913333,3,,,2016,,,50,2,,,50,8,,,50,0,,,1,13746
SSD,SS,4578.0,44382.0,44382.0,nyangore,,32.6585711,10.2794186,3,school,mapping,2018,6.0,12.0,49,0,0.0,0.0,49,6,0.0,0.0,49,0,0.0,0.0,1,36742
SSD,SS,4579.0,44387.0,44387.0,nyatail,57099.0,29.0618,8.5951004,3,,,2010,,,57,0,,,57,0,,,57,0,,,1,13913
SSD,SS,4577.0,44366.0,44366.0,nyeaaruop,57053.0,30.0527,8.2761202,3,,,2010,,,34,0,,,34,0,,,34,0,,,1,13857
SSD,SS,4578.0,44372.0,44372.0,nyiger primary school,,32.153618,9.959933,3,school,mapping,2018,9.0,15.0,50,0,0.0,0.0,50,0,0.0,0.0,50,0,0.0,0.0,1,36711
SSD,SS,4574.0,44333.0,44333.0,nyikan primary school,,33.0211111,7.7894444,3,school,mapping,2018,10.0,13.0,50,0,0.0,0.0,50,0,0.0,0.0,50,0,0.0,0.0,1,36688
SSD,SS,4581.0,44401.0,44401.0,nyin akok,,28.02768,7.92167,3,school,mapping,2018,8.0,15.0,40,0,0.0,0.0,40,0,0.0,0.0,40,0,0.0,0.0,1,36752
SSD,SS,4576.0,44357.0,44357.0,nykuala/mattar,56909.0,26.818199,8.6172895,3,,,2009,,,54,11,,,54,0,,,54,0,,,1,13754
SSD,SS,4577.0,44365.0,44365.0,nyoany,57044.0,30.306801,8.1884003,3,,,2010,,,54,1,,,54,0,,,54,0,,,1,13850
SSD,SS,4580.0,44397.0,44397.0,nzara one,,28.2513889,4.64,3,school,mapping,2018,10.0,14.0,50,0,0.0,0.0,50,0,0.0,0.0,50,0,0.0,0.0,1,36781
SSD,SS,4574.0,44344.0,44344.0,obwodi pri,16363.0,34.166255,7.08491,3,,,2016,,,45,9,,,45,0,,,45,13,,,1,13710
SSD,SS,4574.0,44342.0,44342.0,old fangak community school,,30.883266,9.068233,3,school,mapping,2018,9.0,14.0,50,0,0.0,0.0,50,0,0.0,0.0,50,0,0.0,0.0,1,36692
SSD,SS,4578.0,44378.0,44378.0,omar primary school,,32.7777778,11.7313889,3,school,mapping,2018,9.0,15.0,50,0,0.0,0.0,50,0,0.0,0.0,50,0,0.0,0.0,1,36728
SSD,SS,4572.0,44324.0,44324.0,ombasi,57104.0,30.687201,4.0927,3,,,2010,,,69,49,,,69,0,,,69,0,,,1,13685
SSD,SS,4575.0,44355.0,44355.0,pagarau,16420.0,30.41335,6.739651667,3,,,2016,,,52,10,,,52,6,,,52,0,,,1,13747
SSD,SS,4575.0,44350.0,44350.0,pagor,16319.0,29.30740333,7.156803333,3,,,2016,,,50,0,,,50,0,,,50,0,,,1,13718
SSD,SS,4573.0,44331.0,44331.0,pajok,109438.0,32.4750292,3.8731407,1,,,2016,10.0,0.0,49,0,,,49,1,,,49,2,,,1,1673
SSD,SS,4578.0,44379.0,44379.0,paloch,,32.5433333,10.4655556,3,school,mapping,2018,10.0,14.0,47,0,0.0,0.0,47,0,0.0,0.0,47,0,0.0,0.0,1,36734
SSD,SS,4578.0,44373.0,44373.0,pamach,,33.752167,8.92645,3,school,mapping,2018,5.0,14.0,30,0,0.0,0.0,30,0,0.0,0.0,30,0,0.0,0.0,1,36716
SSD,SS,4576.0,44359.0,44359.0,pamat,56946.0,27.0007,9.2131796,3,,,2009,,,58,0,,,58,0,,,58,0,,,1,13794
SSD,SS,4576.0,44358.0,44358.0,panamei,56928.0,27.6842,8.9826002,3,,,2009,,,73,0,,,73,0,,,73,0,,,1,13761
SSD,SS,4575.0,44352.0,44352.0,panawac,16372.0,29.81424,6.67682,3,,,2016,,,52,2,,,52,9,,,52,0,,,1,13732
SSD,SS,4577.0,44369.0,44369.0,pancuoy,57084.0,29.5513,9.5365105,3,,,2010,,,68,0,,,68,0,,,68,0,,,1,13875
SSD,SS,4576.0,44359.0,44359.0,pandit,56947.0,27.1707,9.1305799,3,,,2009,,,63,0,,,63,0,,,63,0,,,1,13792
SSD,SS,4575.0,44356.0,44356.0,pane kar,16424.0,30.488105,6.586266667,3,,,2016,,,39,5,,,39,2,,,39,0,,,1,13752
SSD,SS,4579.0,44389.0,44389.0,pangook,57101.0,28.4944,9.2338305,3,,,2010,,,57,0,,,57,0,,,57,0,,,1,13925
SSD,SS,4576.0,44360.0,44360.0,pankar,56956.0,27.8487,8.8234501,3,,,2009,,,67,6,,,67,0,,,67,0,,,1,13808
SSD,SS,4576.0,44360.0,44360.0,panthau,56957.0,27.749599,8.711030000000001,3,,,2009,,,51,6,,,51,0,,,51,0,,,1,13805
SSD,SS,4577.0,44370.0,44370.0,pantheap,57110.0,29.9842,9.91819,3,,,2010,,,63,0,,,63,0,,,63,0,,,1,13887
SSD,SS,4572.0,44322.0,44322.0,panyana,57071.0,30.6791,3.65658,3,,,2010,,,68,44,,,68,0,,,68,3,,,1,13671
SSD,SS,4576.0,44361.0,44361.0,panyieth,56976.0,27.187901,9.0664701,3,,,2009,,,64,0,,,64,0,,,64,0,,,1,13817
SSD,SS,4572.0,44322.0,44322.0,panyume,57072.0,30.9519,3.7823998999999997,3,,,2010,,,65,39,,,65,0,,,65,1,,,1,13673
SSD,SS,4579.0,44387.0,44387.0,papol pri,16388.0,28.57006167,7.707313333,3,,,2016,,,46,0,,,46,0,,,46,0,,,1,13908
SSD,SS,4576.0,44358.0,44358.0,paraick,56929.0,27.625401,8.9612904,3,,,2009,,,72,1,,,72,0,,,72,0,,,1,13779
SSD,SS,4577.0,44365.0,44365.0,parbong,57045.0,30.146099,8.4100704,3,,,2010,,,53,0,,,53,0,,,53,0,,,1,13841
SSD,SS,4574.0,44335.0,44335.0,pariak,109403.0,31.6610713,5.9716487,3,,,2016,10.0,0.0,52,0,,,52,0,,,52,0,,,1,1660
SSD,SS,4573.0,44328.0,44328.0,paringa pri,16334.0,33.56364167,4.848245,3,,,2016,,,42,0,,,42,0,,,42,0,,,1,13690
SSD,SS,4577.0,44365.0,44365.0,patham,57046.0,30.2013,8.2653904,3,,,2010,,,63,0,,,63,0,,,63,0,,,1,13844
SSD,SS,4577.0,44367.0,44367.0,patit,57063.0,29.4806,9.1392899,3,,,2010,,,72,0,,,72,0,,,72,0,,,1,13867
SSD,SS,4579.0,44386.0,44386.0,paweng pri,16382.0,29.43146167,8.075913333,3,,,2016,,,50,0,,,50,0,,,50,0,,,1,13904
SSD,SS,4572.0,44320.0,44320.0,paying,57023.0,31.601601,3.78669,3,,,2010,,,71,17,,,71,0,,,71,0,,,1,13665
SSD,SS,4574.0,44344.0,44344.0,pecp primary,,34.0988889,7.1786111,3,school,mapping,2018,10.0,14.0,50,0,0.0,0.0,50,0,0.0,0.0,50,0,0.0,0.0,1,36699
SSD,SS,4576.0,44358.0,44358.0,peth,56930.0,27.7939,8.9645004,3,,,2009,,,63,2,,,63,0,,,63,0,,,1,13771
SSD,SS,4577.0,44367.0,44367.0,pibor,57064.0,29.1299,9.1479101,3,,,2010,,,64,0,,,64,0,,,64,0,,,1,13865
SSD,SS,4574.0,44343.0,44343.0,pibor boys primary school,,33.1299904,6.8029632,3,school,mapping,2018,10.0,15.0,50,0,0.0,0.0,50,0,0.0,0.0,50,0,0.0,0.0,1,36697
SSD,SS,4574.0,44343.0,44343.0,pibor girls primary school,,33.1306978,6.8019248,3,school,mapping,2018,10.0,14.0,49,0,0.0,0.0,49,0,0.0,0.0,49,0,0.0,0.0,1,36698
SSD,SS,4578.0,44375.0,44375.0,piekaji primary school,,33.7711791,10.0135071,3,school,mapping,2018,10.0,14.0,50,0,0.0,0.0,50,0,0.0,0.0,50,0,0.0,0.0,1,36720
SSD,SS,4579.0,44388.0,44388.0,piok kor,16391.0,28.72526667,7.661738333,3,,,2016,,,51,0,,,51,0,,,51,0,,,1,13916
SSD,SS,4574.0,44344.0,44344.0,pochalla primary school,,34.133968,7.15745,3,school,mapping,2018,10.0,14.0,42,0,0.0,0.0,42,0,0.0,0.0,42,0,0.0,0.0,1,36700
SSD,SS,4572.0,44320.0,44320.0,pomojjo,57024.0,31.6591,3.7750299,3,,,2010,,,73,18,,,73,0,,,73,0,,,1,13662
SSD,SS,4577.0,44367.0,44367.0,pub,57065.0,29.0695,9.2063599,3,,,2010,,,55,0,,,55,0,,,55,0,,,1,13861
SSD,SS,4581.0,44402.0,44402.0,raga east primary school,,25.678432,8.4722333,3,school,mapping,2018,9.0,15.0,49,0,0.0,0.0,49,0,0.0,0.0,49,0,0.0,0.0,1,36758
SSD,SS,4575.0,44351.0,44351.0,raik dor,16368.0,29.67965333,6.801328333,3,,,2016,,,50,0,,,50,3,,,50,0,,,1,13726
SSD,SS,4577.0,44366.0,44366.0,reang,57054.0,30.0527,8.2761202,3,,,2010,,,48,0,,,48,0,,,48,0,,,1,13855
SSD,SS,4572.0,44319.0,44319.0,rejaf east,57012.0,31.571871,4.752233,1,,,2010,,,58,14,,,58,0,,,58,1,,,1,13636
SSD,SS,4578.0,44381.0,44381.0,remala,,32.7819444,11.0783333,3,school,mapping,2018,9.0,14.0,50,0,0.0,0.0,50,0,0.0,0.0,50,0,0.0,0.0,1,36739
SSD,SS,4580.0,44399.0,44399.0,renzi,,29.002899,5.597483,3,school,mapping,2018,9.0,14.0,49,0,0.0,0.0,49,0,0.0,0.0,49,0,0.0,0.0,1,36786
SSD,SS,4575.0,44352.0,44352.0,rier,57074.0,30.1017,6.7832599,3,,,2010,,,67,0,,,67,0,,,67,0,,,1,13728
SSD,SS,4573.0,44328.0,44328.0,riwato pri,16335.0,33.50603,4.88117,3,,,2016,,,32,0,,,32,0,,,32,0,,,1,13689
SSD,SS,4581.0,44401.0,44401.0,roc roc dong,,28.12967,7.81555,3,school,mapping,2018,8.0,15.0,44,0,0.0,0.0,44,0,0.0,0.0,44,0,0.0,0.0,1,36753
SSD,SS,4572.0,44319.0,44319.0,rokon,57013.0,30.941299,5.13236,3,,,2010,,,49,15,,,49,0,,,49,0,,,1,13637
SSD,SS,4572.0,44321.0,44321.0,roronyo,57035.0,30.7136192,4.2406955,1,,,2010,,,72,58,,,72,0,,,72,1,,,1,13667
SSD,SS,4576.0,44358.0,44358.0,rum aihol,56931.0,27.5117,9.0355997,3,,,2009,,,72,0,,,72,0,,,72,0,,,1,13770
SSD,SS,4579.0,44386.0,44386.0,rumabuth pri,16383.0,29.28067333,7.962783333,3,,,2016,,,50,0,,,50,0,,,50,0,,,1,13902
SSD,SS,4576.0,44358.0,44358.0,rumbol,56932.0,27.675301,9.00702,3,,,2009,,,60,0,,,60,0,,,60,0,,,1,13762
SSD,SS,4576.0,44360.0,44360.0,rup,56958.0,27.672501,8.7588196,3,,,2009,,,64,6,,,64,0,,,64,0,,,1,13803
SSD,SS,4580.0,44397.0,44397.0,sakure,,28.282551,4.509717,3,school,mapping,2018,9.0,14.0,50,0,0.0,0.0,50,0,0.0,0.0,50,0,0.0,0.0,1,36782
SSD,SS,4580.0,44391.0,44391.0,sanango primary school,,29.052767,4.799333,3,school,mapping,2018,9.0,14.0,50,4,0.0,0.0,50,1,0.0,0.0,50,0,0.0,0.0,1,36765
SSD,SS,4572.0,44320.0,44320.0,seregoro,57025.0,31.6714,3.8593900000000003,3,,,2010,,,70,8,,,70,0,,,70,0,,,1,13663
SSD,SS,4578.0,44377.0,44377.0,shaaba alp school,,31.6566716,9.535817,3,school,mapping,2018,11.0,14.0,48,0,0.0,0.0,48,0,0.0,0.0,48,0,0.0,0.0,1,36723
SSD,SS,4572.0,44319.0,44319.0,sindiro,57014.0,31.597401,4.47084,3,,,2010,,,57,11,,,57,0,,,57,0,,,1,13655
SSD,SS,4573.0,44329.0,44329.0,singata p.s,16341.0,33.59190333,4.763498333,3,,,2016,,,50,0,,,50,0,,,50,0,,,1,13695
SSD,SS,4572.0,44320.0,44320.0,sokare,57026.0,31.4305,3.7957101,3,,,2010,,,62,27,,,62,0,,,62,0,,,1,13657
SSD,SS,4580.0,44399.0,44399.0,st mary,,27.4744,5.6195,3,school,mapping,2018,10.0,14.0,43,0,0.0,0.0,43,0,0.0,0.0,43,0,0.0,0.0,1,36787
SSD,SS,4573.0,44332.0,44332.0,st theresa,16395.0,32.5841752,4.3962704,1,,,2016,,,52,0,,,52,0,,,52,0,,,1,13704
SSD,SS,4578.0,44377.0,44377.0,st. luawga primary,,31.6575,9.5366667,3,school,mapping,2018,10.0,14.0,48,0,0.0,0.0,48,0,0.0,0.0,48,0,0.0,0.0,1,36724
SSD,SS,4573.0,44328.0,44328.0,st.marys magdalene,16336.0,33.49841833,4.871795,3,,,2016,,,52,0,,,52,0,,,52,0,,,1,13688
SSD,SS,4580.0,44391.0,44391.0,st.paul primary school,,29.2547222,4.8494444,3,school,mapping,2018,10.0,14.0,50,14,0.0,0.0,50,0,0.0,0.0,50,0,0.0,0.0,1,36766
SSD,SS,4580.0,44391.0,44391.0,st.peter primary school,,29.1710777,4.7185277,3,school,mapping,2018,8.0,14.0,50,4,0.0,0.0,50,0,0.0,0.0,50,1,0.0,0.0,1,36767
SSD,SS,4572.0,44319.0,44319.0,sure,57015.0,31.179501,4.8775601,3,,,2010,,,62,35,,,62,0,,,62,0,,,1,13644
SSD,SS,4572.0,44323.0,44323.0,terekeka town,57094.0,31.73609,5.441253,1,,,2010,,,65,10,,,65,0,,,65,22,,,1,13678
SSD,SS,4576.0,44360.0,44360.0,thieralieth,56959.0,27.8773,8.774299599999999,3,,,2009,,,61,14,,,61,0,,,61,0,,,1,13800
SSD,SS,4577.0,44365.0,44365.0,thorbokui,57047.0,30.153099,8.1307297,3,,,2010,,,58,0,,,58,0,,,58,0,,,1,13849
SSD,SS,4579.0,44384.0,44384.0,thou buotb,56979.0,29.035101,9.01824,3,,,2010,,,64,0,,,64,0,,,64,0,,,1,13894
SSD,SS,4578.0,44375.0,44375.0,thouyeji primary school,,33.7116667,9.9827778,3,school,mapping,2018,10.0,14.0,50,0,0.0,0.0,50,0,0.0,0.0,50,0,0.0,0.0,1,36721
SSD,SS,4574.0,44344.0,44344.0,tierlul primary school,,34.168116,7.0953667,3,school,mapping,2018,10.0,14.0,32,0,0.0,0.0,32,0,0.0,0.0,32,0,0.0,0.0,1,36701
SSD,SS,4579.0,44389.0,44389.0,tiitchok,16404.0,28.28902667,8.944413333,3,,,2016,,,54,0,,,54,0,,,54,0,,,1,13920
SSD,SS,4581.0,44403.0,44403.0,tirga,,27.6694444,7.6794443999999995,3,school,mapping,2018,11.0,15.0,49,0,0.0,0.0,49,0,0.0,0.0,49,0,0.0,0.0,1,36762
SSD,SS,4576.0,44359.0,44359.0,tit chok,56948.0,26.8445,9.1372995,3,,,2009,,,61,0,,,61,0,,,61,0,,,1,13797
SSD,SS,4575.0,44352.0,44352.0,tit.alal,16373.0,30.06675667,6.75447,3,,,2016,,,50,1,,,50,5,,,50,1,,,1,13729
SSD,SS,4574.0,44342.0,44342.0,toch primary,,30.709133,8.969167,3,school,mapping,2018,10.0,14.0,45,0,0.0,0.0,45,0,0.0,0.0,45,0,0.0,0.0,1,36693
SSD,SS,4572.0,44319.0,44319.0,tomber,57016.0,31.625099,4.2947798,3,,,2010,,,64,17,,,64,0,,,64,1,,,1,13635
SSD,SS,4577.0,44369.0,44369.0,tong,57085.0,29.756701,9.2581396,3,,,2010,,,64,0,,,64,0,,,64,0,,,1,13881
SSD,SS,4577.0,44369.0,44369.0,tongidol,57086.0,29.6392,9.0040503,3,,,2010,,,44,0,,,44,0,,,44,0,,,1,13885
SSD,SS,4576.0,44358.0,44358.0,tongoi,56933.0,27.491199,8.87533,3,,,2009,,,69,0,,,69,0,,,69,0,,,1,13780
SSD,SS,4579.0,44388.0,44388.0,tonj academy pri,16392.0,28.678978999999998,7.2675115,1,,,2016,,,56,0,,,56,0,,,56,0,,,1,13917
SSD,SS,4577.0,44370.0,44370.0,tor,57111.0,29.771299,9.8550501,3,,,2010,,,61,0,,,61,0,,,61,0,,,1,13889
SSD,SS,4572.0,44324.0,44324.0,tore,57105.0,30.1531568,4.4999761,1,,,2010,,,55,21,,,55,0,,,55,0,,,1,13683
SSD,SS,4577.0,44366.0,44366.0,tuoi,57055.0,30.0812,8.3818197,3,,,2010,,,67,0,,,67,0,,,67,0,,,1,13856
SSD,SS,4579.0,44389.0,44389.0,twic mayardit,16405.0,28.70187167,9.285641667,3,,,2016,,,54,0,,,54,0,,,54,0,,,1,13921
SSD,SS,4577.0,44367.0,44367.0,urem,57066.0,28.948900000000002,9.1245804,3,,,2010,,,64,0,,,64,0,,,64,0,,,1,13868
SSD,SS,4578.0,44378.0,44378.0,wadakona comboni primary sch,,32.470001,11.5367,3,school,mapping,2018,9.0,15.0,50,0,0.0,0.0,50,0,0.0,0.0,50,0,0.0,0.0,1,36729
SSD,SS,4572.0,44320.0,44320.0,walido,57027.0,31.6663,3.8915999,3,,,2010,,,73,14,,,73,0,,,73,0,,,1,13661
SSD,SS,4576.0,44357.0,44357.0,war ager,56910.0,27.5205,8.5301905,3,,,2009,,,45,11,,,45,0,,,45,0,,,1,13753
SSD,SS,4576.0,44358.0,44358.0,wat malual,56934.0,27.4326,8.8601503,3,,,2009,,,18,0,,,18,0,,,18,0,,,1,13773
SSD,SS,4577.0,44369.0,44369.0,wathjak,57087.0,29.616667,9.083333,1,,,2010,,,48,0,,,48,0,,,48,4,,,1,13873
SSD,SS,4576.0,44359.0,44359.0,watok,56949.0,27.233601,9.0316696,3,,,2009,,,61,2,,,61,0,,,61,0,,,1,13791
SSD,SS,4581.0,44403.0,44403.0,wau naar,,28.0005556,7.7002778,3,school,mapping,2018,11.0,15.0,47,0,0.0,0.0,47,0,0.0,0.0,47,0,0.0,0.0,1,36763
SSD,SS,4577.0,44369.0,44369.0,waukok,57088.0,29.789301,9.2413797,3,,,2010,,,67,0,,,67,0,,,67,0,,,1,13876
SSD,SS,4574.0,44346.0,44346.0,wernyol,109489.0,31.3987385,7.3457101,1,,,2016,10.0,0.0,50,0,,,50,0,,,50,0,,,1,1681
SSD,SS,4576.0,44358.0,44358.0,wiyon / oun,56935.0,27.601101,8.9365196,3,,,2009,,,67,1,,,67,0,,,67,0,,,1,13767
SSD,SS,4572.0,44319.0,44319.0,wonduruba,57017.0,31.004,4.5438199,3,,,2010,,,72,58,,,72,0,,,72,0,,,1,13634
SSD,SS,4580.0,44395.0,44395.0,wowo primary school,,30.75797,6.84119,4,school,mapping,2018,9.0,14.0,50,4,0.0,0.0,50,2,0.0,0.0,50,0,0.0,0.0,1,36777
SSD,SS,4572.0,44323.0,44323.0,wudu bori,57095.0,31.698099,5.7371802,3,,,2010,,,61,4,,,61,0,,,61,1,,,1,13681
SSD,SS,4577.0,44370.0,44370.0,wulit,57112.0,29.976801,9.9193897,3,,,2010,,,64,0,,,64,0,,,64,0,,,1,13888
SSD,SS,4575.0,44354.0,44354.0,wulu gedin,16410.0,29.616395,6.441291667,3,,,2016,,,37,3,,,37,0,,,37,0,,,1,13742
SSD,SS,4576.0,44358.0,44358.0,wuluch,56936.0,27.4326,8.8600798,3,,,2009,,,58,1,,,58,0,,,58,0,,,1,13776
SSD,SS,4575.0,44349.0,44349.0,wunthor,16309.0,31.472695,6.18893,3,,,2016,,,50,1,,,50,0,,,50,0,,,1,13716
SSD,SS,4575.0,44353.0,44353.0,wutriang,16378.0,29.712945,7.668846667,3,,,2016,,,43,1,,,43,0,,,43,0,,,1,13734
SSD,SS,4576.0,44361.0,44361.0,yaal,56977.0,26.643999,9.0712299,3,,,2009,,,60,1,,,60,0,,,60,0,,,1,13820
SSD,SS,4580.0,44400.0,44400.0,yabongo,16415.0,28.393755,4.572266667,3,,,2016,,,50,1,,,50,0,,,50,0,,,1,13938
SSD,SS,4572.0,44324.0,44324.0,yei center,57106.0,30.6775054,4.0952713,1,,,2010,,,62,13,,,62,0,,,62,0,,,1,13686
SSD,SS,4578.0,44382.0,44382.0,ying primary school,,32.6858333,8.7969444,3,school,mapping,2018,8.0,14.0,49,0,0.0,0.0,49,5,0.0,0.0,49,0,0.0,0.0,1,36743
SSD,SS,4575.0,44356.0,44356.0,yinol,16425.0,30.50855833,6.567091667,3,,,2016,,,34,1,,,34,7,,,34,0,,,1,13751
SSD,SS,4577.0,44367.0,44367.0,yoalakeer,57067.0,29.242599,9.1942902,3,,,2010,,,65,0,,,65,0,,,65,0,,,1,13871
SSD,SS,4578.0,44382.0,44382.0,yomding primary school,,32.658572,10.2794186,3,school,mapping,2018,8.0,12.0,50,0,0.0,0.0,50,7,0.0,0.0,50,0,0.0,0.0,1,36744
SSD,SS,4572.0,44321.0,44321.0,zaramara,57036.0,30.9821,4.0469799,3,,,2010,,,66,34,,,66,0,,,66,1,,,1,13670
