"iso3","iso2","admin1_id","admin2_id","iu_id","location","site_id","longitude","latitude","georeliability","location_type","survey_type","year","age_start","age_end","hk_examined","hk_positive","hk_perc_highinfection","hk_perc_moderateinfection","asc_examined","asc_positive","asc_perc_highinfection","asc_perc_moderateinfection","tt_examined","tt_positive","tt_perc_highinfection","tt_perc_moderateinfection","quality","sn","hk_prevalence","asc_prevalence","tt_prevalence","sth_prevalence"
"MDG","MG",2864.0,0.0,27853.0,"agnalarajy",12950.0,49.86160333,-16.981015,3,"","",2015.0,"","",50,2,"","",50,15,"","",50,40,"","",1,8809,0.04,0.3,0.8,0.8166037735849058
"MDG","MG",2881.0,0.0,27936.0,"alatsinainy",55159.0,46.736698,-19.643499,3,"","",1995.0,"","",121,2,"","",121,76,"","",121,8,"","",3,9088,0.01652892561983471,0.628099173553719,0.06611570247933884,0.6211588281278382
"MDG","MG",2863.0,0.0,27842.0,"alatsinainy",12780.0,47.679829,-19.32358,1,"","",2015.0,"","",50,0,"","",50,11,"","",50,2,"","",1,8796,0.0,0.22,0.04,0.2369811320754717
"MDG","MG",2871.0,0.0,27889.0,"ambalabe/befanjava",12885.0,46.95271167,-15.77795,3,"","",2015.0,"","",50,0,"","",50,1,"","",50,0,"","",1,8914,0.0,0.02,0.0,0.018867924528301886
"MDG","MG",2881.0,0.0,27936.0,"ambalafeno",55160.0,46.6666669,-20.116667,1,"","",1995.0,"","",78,0,"","",78,63,"","",78,4,"","",3,9076,0.0,0.8076923076923077,0.05128205128205128,0.7712775855010978
"MDG","MG",2874.0,0.0,27900.0,"ambalakindresy","",47.332001,-21.166,3,"","",1990.0,1.0,10.0,96,0,"","",96,75,"","",96,31,"","",3,29173,0.0,0.78125,0.3229166666666667,0.8036679441823898
"MDG","MG",2872.0,0.0,27894.0,"ambalanjanakomby",55248.0,47.0753348,-16.6980043,1,"","",1996.0,"","",104,61,"","",104,18,"","",104,7,"","",3,8929,0.5865384615384616,0.17307692307692307,0.0673076923076923,0.6425581812892366
"MDG","MG",2880.0,0.0,27929.0,"ambalavelona",104155.0,47.5833333,-16.1999999,3,"","",2015.0,10.0,0.0,50,0,"","",50,0,"","",50,0,"","",1,859,0.0,0.0,0.0,0.0
"MDG","MG",2871.0,0.0,27887.0,"ambaliha",104015.0,46.0,-17.45,1,"","",2015.0,10.0,0.0,50,0,"","",50,0,"","",50,0,"","",1,828,0.0,0.0,0.0,0.0
"MDG","MG",2871.0,0.0,27887.0,"ambaliha",104020.0,46.0,-17.45,1,"","","","","",50,0,"","",50,0,"","",50,0,"","",3,825,0.0,0.0,0.0,0.0
"MDG","MG",2879.0,0.0,27922.0,"ambanifaho",12815.0,50.28308833,-14.91431667,3,"","",2015.0,"","",50,2,"","",50,31,"","",50,43,"","",1,9019,0.04,0.62,0.86,0.8952150943396225
"MDG","MG",2880.0,0.0,27931.0,"ambanjabe",104200.0,47.703911,-15.644120000000001,1,"","",2015.0,9.0,0.0,50,15,"","",50,0,"","",50,0,"","",1,872,0.3,0.0,0.0,0.28301886792452824
"MDG","MG",2870.0,0.0,27884.0,"ambanjabe ouest",12875.0,46.04979167,-17.50399167,3,"","",2015.0,"","",50,0,"","",50,0,"","",50,0,"","",1,8892,0.0,0.0,0.0,0.0
"MDG","MG",2880.0,0.0,27925.0,"ambarijiby sud",104040.0,47.680099,-14.93211,1,"","",2015.0,9.0,0.0,50,10,"","",50,0,"","",50,2,"","",1,831,0.2,0.0,0.04,0.21886792452830187
"MDG","MG",2871.0,0.0,27890.0,"ambatobe","","","",99,"","",2014.0,10.0,14.0,43,1,0.0,0.0,50,0,0.0,0.0,50,0,0.0,0.0,1,26289,0.023255813953488372,0.0,0.0,0.021939447125932425
"MDG","MG",2876.0,0.0,27908.0,"ambatomainty",12830.0,46.683333,-18.816667,1,"","",2015.0,"","",50,0,"","",50,6,"","",50,2,"","",1,8962,0.0,0.12,0.04,0.14641509433962263
"MDG","MG",2872.0,0.0,27893.0,"ambatomainty sud",12865.0,46.113392,-18.9743,1,"","",2015.0,"","",50,5,"","",50,3,"","",50,2,"","",1,8927,0.1,0.06,0.04,0.1772075471698113
"MDG","MG",2867.0,0.0,27863.0,"ambatomanambahitse","",44.9797424,-24.568543,3,"","sentinel site",2015.0,7.0,10.0,55,0,0.0,0.0,55,0,0.0,0.0,55,1,0.0,0.0,1,26248,0.0,0.0,0.01818181818181818,0.01715265866209262
"MDG","MG",2867.0,0.0,27863.0,"ambatomanambahitse","",44.9797424,-24.568543,3,"","sentinel site",2017.0,7.0,10.0,60,0,0.0,0.0,60,0,0.0,0.0,60,0,0.0,0.0,1,26249,0.0,0.0,0.0,0.0
"MDG","MG",2872.0,0.0,27894.0,"ambatomandondona","",45.77566667,-18.98186111,3,"","mapping",2015.0,9.0,13.0,50,0,0.0,0.0,50,1,0.0,0.0,50,2,0.0,0.0,1,26300,0.0,0.02,0.04,0.055849056603773574
"MDG","MG",2881.0,0.0,27946.0,"ambatomanga",55212.0,47.533333,-19.7,1,"","",1995.0,"","",158,24,"","",158,66,"","",158,8,"","",3,9113,0.1518987341772152,0.4177215189873418,0.05063291139240506,0.5011065946905268
"MDG","MG",2881.0,0.0,27936.0,"ambatomaroanaka",55161.0,46.722099,-19.9216,3,"","",1995.0,"","",12,0,"","",12,9,"","",12,1,"","",3,9057,0.0,0.75,0.08333333333333333,0.7272012578616351
"MDG","MG",2876.0,0.0,27910.0,"ambatomboro","",46.76669444,-19.05561111,3,"","mapping",2015.0,10.0,14.0,49,0,0.0,0.0,49,10,0.0,0.0204,49,2,0.0,0.0,1,26315,0.0,0.20408163265306123,0.04081632653061224,0.22317744964755248
"MDG","MG",2864.0,0.0,27853.0,"ambatorao",12951.0,49.97192833,-16.76881167,3,"","",2015.0,"","",50,1,"","",50,36,"","",50,48,"","",1,8813,0.02,0.72,0.96,0.933041509433962
"MDG","MG","","",0.0,"ambatosoratra","",48.5167,-17.6167,4,"","",1982.0,0.0,99.0,84,0,"","",84,73,"","",84,28,"","",3,29499,0.0,0.8690476190476191,0.3333333333333333,0.8610362383947289
"MDG","MG",2881.0,0.0,27936.0,"ambatotsara",55162.0,46.6693,-19.610001,3,"","",1995.0,"","",36,0,"","",36,23,"","",36,2,"","",3,9091,0.0,0.6388888888888888,0.05555555555555555,0.6216515257395759
"MDG","MG",2881.0,0.0,27946.0,"ambatotsipihina",12905.0,47.75,-19.633333,1,"","",2015.0,"","",50,0,"","",50,0,"","",50,0,"","",1,9118,0.0,0.0,0.0,0.0
"MDG","MG",2869.0,0.0,27880.0,"ambinanisahanaho",12920.0,48.1666667,-20.0666666,3,"","",2015.0,"","",50,9,"","",50,25,"","",50,33,"","",1,8874,0.18,0.5,0.66,0.8118867924528301
"MDG","MG",2869.0,0.0,27877.0,"ambinanizana",12820.0,48.31667,-19.48768,1,"","",2015.0,"","",50,0,"","",50,28,"","",50,15,"","",1,8865,0.0,0.56,0.3,0.6528301886792452
"MDG","MG",2878.0,0.0,27917.0,"ambinda","",44.76141667,-20.71186111,3,"","mapping",2014.0,5.0,15.0,50,2,0.0,0.0,50,0,0.0,0.0,50,0,0.0,0.0,1,26326,0.04,0.0,0.0,0.03773584905660377
"MDG","MG",2880.0,0.0,27925.0,"ambinda",104041.0,47.3175809,-15.68112,1,"","",2015.0,10.0,0.0,50,19,"","",50,0,"","",50,1,"","",1,832,0.38,0.0,0.02,0.370188679245283
"MDG","MG",2866.0,0.0,27860.0,"amboasary centre",12775.0,46.3840668,-25.040977,2,"","",2015.0,"","",50,1,"","",50,2,"","",50,19,"","",1,8828,0.02,0.04,0.38,0.3931169811320754
"MDG","MG",2881.0,0.0,27946.0,"amboassary",55213.0,46.409801,-19.518101,3,"","",1995.0,"","",93,9,"","",93,29,"","",93,7,"","",3,9108,0.0967741935483871,0.3118279569892473,0.07526881720430108,0.40114193169788653
"MDG","MG",2876.0,0.0,27909.0,"ambodiamontana",55227.0,46.935398,-18.9856,3,"","",1996.0,"","",53,2,"","",53,34,"","",53,6,"","",3,8967,0.03773584905660377,0.6415094339622641,0.11320754716981132,0.6548016527763008
"MDG","MG",2879.0,0.0,27921.0,"ambodiangezoka sud",104045.0,49.744431,-14.99083,1,"","",2015.0,10.0,0.0,50,1,"","",50,35,"","",50,48,"","",1,836,0.02,0.7,0.96,0.9323018867924527
"MDG","MG",2882.0,0.0,0.0,"ambodiaviavy","",47.481,-21.25,4,"","",1990.0,1.0,10.0,60,4,"","",60,36,"","",60,27,"","",3,29655,0.06666666666666667,0.6,0.45,0.7496855345911949
"MDG","MG",2871.0,0.0,27889.0,"ambodimanga",12886.0,46.7,-16.05,1,"","",2015.0,"","",50,2,"","",50,2,"","",50,1,"","",1,8912,0.04,0.04,0.02,0.0913509433962264
"MDG","MG",2861.0,0.0,27837.0,"ambodinifody",12935.0,48.04257,-18.88474,3,"","",2015.0,"","",50,5,"","",50,17,"","",50,22,"","",1,8790,0.1,0.34,0.44,0.6295849056603774
"MDG","MG",2869.0,0.0,27877.0,"ambodinonoka",12821.0,47.80843,-20.3601889,1,"","",2015.0,"","",50,4,"","",50,23,"","",50,27,"","",1,8862,0.08,0.46,0.54,0.7278037735849057
"MDG","MG",2879.0,0.0,27921.0,"ambodipont",12791.0,49.55161167,-14.64319833,3,"","",2015.0,"","",50,12,"","",50,40,"","",50,46,"","",1,9013,0.24,0.8,0.92,0.9319245283018868
"MDG","MG",2880.0,0.0,27929.0,"ambodirafia","",47.4096218,-16.2652248,3,"","sentinel site",2015.0,7.0,10.0,80,3,0.0,0.0,80,5,0.0,0.0,80,0,0.0,0.0,1,26346,0.0375,0.0625,0.0,0.09212853773584904
"MDG","MG",2880.0,0.0,27929.0,"ambodirafia","",47.4096218,-16.2652248,3,"","sentinel site",2017.0,7.0,10.0,80,0,0.0,0.0,80,0,0.0,0.0,80,1,0.0,0.0,1,26347,0.0,0.0,0.0125,0.011792452830188678
"MDG","MG",2869.0,0.0,27882.0,"ambodisaina",12975.0,49.36483333,-18.140645,3,"","",2015.0,"","",50,5,"","",50,36,"","",50,43,"","",1,8883,0.1,0.72,0.86,0.91011320754717
"MDG","MG",2879.0,0.0,27924.0,"ambodisakoa",104258.0,49.733333,-13.566667,1,"","",2015.0,10.0,0.0,50,0,"","",50,4,"","",50,5,"","",1,882,0.0,0.08,0.1,0.1622641509433962
"MDG","MG",2880.0,0.0,27930.0,"ambodisatrana manjola",12910.0,48.616667,-15.35,1,"","",2015.0,"","",50,0,"","",50,3,"","",50,0,"","",1,9048,0.0,0.06,0.0,0.056603773584905655
"MDG","MG",2874.0,0.0,27901.0,"amboditanimena",55146.0,47.0966337,-21.4664648,1,"","",1990.0,"","",53,0,"","",53,35,"","",53,7,"","",3,8952,0.0,0.660377358490566,0.1320754716981132,0.6653143198747958
"MDG","MG",2874.0,0.0,27900.0,"amboditanimena","",47.366001,-21.198999,3,"","",1990.0,1.0,10.0,53,0,"","",53,35,"","",53,7,"","",3,30595,0.0,0.660377358490566,0.1320754716981132,0.6653143198747958
"MDG","MG",2869.0,0.0,27883.0,"amboditavolo",12993.0,48.881321,-19.180861,1,"","",2015.0,"","",50,8,"","",50,15,"","",50,28,"","",1,8886,0.16,0.3,0.56,0.6993207547169811
"MDG","MG",2869.0,0.0,27877.0,"ambodivandrika",12822.0,48.5833333,-19.4499999,3,"","",2015.0,"","",50,15,"","",50,15,"","",50,13,"","",1,8866,0.3,0.3,0.26,0.6013207547169811
"MDG","MG",2879.0,0.0,27923.0,"ambodivoara",12955.0,49.828289,-13.61892,1,"","",2015.0,"","",50,0,"","",50,38,"","",50,30,"","",1,9026,0.0,0.76,0.6,0.8528301886792451
"MDG","MG",2878.0,0.0,27917.0,"ambohibary",55207.0,44.75,-19.7333329,1,"","",1998.0,"","",27,7,"","",27,2,"","",27,3,"","",3,9003,0.25925925925925924,0.07407407407407407,0.1111111111111111,0.36824230084576376
"MDG","MG",2863.0,0.0,27844.0,"ambohibary",12800.0,47.94510667,-18.513165,3,"","",2015.0,"","",50,3,"","",50,36,"","",50,12,"","",1,8800,0.06,0.72,0.24,0.7546867924528301
"MDG","MG",2872.0,0.0,27894.0,"ambohibary kofay","",46.17358333,-18.74619444,3,"","mapping",2015.0,10.0,14.0,50,0,0.0,0.0,50,1,0.0,0.0,50,0,0.0,0.0,1,26301,0.0,0.02,0.0,0.018867924528301886
"MDG","MG",2864.0,0.0,27855.0,"ambohibe",12998.0,49.11885,-17.43823,3,"","",2015.0,"","",50,5,"","",50,34,"","",50,46,"","",1,8822,0.1,0.68,0.92,0.9216603773584906
"MDG","MG",2877.0,0.0,27913.0,"ambohibengy","",45.0101237,-16.7964373,3,"","sentinel site",2015.0,7.0,10.0,49,0,0.0,0.0,49,0,0.0,0.0,49,0,0.0,0.0,1,26321,0.0,0.0,0.0,0.0
"MDG","MG",2881.0,0.0,27936.0,"ambohidava",55163.0,46.625,-19.8433,3,"","",1995.0,"","",219,3,"","",219,151,"","",219,4,"","",3,9068,0.0136986301369863,0.6894977168949772,0.0182648401826484,0.6597592063324001
"MDG","MG",2876.0,0.0,27908.0,"ambohidava",12831.0,47.38771833,-19.06104167,3,"","",2015.0,"","",50,6,"","",50,19,"","",50,5,"","",1,8961,0.12,0.38,0.1,0.4801509433962263
"MDG","MG",2881.0,0.0,27936.0,"ambohijazafotsy",55164.0,46.882999,-19.908701,3,"","",1995.0,"","",47,3,"","",47,27,"","",47,5,"","",3,9080,0.06382978723404255,0.574468085106383,0.10638297872340426,0.6075561473545597
"MDG","MG",2872.0,0.0,27893.0,"ambohimahasoa","",47.5239459,-18.9041185,4,"","sentinel site",2015.0,7.0,10.0,96,0,0.0,0.0,96,4,0.0,0.0,96,2,0.0,0.0,1,26296,0.0,0.041666666666666664,0.020833333333333332,0.05814334381551362
"MDG","MG",2872.0,0.0,27893.0,"ambohimahasoa","",47.5239459,-18.9041185,4,"","sentinel site",2017.0,7.0,10.0,80,0,0.0,0.0,80,3,0.0,0.0,80,0,0.0,0.0,1,26297,0.0,0.0375,0.0,0.03537735849056603
"MDG","MG",2880.0,0.0,27931.0,"ambohimahavelona","",47.8264071,-15.6043461,3,"","sentinel site",2015.0,7.0,10.0,38,3,0.0,0.0,38,3,0.0,0.0,38,0,0.0,0.0,1,26350,0.07894736842105263,0.07894736842105263,0.0,0.14307740552971304
"MDG","MG",2880.0,0.0,27931.0,"ambohimahavelona","",47.8264071,-15.6043461,3,"","sentinel site",2017.0,7.0,10.0,36,0,0.0,0.0,36,0,0.0,0.0,36,0,0.0,0.0,1,26352,0.0,0.0,0.0,0.0
"MDG","MG",2872.0,0.0,27893.0,"ambohimalaza",104121.0,47.583333,-18.866667,1,"","",2015.0,10.0,0.0,50,0,"","",50,12,"","",50,0,"","",1,854,0.0,0.24,0.0,0.22641509433962262
"MDG","MG",2871.0,0.0,27888.0,"ambohimandamina",12880.0,46.35053667,-15.70619167,3,"","",2015.0,"","",50,0,"","",50,0,"","",50,1,"","",1,8907,0.0,0.0,0.02,0.018867924528301886
"MDG","MG","","",0.0,"ambohimanga","",48.399,-17.9,4,"","",1982.0,0.0,99.0,68,0,"","",68,56,"","",68,14,"","",3,29497,0.0,0.8235294117647058,0.20588235294117646,0.8111901808448129
"MDG","MG",2876.0,0.0,27909.0,"ambohimarina","",46.80319444,-18.84175,3,"","mapping",2015.0,10.0,13.0,50,0,0.0,0.0,50,3,0.0,0.0,50,1,0.0,0.0,1,26307,0.0,0.06,0.02,0.07433962264150942
"MDG","MG",2881.0,0.0,27946.0,"ambohimena",55214.0,46.368801,-19.589701,3,"","",1995.0,"","",184,7,"","",184,61,"","",184,8,"","",3,9105,0.03804347826086957,0.33152173913043476,0.043478260869565216,0.36312409765976944
"MDG","MG",2876.0,"",0.0,"ambohimena","",46.55,-19.3833,4,"","",1997.0,1.0,99.0,350,32,"","",350,94,"","",0,0,"","",3,30585,0.09142857142857143,0.26857142857142857,"",""
"MDG","MG",2882.0,0.0,0.0,"ambohimiera","",47.508,-21.064,4,"","",1990.0,1.0,10.0,157,22,"","",157,121,"","",157,46,"","",3,29174,0.14012738853503184,0.7707006369426752,0.2929936305732484,0.8118875443140938
"MDG","MG",2881.0,0.0,27936.0,"ambohimitombo",55165.0,46.718201,-19.9228,3,"","",1995.0,"","",19,0,"","",19,17,"","",19,5,"","",3,9053,0.0,0.8947368421052632,0.2631578947368421,0.8702242199341452
"MDG","MG",2871.0,0.0,27892.0,"ambohipaky",12960.0,44.971531,-16.4288409,1,"","",2015.0,"","",50,0,"","",50,0,"","",50,0,"","",1,8922,0.0,0.0,0.0,0.0
"MDG","MG",2872.0,0.0,27893.0,"ambohitromby",12867.0,46.316667,-17.966667,1,"","",2015.0,"","",50,2,"","",50,5,"","",50,0,"","",1,8926,0.04,0.1,0.0,0.12830188679245283
"MDG","MG",2881.0,0.0,27936.0,"ambohitsara",55166.0,46.58881,-20.201981,1,"","",1995.0,"","",73,1,"","",73,64,"","",73,3,"","",3,9052,0.0136986301369863,0.8767123287671232,0.0410958904109589,0.8333947282024488
"MDG","MG",2880.0,0.0,27928.0,"ambohitsara i","",48.3056649,-15.449147,3,"","sentinel site",2015.0,7.0,10.0,41,8,0.0,0.0,41,0,0.0,0.0,41,0,0.0,0.0,1,26336,0.1951219512195122,0.0,0.0,0.1840773124712379
"MDG","MG",2880.0,0.0,27928.0,"ambohitsara i","",48.3056649,-15.449147,3,"","sentinel site",2017.0,7.0,10.0,69,0,0.0,0.0,69,0,0.0,0.0,69,0,0.0,0.0,1,26337,0.0,0.0,0.0,0.0
"MDG","MG",2877.0,0.0,27914.0,"amboloando",12895.0,45.4863889,-17.1530556,1,"","",2015.0,"","",50,0,"","",50,0,"","",50,0,"","",1,8990,0.0,0.0,0.0,0.0
"MDG","MG",2863.0,0.0,27845.0,"ambolotarabe",12810.0,47.1666669,-17.883333,1,"","",2015.0,"","",43,0,"","",43,3,"","",43,0,"","",1,8807,0.0,0.06976744186046512,0.0,0.06581834137779727
"MDG","MG",2877.0,0.0,27912.0,"ambondro",104080.0,44.866667,-18.683333,1,"","",2015.0,10.0,0.0,50,12,"","",50,0,"","",50,0,"","",1,845,0.24,0.0,0.0,0.22641509433962262
"MDG","MG",2871.0,0.0,27887.0,"ambondromamy",104016.0,46.6347222,-16.6919444,1,"","",2015.0,10.0,0.0,48,0,"","",48,0,"","",48,2,"","",1,829,0.0,0.0,0.041666666666666664,0.03930817610062892
"MDG","MG",2871.0,0.0,27887.0,"ambondromamy",104021.0,46.6347222,-16.6919444,1,"","","","","",48,0,"","",48,0,"","",48,2,"","",3,826,0.0,0.0,0.041666666666666664,0.03930817610062892
"MDG","MG",2876.0,0.0,27909.0,"ambonirina",55228.0,46.655602,-18.886101,3,"","",1996.0,"","",151,18,"","",151,22,"","",151,16,"","",3,8966,0.11920529801324503,0.1456953642384106,0.10596026490066225,0.3087401936567108
"MDG","MG",2879.0,0.0,27924.0,"amboriala",104259.0,49.472992,-13.795758,3,"","",2015.0,10.0,0.0,50,0,"","",50,20,"","",50,7,"","",1,883,0.0,0.4,0.14,0.45660377358490567
"MDG","MG",2871.0,0.0,27888.0,"amborovy",12881.0,46.350833,-15.666389,2,"","",2015.0,"","",50,0,"","",50,1,"","",50,3,"","",1,8908,0.0,0.02,0.06,0.07433962264150942
"MDG","MG",2881.0,0.0,27936.0,"ampahibe",55167.0,46.676899,-19.6178,3,"","",1995.0,"","",24,0,"","",24,9,"","",24,0,"","",3,9079,0.0,0.375,0.0,0.35377358490566035
"MDG","MG",2877.0,0.0,27913.0,"ampako",12850.0,44.815632,-16.755051,1,"","",2015.0,"","",50,5,"","",50,0,"","",50,2,"","",1,8985,0.1,0.0,0.04,0.12830188679245283
"MDG","MG",2876.0,0.0,27910.0,"ampamaho","",46.6713576,-19.3003359,3,"","sentinel site",2015.0,7.0,10.0,96,0,0.0,0.0,96,3,0.0,0.0,96,2,0.0,0.0,1,26316,0.0,0.03125,0.020833333333333332,0.04852102987421383
"MDG","MG",2876.0,0.0,27910.0,"ampamaho","",46.6713576,-19.3003359,3,"","sentinel site",2017.0,7.0,10.0,80,0,0.0,0.0,80,1,0.0,0.0,80,0,0.0,0.0,1,26314,0.0,0.0125,0.0,0.011792452830188678
"MDG","MG",2871.0,0.0,27889.0,"ampampamena",12887.0,46.32562167,-15.72120333,3,"","",2015.0,"","",50,0,"","",50,0,"","",50,0,"","",1,8911,0.0,0.0,0.0,0.0
"MDG","MG",2869.0,0.0,27879.0,"ampampanambo",12890.0,48.48011,-19.531486,3,"","",2015.0,"","",50,19,"","",50,29,"","",50,47,"","",1,8870,0.38,0.58,0.94,0.9286566037735849
"MDG","MG",2867.0,0.0,27864.0,"ampandramitsetaky",12805.0,44.61647667,-22.14037333,3,"","",2015.0,"","",50,5,"","",0,0,"","",0,0,"","",1,8838,0.1,"","",""
"MDG","MG",2873.0,0.0,27899.0,"ampangoriana",104195.0,48.3402,-13.4405,3,"","",2015.0,10.0,0.0,50,0,"","",50,15,"","",50,3,"","",1,867,0.0,0.3,0.06,0.3226415094339622
"MDG","MG",2878.0,0.0,27916.0,"ampanihy","",44.6863635,-19.7338356,3,"","sentinel site",2017.0,7.0,10.0,81,0,0.0,0.0,81,0,0.0,0.0,81,0,0.0,0.0,1,26325,0.0,0.0,0.0,0.0
"MDG","MG",2878.0,0.0,27916.0,"ampanihy","",44.6863635,-19.7338356,3,"","sentinel site",2015.0,7.0,10.0,59,0,0.0,0.0,59,0,0.0,0.0,59,0,0.0,0.0,1,26324,0.0,0.0,0.0,0.0
"MDG","MG",2865.0,0.0,27856.0,"ampanolora",55150.0,45.998001,-25.066,3,"","",1998.0,"","",223,51,"","",223,13,"","",223,21,"","",3,8824,0.22869955156950672,0.05829596412556054,0.09417040358744394,0.32270064082380223
"MDG","MG",2863.0,0.0,27842.0,"ampanomahitsy",12781.0,47.43860833,-18.860345,3,"","",2015.0,"","",50,0,"","",50,28,"","",50,18,"","",1,8794,0.0,0.56,0.36,0.6777358490566038
"MDG","MG","","","","amparamanina","","","",99,"","",1982.0,0.0,99.0,301,7,"","",301,210,"","",301,19,"","",3,29501,0.023255813953488372,0.6976744186046512,0.06312292358803986,0.6824010511949701
"MDG","MG",2876.0,0.0,27910.0,"amparihivato",55234.0,46.689899,-19.072201,3,"","",1996.0,"","",181,16,"","",181,133,"","",181,42,"","",3,8968,0.08839779005524862,0.7348066298342542,0.23204419889502761,0.7682509649718292
"MDG","MG",2878.0,0.0,27917.0,"ampasibevihy","",44.64377778,-20.25838889,3,"","mapping",2014.0,6.0,14.0,50,2,0.0,0.0,50,0,0.0,0.0,50,0,0.0,0.0,1,26327,0.04,0.0,0.0,0.03773584905660377
"MDG","MG",2869.0,0.0,27877.0,"ampasimadinika",12823.0,48.533482,-19.910089,1,"","",2015.0,"","",50,4,"","",50,31,"","",50,32,"","",1,8863,0.08,0.62,0.64,0.8246641509433963
"MDG","MG",2864.0,0.0,27855.0,"ampasimazava",104254.0,49.1333333,-17.6666666,3,"","",2015.0,10.0,0.0,50,0,"","",50,12,"","",50,43,"","",1,881,0.0,0.24,0.86,0.8430188679245283
"MDG","MG",2869.0,0.0,27880.0,"ampasimbola",12921.0,47.9,-20.2666666,3,"","",2015.0,"","",50,22,"","",50,26,"","",50,33,"","",1,8875,0.44,0.52,0.66,0.857177358490566
"MDG","MG",2862.0,"",0.0,"ampasina village","",47.155,-20.5235,4,"","",2012.0,4.0,18.0,0,0,"","",410,72,"","",0,0,"","",1,29884,"",0.17560975609756097,"",""
"MDG","MG",2876.0,0.0,27910.0,"ampefindradama","",46.73577778,-19.04341667,3,"","mapping",2015.0,10.0,14.0,50,1,0.0,0.0,50,6,0.0,0.0,50,5,0.0,0.02,1,26317,0.02,0.12,0.1,0.21116981132075469
"MDG","MG",2876.0,0.0,27909.0,"ampefy","",46.73647222,-18.85475,3,"","mapping",2015.0,10.0,14.0,49,0,0.0,0.0,49,2,0.0,0.0,49,1,0.0,0.0,1,26308,0.0,0.04081632653061224,0.02040816326530612,0.056973116547350544
"MDG","MG",2879.0,0.0,27924.0,"ampisikina",104260.0,49.8,-12.9333332,3,"","",2015.0,10.0,0.0,50,16,"","",50,1,"","",50,8,"","",1,884,0.32,0.02,0.16,0.41530566037735844
"MDG","MG",2882.0,0.0,0.0,"ampitanvanana","",47.516,-21.233,4,"","",1990.0,1.0,10.0,38,5,"","",38,31,"","",38,8,"","",3,30593,0.13157894736842105,0.8157894736842105,0.21052631578947367,0.8242510184938118
"MDG","MG",2881.0,0.0,27936.0,"ampizarandrano",55168.0,46.7006,-19.7974,3,"","",1995.0,"","",36,1,"","",36,29,"","",36,1,"","",3,9083,0.027777777777777776,0.8055555555555556,0.027777777777777776,0.770007538111137
"MDG","MG",2879.0,0.0,27922.0,"ampohafana",104071.0,49.866667,-14.816667,1,"","",2015.0,10.0,0.0,50,2,"","",50,36,"","",50,45,"","",1,841,0.04,0.72,0.9,0.9180377358490566
"MDG","MG",2880.0,0.0,27931.0,"ampombibitika",104201.0,47.6307555,-15.6127056,1,"","",2015.0,10.0,0.0,50,3,"","",50,0,"","",50,0,"","",1,873,0.06,0.0,0.0,0.056603773584905655
"MDG","MG",2879.0,0.0,27924.0,"ampondra",55255.0,49.9687373,-13.4259845,1,"","",1998.0,"","",148,126,"","",148,74,"","",148,102,"","",3,9030,0.8513513513513513,0.5,0.6891891891891891,0.9216030155601801
"MDG","MG",2879.0,0.0,27921.0,"ampontsilahy",12792.0,49.59898167,-14.73145,3,"","",2015.0,"","",50,5,"","",49,23,"","",50,45,"","",1,9014,0.1,0.46938775510204084,0.9,0.8983442433577203
"MDG","MG",2871.0,0.0,27891.0,"analamamy",12925.0,45.87760667,-15.97203,3,"","",2015.0,"","",50,0,"","",50,0,"","",50,0,"","",1,8919,0.0,0.0,0.0,0.0
"MDG","MG",2876.0,0.0,27909.0,"analamanga",55230.0,46.7113,-18.897100000000002,3,"","",1996.0,"","",18,0,"","",18,3,"","",18,1,"","",3,8965,0.0,0.16666666666666666,0.05555555555555555,0.20090845562543674
"MDG","MG",2866.0,0.0,27861.0,"analamary",12860.0,47.22271,-24.24296,1,"","",2015.0,"","",50,1,"","",50,0,"","",50,2,"","",1,8834,0.02,0.0,0.04,0.055849056603773574
"MDG","MG",2867.0,0.0,27865.0,"analamena",104095.0,44.9,-23.4833329,1,"","",2015.0,10.0,0.0,50,0,"","",50,0,"","",50,0,"","",1,846,0.0,0.0,0.0,0.0
"MDG","MG",2878.0,0.0,27917.0,"analamitsivala","",44.69047222,-20.31897222,3,"","mapping",2014.0,10.0,14.0,50,2,0.0,0.0,50,0,0.0,0.0,50,0,0.0,0.0,1,26328,0.04,0.0,0.0,0.03773584905660377
"MDG","MG",2878.0,0.0,27917.0,"analamitsivalana",55208.0,44.7006138,-20.3446313,1,"","",1998.0,"","",169,23,"","",169,4,"","",169,8,"","",3,9002,0.13609467455621302,0.023668639053254437,0.047337278106508875,0.18534824270811956
"MDG","MG",2861.0,0.0,27837.0,"andaingo",12936.0,48.26935,-18.21729,3,"","",2015.0,"","",50,0,"","",50,19,"","",50,11,"","",1,8791,0.0,0.38,0.22,0.48716981132075465
"MDG","MG",2870.0,0.0,27884.0,"andasibe",12876.0,46.24398,-17.660311,1,"","",2015.0,"","",50,0,"","",50,0,"","",50,0,"","",1,8891,0.0,0.0,0.0,0.0
"MDG","MG",2872.0,0.0,27894.0,"andavabary",55249.0,46.314301,-19.194201,3,"","",1996.0,"","",132,96,"","",132,73,"","",132,4,"","",3,8931,0.7272727272727273,0.553030303030303,0.030303030303030304,0.8318803188598914
"MDG","MG","","","","andilana nord","","","",99,"","",1982.0,0.0,99.0,39,8,"","",39,29,"","",39,10,"","",3,29504,0.20512820512820512,0.7435897435897436,0.2564102564102564,0.8004212592802521
"MDG","MG",2878.0,0.0,27916.0,"andimaka",12835.0,44.6833333,-19.3999999,3,"","",2015.0,"","",50,1,"","",50,0,"","",50,0,"","",1,8998,0.02,0.0,0.0,0.018867924528301886
"MDG","MG",2881.0,0.0,27936.0,"andoharano",55169.0,46.930099,-19.9282,3,"","",1995.0,"","",46,1,"","",46,34,"","",46,3,"","",3,9056,0.021739130434782608,0.7391304347826086,0.06521739130434782,0.718344237661103
"MDG","MG",2877.0,0.0,27911.0,"andoharano",12770.0,45.233333,-16.95,1,"","",2015.0,"","",50,0,"","",50,0,"","",50,0,"","",1,8976,0.0,0.0,0.0,0.0
"MDG","MG",2867.0,0.0,27867.0,"andohasatra","",44.3492774,-23.662354,3,"","sentinel site",2017.0,7.0,10.0,80,1,0.0,0.0,80,0,0.0,0.0,80,2,0.0,0.0,1,26263,0.0125,0.0,0.025,0.03508254716981132
"MDG","MG",2867.0,0.0,27867.0,"andohasatra","",44.3492774,-23.662354,3,"","sentinel site",2015.0,7.0,10.0,87,0,0.0,0.0,87,0,0.0,0.0,87,1,0.0,0.0,1,26262,0.0,0.0,0.011494252873563218,0.010843634786380393
"MDG","MG",2880.0,0.0,27929.0,"andongona",104156.0,49.486931,-16.333281,1,"","",2015.0,10.0,0.0,50,0,"","",50,0,"","",50,0,"","",1,860,0.0,0.0,0.0,0.0
"MDG","MG",2879.0,0.0,27924.0,"andrafainona",104261.0,49.4666667,-13.7333332,3,"","",2015.0,10.0,0.0,50,0,"","",50,21,"","",50,7,"","",1,885,0.0,0.42,0.14,0.4728301886792453
"MDG","MG",2879.0,0.0,27923.0,"andrahanjo",12956.0,49.823139,-14.31808,1,"","",2015.0,"","",50,0,"","",50,34,"","",50,33,"","",1,9027,0.0,0.68,0.66,0.840754716981132
"MDG","MG",2877.0,0.0,27915.0,"andramy/antsingilo",12930.0,44.78228,-17.96669,1,"","",2015.0,"","",50,0,"","",50,0,"","",50,0,"","",1,8992,0.0,0.0,0.0,0.0
"MDG","MG",2863.0,0.0,27844.0,"andranomadio",12801.0,47.59281333,-18.38949333,3,"","",2015.0,"","",50,0,"","",50,8,"","",50,1,"","",1,8802,0.0,0.16,0.02,0.16679245283018865
"MDG","MG",2881.0,0.0,27946.0,"andranomainty",55215.0,46.227798,-19.598301,3,"","",1995.0,"","",68,16,"","",68,9,"","",68,2,"","",3,9117,0.23529411764705882,0.1323529411764706,0.029411764705882353,0.3358676825825976
"MDG","MG",2871.0,0.0,27887.0,"andranomamy",104017.0,47.1142882,-16.5349494,1,"","",2015.0,10.0,0.0,50,0,"","",50,0,"","",50,0,"","",1,830,0.0,0.0,0.0,0.0
"MDG","MG",2871.0,0.0,27887.0,"andranomamy",104022.0,47.1142882,-16.5349494,1,"","","","","",50,0,"","",50,0,"","",50,0,"","",3,827,0.0,0.0,0.0,0.0
"MDG","MG",2871.0,0.0,27892.0,"andranomavo",104216.0,45.5641193,-16.578819,1,"","",2015.0,10.0,0.0,50,0,"","",50,0,"","",50,1,"","",1,876,0.0,0.0,0.02,0.018867924528301886
"MDG","MG",2877.0,0.0,27911.0,"andranovorimpanjaka",12771.0,45.36067167,-17.80810167,3,"","",2015.0,"","",50,0,"","",50,0,"","",50,0,"","",1,8977,0.0,0.0,0.0,0.0
"MDG","MG",2880.0,0.0,27928.0,"andratamarina","",49.2582728,-14.9183972,3,"","sentinel site",2015.0,7.0,10.0,32,0,0.0,0.0,32,14,0.0,0.125,32,0,0.0,0.0,1,26338,0.0,0.4375,0.0,0.4127358490566037
"MDG","MG",2880.0,0.0,27928.0,"andratamarina","",49.2582728,-14.9183972,3,"","sentinel site",2017.0,7.0,10.0,63,0,0.0,0.0,63,20,0.0,0.1111,63,0,0.0,0.0,1,26339,0.0,0.31746031746031744,0.0,0.2994908655286013
"MDG","MG",2877.0,0.0,27914.0,"andrea",12896.0,44.120499,-17.872459,1,"","",2015.0,"","",50,0,"","",50,0,"","",50,0,"","",1,8989,0.0,0.0,0.0,0.0
"MDG","MG","","",0.0,"andreba","",48.5,-17.633,4,"","",1982.0,0.0,99.0,95,2,"","",95,72,"","",95,39,"","",3,29502,0.021052631578947368,0.7578947368421053,0.4105263157894737,0.8115941869517258
"MDG","MG",2870.0,0.0,27886.0,"androfia",12988.0,47.52747,-16.69679,3,"","",2015.0,"","",50,7,"","",50,1,"","",50,2,"","",1,8897,0.14,0.02,0.04,0.1801056603773585
"MDG","MG",2869.0,0.0,27879.0,"androhomanasa",12891.0,48.49875,-19.544848,3,"","",2015.0,"","",50,18,"","",50,38,"","",50,48,"","",1,8869,0.36,0.76,0.96,0.9376000000000001
"MDG","MG","","","","andromba","","","",99,"","",1982.0,0.0,99.0,96,4,"","",96,76,"","",96,19,"","",3,29500,0.041666666666666664,0.7916666666666666,0.19791666666666666,0.7923224853686234
"MDG","MG",2881.0,0.0,27936.0,"angodongodona",55170.0,46.751801,-19.6525,3,"","",1995.0,"","",33,0,"","",33,22,"","",33,0,"","",3,9071,0.0,0.6666666666666666,0.0,0.6289308176100628
"MDG","MG",2864.0,0.0,27855.0,"anjahambe",13000.0,49.131621,-17.3850764,1,"","",2015.0,"","",50,6,"","",50,22,"","",50,40,"","",1,8819,0.12,0.44,0.8,0.8504150943396224
"MDG","MG",2866.0,0.0,27860.0,"anjamahavelo",12776.0,46.12425,-24.55402,3,"","",2015.0,"","",50,0,"","",50,2,"","",50,5,"","",1,8827,0.0,0.04,0.1,0.12830188679245283
"MDG","MG",2881.0,0.0,27936.0,"anjanamasy",12855.0,46.896745,-19.866983,3,"","",2015.0,"","",50,0,"","",50,9,"","",50,0,"","",1,9059,0.0,0.18,0.0,0.16981132075471694
"MDG","MG",2881.0,0.0,27936.0,"anjazafotsy",12856.0,46.8168086,-19.8250378,1,"","",2015.0,"","",50,0,"","",50,3,"","",50,3,"","",1,9055,0.0,0.06,0.06,0.10981132075471696
"MDG","MG",2880.0,0.0,27929.0,"anjiabe",104157.0,47.75,-15.9166666,3,"","",2015.0,10.0,0.0,50,0,"","",50,0,"","",50,0,"","",1,861,0.0,0.0,0.0,0.0
"MDG","MG",2881.0,0.0,27946.0,"ankadimafana",55216.0,46.443802,-19.5259,3,"","",1995.0,"","",142,19,"","",142,59,"","",142,17,"","",3,9122,0.13380281690140844,0.4154929577464789,0.11971830985915492,0.5229385185512809
"MDG","MG",2872.0,0.0,27894.0,"ankadinondrikely",55250.0,46.458099,-18.9874,3,"","",1996.0,"","",85,18,"","",85,17,"","",85,9,"","",3,8934,0.21176470588235294,0.2,0.10588235294117647,0.41149050075079974
"MDG","MG",2881.0,0.0,27936.0,"ankadivato",55171.0,47.5355217,-18.910148,1,"","",1995.0,"","",9,0,"","",9,7,"","",9,0,"","",3,9092,0.0,0.7777777777777778,0.0,0.7337526205450733
"MDG","MG",2877.0,0.0,27915.0,"ankalalo",12931.0,45.016667,-18.183333,1,"","",2015.0,"","",50,0,"","",50,0,"","",50,0,"","",1,8993,0.0,0.0,0.0,0.0
"MDG","MG",2881.0,0.0,27936.0,"ankaraha",55172.0,46.8293,-19.7787,3,"","",1995.0,"","",38,0,"","",38,22,"","",38,4,"","",3,9086,0.0,0.5789473684210527,0.10526315789473684,0.5879893377933413
"MDG","MG",2880.0,0.0,27925.0,"ankaramibe",104042.0,48.1784306,-13.9758983,1,"","",2015.0,10.0,0.0,50,9,"","",50,7,"","",50,1,"","",1,833,0.18,0.14,0.02,0.29141886792452826
"MDG","MG",2873.0,0.0,27896.0,"ankaramy",55141.0,49.661251,-12.86829,1,"","",1998.0,"","",143,46,"","",143,5,"","",143,11,"","",3,8941,0.32167832167832167,0.03496503496503497,0.07692307692307693,0.3733490823324066
"MDG","MG",2867.0,0.0,27864.0,"ankazoabo",12806.0,45.20956,-21.503481,1,"","",2015.0,"","",46,0,"","",50,0,"","",12,0,"","",1,8837,0.0,0.0,0.0,0.0
"MDG","MG",2864.0,0.0,27855.0,"ankazomianko",13001.0,49.194,-17.46608,3,"","",2015.0,"","",50,5,"","",50,15,"","",50,47,"","",1,8821,0.1,0.3,0.94,0.9077358490566038
"MDG","MG",2881.0,0.0,27936.0,"ankelaka",55173.0,46.596699,-19.8283,3,"","",1995.0,"","",160,5,"","",160,94,"","",160,2,"","",3,9090,0.03125,0.5875,0.0125,0.5711186247051886
"MDG","MG",2867.0,0.0,27863.0,"ankelelahy","","","",99,"","",2015.0,7.0,10.0,39,0,0.0,0.0,39,0,0.0,0.0,39,0,0.0,0.0,1,26250,0.0,0.0,0.0,0.0
"MDG","MG",2867.0,0.0,27870.0,"anketa",104233.0,43.6687122,-23.3408293,1,"","",2015.0,9.0,0.0,50,0,"","",50,10,"","",50,12,"","",1,880,0.0,0.2,0.24,0.36981132075471695
"MDG","MG",2880.0,0.0,27928.0,"ankiakabe","",49.1003052,-15.0493178,3,"","sentinel site",2017.0,7.0,10.0,34,1,0.0,0.0,34,16,0.0,0.0,34,0,0.0,0.0,1,26341,0.029411764705882353,0.47058823529411764,0.0,0.4586407259907292
"MDG","MG",2880.0,0.0,27928.0,"ankiakabe","",49.1003052,-15.0493178,3,"","sentinel site",2015.0,7.0,10.0,39,0,0.0,0.0,39,9,0.0,0.0,39,1,0.0,0.0,1,26340,0.0,0.23076923076923078,0.02564102564102564,0.23631424211975738
"MDG","MG",2878.0,0.0,27918.0,"ankiliabo",12915.0,43.88979,-21.7181609,1,"","",2015.0,"","",21,0,"","",21,1,"","",21,0,"","",1,9009,0.0,0.047619047619047616,0.0,0.0449236298292902
"MDG","MG",2867.0,0.0,27871.0,"ankililaoka",12983.0,43.6171333,-22.7684039,1,"","",2015.0,"","",50,2,"","",50,6,"","",50,4,"","",1,8859,0.04,0.12,0.08,0.21017358490566038
"MDG","MG",2867.0,0.0,27864.0,"ankilimaro",55154.0,45.083333,-22.1,1,"","",1998.0,"","",74,29,"","",74,1,"","",74,4,"","",3,8835,0.3918918918918919,0.013513513513513514,0.05405405405405406,0.4080529045384262
"MDG","MG",2867.0,0.0,27865.0,"ankilimary",104096.0,45.05,-23.616667,1,"","",2015.0,10.0,0.0,50,0,"","",50,0,"","",50,1,"","",1,847,0.0,0.0,0.02,0.018867924528301886
"MDG","MG","","",0.0,"ankilivalo","",44.632,-20.282,4,"","",1987.0,5.0,18.0,413,17,"","",413,70,"","",413,54,"","",3,29165,0.04116222760290557,0.1694915254237288,0.13075060532687652,0.29037434427487807
"MDG","MG",2878.0,0.0,27916.0,"ankirondro",12836.0,44.59624333,-19.64520333,3,"","",2015.0,"","",50,2,"","",50,1,"","",50,0,"","",1,9000,0.04,0.02,0.0,0.055849056603773574
"MDG","MG",2877.0,0.0,27914.0,"ankisatra",12897.0,44.14740833,-18.22939667,3,"","",2015.0,"","",50,3,"","",50,0,"","",50,0,"","",1,8991,0.06,0.0,0.0,0.056603773584905655
"MDG","MG",2864.0,0.0,27853.0,"ankobahoba",12952.0,49.9027,-16.94749833,3,"","",2015.0,"","",50,17,"","",50,32,"","",50,43,"","",1,8812,0.34,0.64,0.86,0.9120150943396226
"MDG","MG",2871.0,0.0,27890.0,"ankorefobe","",46.769,-16.11094444,3,"","mapping",2014.0,10.0,14.0,50,0,0.0,0.0,50,0,0.0,0.0,50,0,0.0,0.0,1,26290,0.0,0.0,0.0,0.0
"MDG","MG",2880.0,0.0,27928.0,"anoalakely","",49.2871971,-14.9147686,3,"","sentinel site",2017.0,7.0,10.0,50,1,0.0,0.02,50,38,0.0,0.2,50,8,0.0,0.02,1,26343,0.02,0.76,0.16,0.7570113207547169
"MDG","MG",2880.0,0.0,27928.0,"anoalakely","",49.2871971,-14.9147686,3,"","sentinel site",2015.0,7.0,10.0,40,0,0.0,0.0,40,9,0.0,0.15,40,1,0.0,0.0,1,26342,0.0,0.225,0.025,0.23054245283018868
"MDG","MG",2878.0,0.0,27918.0,"anontsibe",104171.0,44.4686809,-21.382259,1,"","",2015.0,6.0,0.0,50,0,"","",50,2,"","",50,0,"","",1,864,0.0,0.04,0.0,0.03773584905660377
"MDG","MG","","",0.0,"anororo","",48.429,-17.515,4,"","",1982.0,0.0,99.0,364,3,"","",364,264,"","",364,56,"","",3,29506,0.008241758241758242,0.7252747252747253,0.15384615384615385,0.7259019151154591
"MDG","MG",2872.0,0.0,27894.0,"anosibe","",44.8410158,-16.6644431,4,"","mapping",2015.0,9.0,13.0,50,0,0.0,0.0,50,0,0.0,0.0,50,0,0.0,0.0,1,26302,0.0,0.0,0.0,0.0
"MDG","MG",2877.0,0.0,27913.0,"anosibe","",44.8410158,-16.6644431,3,"","sentinel site",2017.0,7.0,10.0,68,0,0.0,0.0,68,0,0.0,0.0,68,0,0.0,0.0,1,26323,0.0,0.0,0.0,0.0
"MDG","MG",2869.0,0.0,27883.0,"anosimanasana",12994.0,48.97791,-19.3308141,1,"","",2015.0,"","",50,3,"","",50,27,"","",50,45,"","",1,8887,0.06,0.54,0.9,0.9026037735849056
"MDG","MG",2876.0,0.0,27909.0,"antambiazina","",46.8295135,-18.8144549,3,"","sentinel site",2017.0,7.0,10.0,43,1,0.0,0.0,43,11,0.0,0.0,43,0,0.0,0.0,1,26310,0.023255813953488372,0.2558139534883721,0.0,0.2576609488045552
"MDG","MG",2876.0,0.0,27909.0,"antambiazina","",46.8295135,-18.8144549,3,"","sentinel site",2015.0,7.0,10.0,77,0,0.0,0.0,77,0,0.0,0.0,77,1,0.0,0.0,1,26309,0.0,0.0,0.012987012987012988,0.012251899044351875
"MDG","MG",2881.0,0.0,27946.0,"antampondravola",55217.0,46.539101,-19.5257,3,"","",1995.0,"","",11,0,"","",11,3,"","",11,1,"","",3,9115,0.0,0.2727272727272727,0.09090909090909091,0.3196631841571807
"MDG","MG",2877.0,0.0,27913.0,"antanambao",12851.0,44.4791667,-16.3213889,2,"","",2015.0,"","",50,8,"","",50,1,"","",50,0,"","",1,8987,0.16,0.02,0.0,0.16679245283018865
"MDG","MG",2869.0,0.0,27877.0,"antanambao manampotsy",12824.0,48.570862,-19.48768,1,"","",2015.0,"","",50,1,"","",50,22,"","",50,22,"","",1,8864,0.02,0.44,0.44,0.6534641509433962
"MDG","MG",2881.0,0.0,27946.0,"antanambao manerinerina",12906.0,46.38226,-19.571005,3,"","",2015.0,"","",50,2,"","",50,0,"","",50,0,"","",1,9107,0.04,0.0,0.0,0.03773584905660377
"MDG","MG",2880.0,0.0,27929.0,"antanandava",104158.0,47.40274,-16.141991,1,"","",2015.0,10.0,0.0,50,0,"","",50,0,"","",50,0,"","",1,862,0.0,0.0,0.0,0.0
"MDG","MG",2876.0,0.0,27909.0,"antanetibe","",46.40130556,-18.83733333,4,"","mapping",2015.0,10.0,14.0,47,5,0.0,0.0,47,3,0.0,0.0,47,0,0.0,0.0,1,26311,0.10638297872340426,0.06382978723404255,0.0,0.15417204062283796
"MDG","MG",2863.0,0.0,27842.0,"antanetibe",12782.0,47.3591,-18.687005,3,"","",2015.0,"","",50,0,"","",50,0,"","",50,0,"","",1,8798,0.0,0.0,0.0,0.0
"MDG","MG",2881.0,0.0,27946.0,"antanetikely",12907.0,46.859556,-19.47413095,3,"","",2015.0,"","",50,2,"","",50,0,"","",50,0,"","",1,9110,0.04,0.0,0.0,0.03773584905660377
"MDG","MG",2876.0,0.0,27908.0,"antanetikely",12832.0,47.18333,-19.0098182,1,"","",2015.0,"","",50,0,"","",50,15,"","",50,3,"","",1,8963,0.0,0.3,0.06,0.3226415094339622
"MDG","MG",2862.0,0.0,27838.0,"antanetimboahangy",55136.0,46.902699,-20.193701,4,"","",1995.0,"","",163,1,"","",163,42,"","",163,5,"","",3,8792,0.006134969325153374,0.25766871165644173,0.03067484662576687,0.2687302745204648
"MDG","MG",2876.0,0.0,27908.0,"antanety i",12833.0,47.40001,-18.938336669999998,3,"","",2015.0,"","",50,0,"","",50,30,"","",50,22,"","",1,8959,0.0,0.6,0.44,0.7320754716981132
"MDG","MG",2864.0,0.0,27854.0,"antanifotsy",12965.0,49.62780333,-16.86749,3,"","",2015.0,"","",50,5,"","",50,22,"","",50,35,"","",1,8818,0.1,0.44,0.7,0.800754716981132
"MDG","MG",2880.0,0.0,27928.0,"antanilojy","",48.9263746,-15.1357608,3,"","sentinel site",2017.0,7.0,10.0,80,0,0.0,0.0,80,4,0.0,0.0,80,0,0.0,0.0,1,26345,0.0,0.05,0.0,0.04716981132075471
"MDG","MG",2880.0,0.0,27928.0,"antanilojy","",48.9263746,-15.1357608,3,"","sentinel site",2015.0,7.0,10.0,57,0,0.0,0.0,57,0,0.0,0.0,57,0,0.0,0.0,1,26344,0.0,0.0,0.0,0.0
"MDG","MG",2871.0,0.0,27888.0,"antanimalandy",12882.0,47.316667,-16.25,1,"","",2015.0,"","",50,0,"","",50,0,"","",50,3,"","",1,8905,0.0,0.0,0.06,0.056603773584905655
"MDG","MG",2879.0,0.0,27921.0,"antanimbaribe",104048.0,47.7,-17.566667,1,"","",2015.0,10.0,0.0,50,2,"","",50,36,"","",50,42,"","",1,837,0.04,0.72,0.84,0.902822641509434
"MDG","MG",2880.0,0.0,27930.0,"antanjano",12911.0,48.89058667,-15.85981333,3,"","",2015.0,"","",50,0,"","",50,1,"","",50,0,"","",1,9044,0.0,0.02,0.0,0.018867924528301886
"MDG","MG",2867.0,0.0,27871.0,"antapoake","",43.5858113,-22.9634811,3,"","sentinel site",2017.0,7.0,10.0,53,4,0.0,0.0,53,0,0.0,0.0,53,1,0.0,0.0,1,26286,0.07547169811320754,0.0,0.018867924528301886,0.0876562531485723
"MDG","MG",2867.0,0.0,27871.0,"antapoake","",43.5858113,-22.9634811,3,"","sentinel site",2015.0,7.0,10.0,64,2,0.0,0.0,64,0,0.0,0.0,64,1,0.0,0.0,1,26285,0.03125,0.0,0.015625,0.043761055424528295
"MDG","MG",2869.0,0.0,27882.0,"antetezambaro/hotsika",12976.0,49.35515833,-18.040135,3,"","",2015.0,"","",150,69,"","",150,114,"","",150,142,"","",1,8882,0.46,0.76,0.9466666666666667,0.9368754716981129
"MDG","MG",2881.0,0.0,27936.0,"antokofoana",12857.0,46.77172,-19.804863,3,"","",2015.0,"","",50,0,"","",50,13,"","",50,2,"","",1,9069,0.0,0.26,0.04,0.27320754716981127
"MDG","MG",2871.0,0.0,27891.0,"antongomena",12926.0,45.7011878,-16.1382541,1,"","",2015.0,"","",50,0,"","",50,0,"","",50,0,"","",1,8915,0.0,0.0,0.0,0.0
"MDG","MG",2881.0,0.0,27946.0,"antsahalava",55218.0,47.478909,-19.59037,1,"","",1995.0,"","",58,1,"","",58,23,"","",58,1,"","",3,9116,0.017241379310344827,0.39655172413793105,0.017241379310344827,0.39356688794902117
"MDG","MG",2879.0,0.0,27922.0,"antsahanandriana",104072.0,50.2,-14.9833332,3,"","",2015.0,10.0,0.0,50,0,"","",50,24,"","",50,44,"","",1,842,0.0,0.48,0.88,0.8845283018867922
"MDG","MG",2876.0,0.0,27909.0,"antsahavory","",46.89977778,-19.04238889,3,"","mapping",2015.0,10.0,14.0,50,0,0.0,0.0,50,1,0.0,0.0,50,2,0.0,0.0,1,26312,0.0,0.02,0.04,0.055849056603773574
"MDG","MG",2873.0,0.0,27895.0,"antsakoamanondro",55135.0,48.5021337,-13.6122999,3,"","",1998.0,"","",180,126,"","",180,67,"","",180,79,"","",3,8939,0.7,0.37222222222222223,0.4388888888888889,0.8437019566736547
"MDG","MG",2873.0,0.0,27895.0,"antsakoamanondro",104010.0,48.5021337,-13.6122999,3,"","",2015.0,10.0,0.0,50,5,"","",50,3,"","",50,1,"","",1,820,0.1,0.06,0.02,0.1612452830188679
"MDG","MG",2879.0,0.0,27923.0,"antsampanamahazo",12957.0,50.02189833,-14.186765,3,"","",2015.0,"","",50,0,"","",50,40,"","",50,46,"","",1,9024,0.0,0.8,0.92,0.9283018867924528
"MDG","MG",2877.0,0.0,27915.0,"antsingilo",12932.0,44.61052667,-18.00144833,3,"","",2015.0,"","",50,0,"","",50,0,"","",50,0,"","",1,8995,0.0,0.0,0.0,0.0
"MDG","MG",2879.0,0.0,27923.0,"antsirabe",12958.0,47.0291162,-19.8730077,1,"","",2015.0,"","",50,0,"","",50,38,"","",50,43,"","",1,9025,0.0,0.76,0.86,0.9116981132075472
"MDG","MG",2879.0,0.0,27924.0,"antsirabe nord",13007.0,49.4666667,-13.7666666,3,"","",2015.0,"","",50,1,"","",50,38,"","",50,42,"","",1,9032,0.02,0.76,0.84,0.9078943396226415
"MDG","MG",2880.0,0.0,27930.0,"antsiradrano","",48.6690304,-15.4784962,3,"","sentinel site",2017.0,7.0,10.0,23,0,0.0,0.0,23,0,0.0,0.0,23,0,0.0,0.0,1,26349,0.0,0.0,0.0,0.0
"MDG","MG",2880.0,0.0,27930.0,"antsiradrano","",48.6690304,-15.4784962,3,"","sentinel site",2015.0,7.0,10.0,43,0,0.0,0.0,43,0,0.0,0.0,43,0,0.0,0.0,1,26348,0.0,0.0,0.0,0.0
"MDG","MG",2878.0,0.0,27916.0,"antsiraraka",12837.0,44.85127167,-19.80563,3,"","",2015.0,"","",50,0,"","",50,0,"","",50,0,"","",1,8999,0.0,0.0,0.0,0.0
"MDG","MG",2881.0,0.0,27936.0,"antsongondrano",55174.0,46.854698,-19.8211,3,"","",1995.0,"","",95,3,"","",95,64,"","",95,18,"","",3,9078,0.031578947368421054,0.6736842105263158,0.18947368421052632,0.7017591540655852
"MDG","MG",2861.0,0.0,27837.0,"beforona",12937.0,48.5775211,-18.9694762,1,"","",2015.0,"","",50,0,"","",50,32,"","",50,43,"","",1,8788,0.0,0.64,0.86,0.8958490566037735
"MDG","MG",2866.0,0.0,27860.0,"behara",12777.0,46.385929,-24.95347,1,"","",2015.0,"","",50,2,"","",50,8,"","",50,4,"","",1,8825,0.04,0.16,0.08,0.24350188679245277
"MDG","MG",2878.0,0.0,27918.0,"beharona",12917.0,44.3035453,-21.5232457,1,"","",2015.0,"","",50,0,"","",50,1,"","",50,0,"","",1,9010,0.0,0.02,0.0,0.018867924528301886
"MDG","MG",2870.0,0.0,27884.0,"behazomaty",12877.0,46.33348667,-17.37307833,3,"","",2015.0,"","",50,1,"","",50,1,"","",50,0,"","",1,8893,0.02,0.02,0.0,0.03735849056603773
"MDG","MG",2877.0,0.0,27913.0,"bejofo",12852.0,44.516667,-16.8,1,"","",2015.0,"","",50,6,"","",50,1,"","",50,1,"","",1,8986,0.12,0.02,0.02,0.14608301886792452
"MDG","MG",2870.0,0.0,27886.0,"bekapaika",12989.0,47.615307,-16.714728,3,"","",2015.0,"","",50,6,"","",50,1,"","",50,2,"","",1,8896,0.12,0.02,0.04,0.16235471698113202
"MDG","MG",2871.0,0.0,27889.0,"bekobay",12888.0,46.92958833,-15.818495,3,"","",2015.0,"","",50,0,"","",50,0,"","",50,2,"","",1,8910,0.0,0.0,0.04,0.03773584905660377
"MDG","MG",2877.0,0.0,27912.0,"bekopaka",12826.0,44.792141,-19.14677,1,"","",2015.0,"","",50,17,"","",50,3,"","",50,0,"","",1,8982,0.34,0.06,0.0,0.3581132075471698
"MDG","MG",2871.0,0.0,27892.0,"belafika",104217.0,0.0,"",99,"","",2015.0,10.0,0.0,50,1,"","",50,0,"","",50,1,"","",1,877,0.02,0.0,0.02,0.03735849056603773
"MDG","MG",2877.0,0.0,27911.0,"belalanda",12772.0,45.82063,-17.551805,3,"","",2015.0,"","",50,0,"","",50,1,"","",50,0,"","",1,8975,0.0,0.02,0.0,0.018867924528301886
"MDG","MG",2881.0,0.0,27946.0,"belanitra",55219.0,46.439899,-19.609699,3,"","",1995.0,"","",128,28,"","",128,68,"","",128,3,"","",3,9121,0.21875,0.53125,0.0234375,0.6060114446676002
"MDG","MG",2861.0,0.0,27837.0,"belavabary",12938.0,48.02373,-18.82635,3,"","",2015.0,"","",50,7,"","",50,10,"","",50,20,"","",1,8789,0.14,0.2,0.4,0.5539622641509435
"MDG","MG",2871.0,0.0,27888.0,"belinta",12883.0,46.33877833,-15.64957667,3,"","",2015.0,"","",50,0,"","",50,1,"","",50,2,"","",1,8906,0.0,0.02,0.04,0.055849056603773574
"MDG","MG",2873.0,0.0,27895.0,"bemangaoka",104011.0,0.0,"",99,"","",2015.0,10.0,0.0,50,1,"","",50,5,"","",50,26,"","",1,821,0.02,0.1,0.52,0.5439999999999999
"MDG","MG",2878.0,0.0,27920.0,"bemanongo",55232.0,44.349998,-20.2833,3,"","",1998.0,"","",44,1,"","",44,2,"","",44,4,"","",3,9012,0.022727272727272728,0.045454545454545456,0.09090909090909091,0.14335228158711705
"MDG","MG",2878.0,0.0,27916.0,"bemarivokely",12838.0,44.54966167,-19.70185833,3,"","",2015.0,"","",50,0,"","",50,0,"","",50,0,"","",1,8997,0.0,0.0,0.0,0.0
"MDG","MG",2881.0,0.0,27936.0,"bemasoandro",55175.0,47.315231,-19.86834,1,"","",1995.0,"","",47,0,"","",47,42,"","",47,5,"","",3,9062,0.0,0.8936170212765957,0.10638297872340426,0.8537116598477924
"MDG","MG",2867.0,0.0,27864.0,"bemenara",55155.0,44.516701,-22.016701,3,"","",1998.0,"","",111,3,"","",111,6,"","",111,16,"","",3,8836,0.02702702702702703,0.05405405405405406,0.14414414414414414,0.20027124992876055
"MDG","MG",2880.0,0.0,27931.0,"bemenevika",104202.0,0.0,"",99,"","",2015.0,10.0,0.0,50,0,"","",50,0,"","",50,1,"","",1,874,0.0,0.0,0.02,0.018867924528301886
"MDG","MG",2879.0,0.0,27923.0,"benavony",12959.0,48.3,-20.466667,1,"","",2015.0,"","",50,0,"","",50,31,"","",50,28,"","",1,9023,0.0,0.62,0.56,0.7856603773584907
"MDG","MG",2867.0,0.0,27865.0,"benenitra",104097.0,45.0806619,-23.4541,1,"","",2015.0,10.0,0.0,50,0,"","",50,0,"","",50,1,"","",1,848,0.0,0.0,0.02,0.018867924528301886
"MDG","MG",2877.0,0.0,27915.0,"beravina",12933.0,45.2196725,-18.179487,1,"","",2015.0,"","",50,1,"","",50,3,"","",50,0,"","",1,8994,0.02,0.06,0.0,0.07433962264150942
"MDG","MG",2867.0,0.0,27865.0,"berevo","",45.1226702,-23.4248407,3,"","sentinel site",2017.0,7.0,10.0,46,0,0.0,0.0,46,0,0.0,0.0,46,0,0.0,0.0,1,26258,0.0,0.0,0.0,0.0
"MDG","MG",2867.0,0.0,27865.0,"berevo bekily","",45.1226702,-23.4248407,3,"","sentinel site",2015.0,7.0,10.0,29,0,0.0,0.0,29,0,0.0,0.0,29,0,0.0,0.0,1,26259,0.0,0.0,0.0,0.0
"MDG","MG",2867.0,0.0,27866.0,"beroroha est",104100.0,45.1658261,-21.680817,1,"","",2015.0,10.0,0.0,50,3,"","",50,35,"","",50,8,"","",1,850,0.06,0.7,0.16,0.7199245283018866
"MDG","MG",2867.0,0.0,27866.0,"beroroha ville",104101.0,45.1658261,-21.680817,1,"","",2015.0,10.0,0.0,50,2,"","",50,36,"","",50,5,"","",1,851,0.04,0.72,0.1,0.7151698113207546
"MDG","MG",2867.0,0.0,27870.0,"besakoa",12979.0,43.67485167,-23.35310333,3,"","",2015.0,"","",50,0,"","",50,34,"","",50,32,"","",1,8851,0.0,0.68,0.64,0.8347169811320754
"MDG","MG",2877.0,0.0,27913.0,"besalampy",12853.0,44.4865897,-16.7452924,1,"","",2015.0,"","",50,9,"","",50,0,"","",50,0,"","",1,8983,0.18,0.0,0.0,0.16981132075471694
"MDG","MG",2863.0,0.0,27844.0,"besorindrana",12802.0,47.907829,-18.049089,1,"","",2015.0,"","",50,1,"","",50,12,"","",50,2,"","",1,8803,0.02,0.24,0.04,0.2688603773584905
"MDG","MG",2880.0,0.0,27931.0,"bessika",104203.0,0.0,"",99,"","",2015.0,10.0,0.0,50,15,"","",50,0,"","",50,0,"","",1,875,0.3,0.0,0.0,0.28301886792452824
"MDG","MG",2881.0,0.0,27936.0,"betafo ville",12858.0,46.8567756,-19.8381858,1,"","",2015.0,"","",50,0,"","",50,19,"","",50,9,"","",1,9082,0.0,0.38,0.18,0.46377358490566034
"MDG","MG",2867.0,0.0,27871.0,"betaola",12984.0,44.274005,-23.13803,3,"","",2015.0,"","",43,0,"","",43,3,"","",43,4,"","",1,8860,0.0,0.06976744186046512,0.09302325581395349,0.14745349347429001
"MDG","MG",2870.0,0.0,27884.0,"betemboay",12878.0,46.12908,-17.767995,3,"","",2015.0,"","",50,0,"","",50,0,"","",50,1,"","",1,8890,0.0,0.0,0.02,0.018867924528301886
"MDG","MG",2873.0,0.0,27896.0,"betsiaka",55142.0,49.2372675,-13.1581959,1,"","",1998.0,"","",171,74,"","",171,15,"","",171,34,"","",3,8942,0.4327485380116959,0.08771929824561403,0.19883040935672514,0.552264807632665
"MDG","MG",2882.0,0.0,0.0,"bevoahazo","",47.483,-21.199,4,"","",1990.0,1.0,10.0,60,12,"","",60,53,"","",60,29,"","",3,30586,0.2,0.8833333333333333,0.48333333333333334,0.8979035639412997
"MDG","MG",2872.0,0.0,27894.0,"bezavona","",46.2349334,-19.1399588,3,"","sentinel site",2015.0,7.0,10.0,96,0,0.0,0.0,96,5,0.0,0.0,96,0,0.0,0.0,1,26303,0.0,0.052083333333333336,0.0,0.04913522012578616
"MDG","MG",2872.0,0.0,27894.0,"bezavona","",46.2349334,-19.1399588,3,"","sentinel site",2017.0,7.0,10.0,22,0,0.0,0.0,22,0,0.0,0.0,22,0,0.0,0.0,1,26304,0.0,0.0,0.0,0.0
"MDG","MG",2863.0,0.0,27844.0,"bongatsara",12803.0,46.966667,-19.4833329,1,"","",2015.0,"","",50,0,"","",50,9,"","",50,0,"","",1,8801,0.0,0.18,0.0,0.16981132075471694
"MDG","MG",2872.0,0.0,27894.0,"borikely","",45.87275,-18.50861111,3,"","mapping",2015.0,10.0,14.0,50,0,0.0,0.0,50,2,0.0,0.0,50,0,0.0,0.0,1,26305,0.0,0.04,0.0,0.03773584905660377
"MDG","MG",2877.0,0.0,27911.0,"bory",12773.0,45.67645,-17.75023833,3,"","",2015.0,"","",50,0,"","",50,0,"","",50,0,"","",1,8973,0.0,0.0,0.0,0.0
"MDG","MG",2873.0,0.0,27895.0,"djangoa",104012.0,48.3892554,-13.9123078,2,"","",2015.0,10.0,0.0,50,5,"","",50,1,"","",50,0,"","",1,822,0.1,0.02,0.0,0.11132075471698112
"MDG","MG",2877.0,0.0,27911.0,"doany",12774.0,45.65,-17.633333,1,"","",2015.0,"","",50,0,"","",50,0,"","",50,0,"","",1,8974,0.0,0.0,0.0,0.0
"MDG","MG",2873.0,0.0,27899.0,"dzamandzar",104196.0,48.19838,-13.35481,1,"","",2015.0,11.0,0.0,50,0,"","",50,2,"","",50,17,"","",1,868,0.0,0.04,0.34,0.34566037735849053
"MDG","MG",2870.0,0.0,27884.0,"ecole 4",104134.0,0.0,"",99,"","",2015.0,9.0,0.0,50,0,"","",50,0,"","",50,0,"","",1,856,0.0,0.0,0.0,0.0
"MDG","MG",2867.0,0.0,27865.0,"ehara",12843.0,44.8341739,-23.4834377,1,"","",2015.0,"","",50,0,"","",50,0,"","",50,0,"","",1,8845,0.0,0.0,0.0,0.0
"MDG","MG",2867.0,0.0,27868.0,"epp adabomaliniky","",43.71302778,-22.25258333,3,"","mapping",2015.0,10.0,14.0,50,0,0.0,0.0,50,0,0.0,0.0,50,0,0.0,0.0,1,26271,0.0,0.0,0.0,0.0
"MDG","MG",2869.0,0.0,27879.0,"epp ambalamangahazo",12892.0,48.483334,-19.541207,3,"","",2015.0,"","",50,23,"","",50,28,"","",50,46,"","",1,8868,0.46,0.56,0.92,0.925464150943396
"MDG","MG",2881.0,0.0,27946.0,"epp ambatakazo/epp morafeno ouest",12908.0,45.83005833,-19.62417333,3,"","",2015.0,"","",50,2,"","",50,2,"","",50,0,"","",1,9112,0.04,0.04,0.0,0.07396226415094338
"MDG","MG",2873.0,0.0,27899.0,"epp ambatozavavy",104197.0,48.3159131,-13.3672288,1,"","",2015.0,10.0,0.0,50,0,"","",50,4,"","",50,13,"","",1,869,0.0,0.08,0.26,0.3011320754716981
"MDG","MG",2878.0,0.0,27920.0,"epp ampihamy","",44.509,-20.50811111,3,"","mapping",2015.0,10.0,14.0,50,15,0.0,0.0,50,0,0.0,0.0,50,0,0.0,0.0,1,26331,0.3,0.0,0.0,0.28301886792452824
"MDG","MG",2867.0,0.0,27863.0,"epp andranomamy","",44.74388889,-24.69380556,3,"","mapping",2015.0,7.0,14.0,50,0,0.0,0.0,50,7,0.0,0.0,50,0,0.0,0.0,1,26251,0.0,0.14,0.0,0.1320754716981132
"MDG","MG",2867.0,0.0,27868.0,"epp ankadatse","",43.72277778,-22.20777778,3,"","mapping",2015.0,10.0,14.0,50,0,0.0,0.0,50,0,0.0,0.0,50,0,0.0,0.0,1,26272,0.0,0.0,0.0,0.0
"MDG","MG",2878.0,0.0,27920.0,"epp ankapoakabo","",44.72047222,-20.54186111,3,"","mapping",2015.0,10.0,14.0,50,0,0.0,0.0,50,0,0.0,0.0,50,0,0.0,0.0,1,26332,0.0,0.0,0.0,0.0
"MDG","MG",2878.0,0.0,27920.0,"epp ankifiofio","",44.97008333,-20.53233333,3,"","mapping",2015.0,10.0,14.0,50,7,0.0,0.0,50,2,0.0,0.0,50,0,0.0,0.0,1,26333,0.14,0.04,0.0,0.16452830188679246
"MDG","MG",2867.0,0.0,27869.0,"epp ankomaky   ampanihy","",44.54936111,-22.79302778,3,"","mapping",2015.0,10.0,14.0,50,1,0.0,0.0,50,0,0.0,0.0,50,0,0.0,0.0,1,26278,0.02,0.0,0.0,0.018867924528301886
"MDG","MG",2867.0,0.0,27863.0,"epp antanimainty","",44.85972222,-24.69222222,3,"","mapping",2015.0,5.0,14.0,50,0,0.0,0.0,50,0,0.0,0.0,50,2,0.0,0.0,1,26252,0.0,0.0,0.04,0.03773584905660377
"MDG","MG",2867.0,0.0,27868.0,"epp beadabo","",43.55127778,-21.48905556,3,"","mapping",2015.0,10.0,14.0,50,1,0.0,0.0,50,0,0.0,0.0,50,0,0.0,0.0,1,26273,0.02,0.0,0.0,0.018867924528301886
"MDG","MG",2878.0,0.0,27920.0,"epp befasy","",44.60116667,-20.96902778,3,"","mapping",2015.0,10.0,14.0,50,5,0.0,0.0,50,2,0.0,0.02,50,4,0.02,0.02,1,26334,0.1,0.04,0.08,0.19350943396226414
"MDG","MG",2867.0,0.0,27863.0,"epp behavandra","",44.7135,-24.66447222,3,"","mapping",2015.0,7.0,14.0,50,0,0.0,0.0,50,0,0.0,0.0,49,2,0.0,0.0,1,26253,0.0,0.0,0.04081632653061224,0.03850596842510588
"MDG","MG",2867.0,0.0,27863.0,"epp belaza","",44.75122222,-24.70466667,3,"","mapping",2015.0,10.0,14.0,50,0,0.0,0.0,50,3,0.0,0.0,50,0,0.0,0.0,1,26254,0.0,0.06,0.0,0.056603773584905655
"MDG","MG",2878.0,0.0,27920.0,"epp betesda","",44.68361111,-20.44013889,3,"","mapping",2015.0,10.0,14.0,50,3,0.0,0.0,50,0,0.0,0.0,50,0,0.0,0.0,1,26335,0.06,0.0,0.0,0.056603773584905655
"MDG","MG",2867.0,0.0,27869.0,"epp boka ankilivalo","",44.55936111,-22.868,3,"","mapping",2015.0,10.0,14.0,50,0,0.0,0.0,50,1,0.0,0.0,50,0,0.0,0.0,1,26279,0.0,0.02,0.0,0.018867924528301886
"MDG","MG",2867.0,0.0,27869.0,"epp bokaandravory","",44.59005556,-22.88130556,3,"","mapping",2015.0,10.0,14.0,50,1,0.0,0.0,50,0,0.0,0.0,50,0,0.0,0.0,1,26280,0.02,0.0,0.0,0.018867924528301886
"MDG","MG",2873.0,0.0,27899.0,"epp et ceg bemanondrobe",104198.0,48.3,-13.28333,3,"","",2015.0,10.0,0.0,49,0,"","",49,0,"","",49,9,"","",1,870,0.0,0.0,0.1836734693877551,0.1732768579129765
"MDG","MG",2867.0,0.0,27869.0,"epp mandarano","",44.55358333,-22.93241667,3,"","mapping",2015.0,10.0,14.0,50,7,0.0,0.0,50,2,0.0,0.02,50,1,0.0,0.0,1,26281,0.14,0.04,0.02,0.1801056603773585
"MDG","MG",2867.0,0.0,27867.0,"epp mihaiky","",44.81291667,-23.54525,3,"","mapping",2015.0,8.0,14.0,50,0,0.0,0.0,50,0,0.0,0.0,50,0,0.0,0.0,1,26264,0.0,0.0,0.0,0.0
"MDG","MG",2867.0,0.0,27867.0,"epp morafeno ii","",44.79227778,-23.54780556,3,"","mapping",2015.0,8.0,14.0,50,0,0.0,0.0,50,0,0.0,0.0,50,2,0.0,0.0,1,26265,0.0,0.0,0.04,0.03773584905660377
"MDG","MG",2873.0,0.0,27899.0,"epp nord vigie",104199.0,0.0,"",99,"","",2015.0,10.0,0.0,50,0,"","",50,8,"","",50,16,"","",1,871,0.0,0.16,0.32,0.4045283018867924
"MDG","MG",2867.0,0.0,27863.0,"epp reampototse","",44.70294444,-24.74788889,3,"","mapping",2015.0,6.0,14.0,40,0,0.0,0.0,40,0,0.0,0.0,40,1,0.0,0.0,1,26255,0.0,0.0,0.025,0.023584905660377357
"MDG","MG",2867.0,0.0,27869.0,"epp sakaraha   haut","",44.52836111,-22.90652778,3,"","mapping",2015.0,10.0,14.0,50,0,0.0,0.0,50,4,0.0,0.04,50,2,0.0,0.0,1,26282,0.0,0.08,0.04,0.11018867924528301
"MDG","MG",2867.0,0.0,27867.0,"epp sakoapolo","",44.84355556,-23.56111111,3,"","mapping",2015.0,7.0,14.0,45,0,0.0,0.0,45,0,0.0,0.0,45,1,0.0,0.0,1,26266,0.0,0.0,0.022222222222222223,0.020964360587002094
"MDG","MG",2867.0,0.0,27867.0,"epp savazy   v","",44.79419444,-23.60505556,3,"","mapping",2015.0,10.0,14.0,50,0,0.0,0.0,50,0,0.0,0.0,50,0,0.0,0.0,1,26267,0.0,0.0,0.0,0.0
"MDG","MG",2867.0,0.0,27867.0,"epp soaserana","",44.83336111,-23.56041667,3,"","mapping",2015.0,8.0,14.0,45,0,0.0,0.0,45,0,0.0,0.0,45,0,0.0,0.0,1,26268,0.0,0.0,0.0,0.0
"MDG","MG",2867.0,0.0,27868.0,"epp tsiahiny","",43.65252778,-21.563,3,"","mapping",2015.0,10.0,14.0,49,0,0.0,0.0,49,0,0.0,0.0,49,0,0.0,0.0,1,26274,0.0,0.0,0.0,0.0
"MDG","MG",2867.0,0.0,27868.0,"epp tsilaokarivo","",43.67808333,-22.24597222,3,"","mapping",2015.0,10.0,14.0,50,0,0.0,0.0,50,0,0.0,0.0,50,0,0.0,0.0,1,26275,0.0,0.0,0.0,0.0
"MDG","MG",2867.0,0.0,27863.0,"etanjo ambony","",44.6494237,-24.8145498,3,"","sentinel site",2015.0,7.0,10.0,57,0,0.0,0.0,57,0,0.0,0.0,57,0,0.0,0.0,1,26257,0.0,0.0,0.0,0.0
"MDG","MG",2867.0,0.0,27863.0,"etanjo ambony","",44.6494237,-24.8145498,3,"","sentinel site",2017.0,7.0,10.0,84,0,0.0,0.0,84,0,0.0,0.0,84,0,0.0,0.0,1,26256,0.0,0.0,0.0,0.0
"MDG","MG",2876.0,0.0,27910.0,"faliarivo","",46.74436111,-19.05588889,3,"","mapping",2015.0,10.0,14.0,50,0,0.0,0.0,50,8,0.0,0.06,50,11,0.0,0.02,1,26318,0.0,0.16,0.22,0.3252830188679245
"MDG","MG",2867.0,0.0,27866.0,"fanjakana",12847.0,45.16827833,-21.68197,3,"","",2015.0,"","",50,2,"","",50,29,"","",50,2,"","",1,8846,0.04,0.58,0.04,0.5782339622641509
"MDG","MG",2881.0,0.0,27936.0,"feno",55176.0,46.873299,-19.863899,3,"","",1995.0,"","",93,1,"","",93,78,"","",93,24,"","",3,9058,0.010752688172043012,0.8387096774193549,0.25806451612903225,0.8317167250503453
"MDG","MG",2881.0,0.0,27936.0,"fenoarivo",55177.0,46.716667,-19.4,1,"","",1995.0,"","",190,8,"","",190,122,"","",190,6,"","",3,9063,0.042105263157894736,0.6421052631578947,0.031578947368421054,0.6301892294107453
"MDG","MG",2872.0,0.0,27893.0,"fenoarivobe",12868.0,46.5666667,-18.4499999,3,"","",2015.0,"","",50,0,"","",50,13,"","",50,1,"","",1,8928,0.0,0.26,0.02,0.25924528301886796
"MDG","MG",2872.0,0.0,27894.0,"fiadanamanga",55251.0,46.333333,-18.883333,1,"","",1996.0,"","",176,7,"","",176,87,"","",176,31,"","",3,8933,0.03977272727272727,0.4943181818181818,0.17613636363636365,0.5659971397653736
"MDG","MG",2863.0,0.0,27845.0,"fiadanana",12811.0,46.882488,-18.226629,1,"","",2015.0,"","",50,1,"","",50,6,"","",50,3,"","",1,8808,0.02,0.12,0.06,0.1786264150943396
"MDG","MG",2863.0,0.0,27845.0,"fihaonana",12812.0,47.203621,-18.6052,1,"","",2015.0,"","",49,2,"","",49,12,"","",49,0,"","",1,8806,0.04081632653061224,0.24489795918367346,0.0,0.2601117458920418
"MDG","MG",2872.0,0.0,27894.0,"fonoraty",55252.0,46.2747,-18.933599,3,"","",1996.0,"","",255,159,"","",255,33,"","",255,5,"","",3,8930,0.6235294117647059,0.12941176470588237,0.0196078431372549,0.6402600212246549
"MDG","MG",2867.0,0.0,27864.0,"fotivolo",12807.0,44.5784,-22.46497,1,"","",2015.0,"","",50,7,"","",0,0,"","",0,0,"","",1,8840,0.14,"","",""
"MDG","MG",2864.0,0.0,27854.0,"fotsialanana",12966.0,49.48306333,-16.92219833,3,"","",2015.0,"","",50,3,"","",50,30,"","",50,43,"","",1,8815,0.06,0.6,0.86,0.8937358490566037
"MDG","MG",2869.0,0.0,27882.0,"hotsika",12977.0,49.425195,-17.63359333,3,"","",2015.0,"","",50,5,"","",50,38,"","",50,48,"","",1,8884,0.1,0.76,0.96,0.9352452830188679
"MDG","MG",2875.0,0.0,27905.0,"iakora centre",12870.0,46.650089,-23.107531,1,"","",2015.0,"","",50,2,"","",50,21,"","",50,25,"","",1,8958,0.04,0.42,0.5,0.6807547169811319
"MDG","MG",2876.0,0.0,27908.0,"ialaroa",12834.0,47.15425167,-18.98834333,3,"","",2015.0,"","",50,0,"","",50,10,"","",50,1,"","",1,8960,0.0,0.2,0.02,0.20377358490566036
"MDG","MG",2866.0,0.0,27861.0,"ianambinda",12861.0,45.56162,-23.31112,3,"","",2015.0,"","",50,2,"","",50,1,"","",50,1,"","",1,8832,0.04,0.02,0.02,0.0736
"MDG","MG",2881.0,0.0,27936.0,"iavokola",55178.0,46.6581,-19.585899,3,"","",1995.0,"","",103,2,"","",103,60,"","",103,1,"","",3,9066,0.019417475728155338,0.5825242718446602,0.009708737864077669,0.5609481668771521
"MDG","MG",2866.0,0.0,27861.0,"ii betroka",12862.0,46.099257,-23.2718771,1,"","",2015.0,"","",50,1,"","",50,1,"","",50,6,"","",1,8830,0.02,0.02,0.12,0.1460830188679245
"MDG","MG",2869.0,0.0,27883.0,"ilaka est",12995.0,48.8039107,-19.5864739,1,"","",2015.0,"","",50,1,"","",50,30,"","",50,44,"","",1,8885,0.02,0.6,0.88,0.8990188679245281
"MDG","MG",2881.0,0.0,27936.0,"ilazana",55179.0,46.634998,-19.825001,3,"","",1995.0,"","",31,1,"","",31,21,"","",31,1,"","",3,9065,0.03225806451612903,0.6774193548387096,0.03225806451612903,0.6583918278472096
"MDG","MG",2872.0,0.0,27894.0,"imerimandroso",55253.0,48.5912914,-17.4283445,1,"","",1996.0,"","",235,31,"","",235,62,"","",235,4,"","",3,8932,0.13191489361702127,0.26382978723404255,0.01702127659574468,0.35077282290487494
"MDG","MG",2867.0,0.0,27866.0,"ipingo",104103.0,45.25,-21.71667,3,"","",2015.0,10.0,0.0,50,2,"","",50,48,"","",50,1,"","",1,852,0.04,0.96,0.02,0.9078943396226414
"MDG","MG",2866.0,0.0,27861.0,"isoanala",12863.0,45.7165737,-23.833207,1,"","",2015.0,"","",50,0,"","",50,0,"","",50,1,"","",1,8831,0.0,0.0,0.02,0.018867924528301886
"MDG","MG",2866.0,0.0,27861.0,"jangany",12864.0,45.783333,-22.85,1,"","",2015.0,"","",50,2,"","",50,7,"","",50,5,"","",1,8833,0.04,0.14,0.1,0.24241509433962263
"MDG","MG",2880.0,0.0,27930.0,"kalandy",12912.0,48.720699,-15.74788,1,"","",2015.0,"","",50,0,"","",50,3,"","",50,0,"","",1,9046,0.0,0.06,0.0,0.056603773584905655
"MDG","MG",2871.0,0.0,27890.0,"kandrany","",46.58747222,-15.97988889,3,"","mapping",2014.0,10.0,14.0,0,0,0.0,0.0,50,0,0.0,0.0,50,0,0.0,0.0,1,26291,"",0.0,0.0,""
"MDG","MG",2863.0,0.0,27845.0,"kiangara",12813.0,47.026539,-17.97242,1,"","",2015.0,"","",50,0,"","",50,0,"","",50,0,"","",1,8804,0.0,0.0,0.0,0.0
"MDG","MG",2882.0,0.0,27938.0,"kianjanomby",55200.0,47.816667,-21.7333329,1,"","",1990.0,"","",62,8,"","",62,46,"","",62,31,"","",3,9095,0.12903225806451613,0.7419354838709677,0.5,0.8373745901478413
"MDG","MG",2882.0,0.0,0.0,"kianjanomby","",47.599,-21.1,4,"","",1990.0,1.0,10.0,62,8,"","",62,46,"","",62,31,"","",3,29227,0.12903225806451613,0.7419354838709677,0.5,0.8373745901478413
"MDG","MG",2864.0,0.0,27853.0,"loukintsy",12953.0,49.88452,-16.88514,3,"","",2015.0,"","",50,0,"","",50,23,"","",50,47,"","",1,8811,0.0,0.46,0.94,0.9128301886792451
"MDG","MG",2869.0,0.0,27880.0,"mahadio",12922.0,48.102068,-20.15258,3,"","",2015.0,"","",50,8,"","",50,21,"","",50,23,"","",1,8876,0.16,0.42,0.46,0.6951999999999999
"MDG","MG",2873.0,0.0,27895.0,"mahatera",104013.0,48.4666667,-13.8166666,3,"","",2015.0,10.0,0.0,50,5,"","",50,1,"","",50,0,"","",1,823,0.1,0.02,0.0,0.11132075471698112
"MDG","MG",2869.0,0.0,27879.0,"mahatsara",12893.0,48.45,-19.583333,1,"","",2015.0,"","",50,22,"","",50,39,"","",50,49,"","",1,8867,0.44,0.78,0.98,0.9410716981132078
"MDG","MG",2879.0,0.0,27922.0,"mahatsara",104073.0,18.17818275,"",99,"","",2015.0,10.0,0.0,50,0,"","",50,28,"","",50,42,"","",1,843,0.0,0.56,0.84,0.8769811320754715
"MDG","MG",2881.0,0.0,27946.0,"mahatsinjo",55220.0,46.07954,-19.711981,1,"","",1995.0,"","",222,110,"","",222,89,"","",222,19,"","",3,9106,0.4954954954954955,0.4009009009009009,0.08558558558558559,0.6826602778750744
"MDG","MG",2876.0,0.0,27909.0,"mahatsinjo","",46.56033333,-18.70447222,4,"","mapping",2015.0,10.0,13.0,49,0,0.0,0.0,49,0,0.0,0.0,49,0,0.0,0.0,1,26313,0.0,0.0,0.0,0.0
"MDG","MG",2867.0,0.0,27870.0,"mahavatse",12980.0,43.6771036,-23.3675936,1,"","",2015.0,"","",50,0,"","",50,4,"","",50,9,"","",1,8856,0.0,0.08,0.18,0.23169811320754716
"MDG","MG",2881.0,0.0,27936.0,"mahazina",55180.0,46.683333,-19.7,1,"","",1995.0,"","",139,0,"","",139,114,"","",139,2,"","",3,9064,0.0,0.8201438848920863,0.014388489208633094,0.7761620213805879
"MDG","MG",2881.0,0.0,27946.0,"mahazina",55221.0,46.683333,-19.7,1,"","",1995.0,"","",57,2,"","",57,24,"","",57,5,"","",3,9119,0.03508771929824561,0.42105263157894735,0.08771929824561403,0.4626127418932355
"MDG","MG",2876.0,0.0,27910.0,"mahazoarivo","",46.72497222,-19.07930556,3,"","mapping",2015.0,8.0,14.0,50,1,0.0,0.0,50,2,0.0,0.0,50,0,0.0,0.0,1,26319,0.02,0.04,0.0,0.055849056603773574
"MDG","MG",2869.0,0.0,27883.0,"maintinandry",12996.0,48.9316183,-19.4283814,1,"","",2015.0,"","",50,2,"","",50,38,"","",50,42,"","",1,8888,0.04,0.76,0.84,0.9086188679245283
"MDG","MG",2861.0,0.0,27835.0,"maitsokely",104050.0,48.18333,-16.4,3,"","",2015.0,10.0,0.0,48,0,"","",50,0,"","",50,0,"","",1,838,0.0,0.0,0.0,0.0
"MDG","MG",2867.0,0.0,27866.0,"makaikely","",45.3608552,-21.4760952,3,"","sentinel site",2017.0,7.0,10.0,45,1,0.0,0.0,45,0,0.0,0.0,45,0,0.0,0.0,1,26261,0.022222222222222223,0.0,0.0,0.020964360587002094
"MDG","MG",2867.0,0.0,27866.0,"makaikely","",45.3608552,-21.4760952,3,"","sentinel site",2015.0,7.0,10.0,53,0,0.0,0.0,53,0,0.0,0.0,53,0,0.0,0.0,1,26260,0.0,0.0,0.0,0.0
"MDG","MG",2880.0,0.0,27929.0,"malakialina",104159.0,47.4166667,-16.2833332,3,"","",2015.0,10.0,0.0,50,0,"","",50,0,"","",50,0,"","",1,863,0.0,0.0,0.0,0.0
"MDG","MG",2863.0,0.0,27844.0,"manakana",12804.0,47.76971833,-18.09276167,3,"","",2015.0,"","",50,1,"","",50,5,"","",50,1,"","",1,8799,0.02,0.1,0.02,0.1279622641509434
"MDG","MG",2873.0,0.0,27897.0,"mananara",55156.0,49.765208,-16.1705547,1,"","",1998.0,"","",133,23,"","",133,2,"","",133,3,"","",3,8944,0.17293233082706766,0.015037593984962405,0.022556390977443608,0.1922118529042653
"MDG","MG",2876.0,0.0,27909.0,"manankasina",55231.0,46.940701,-18.9487,3,"","",1996.0,"","",139,4,"","",139,80,"","",139,9,"","",3,8964,0.02877697841726619,0.5755395683453237,0.06474820143884892,0.5796664409758681
"MDG","MG",2864.0,0.0,27854.0,"manankatafana",12967.0,49.5209,-17.06768167,3,"","",2015.0,"","",50,15,"","",50,39,"","",50,45,"","",1,8817,0.3,0.78,0.9,0.928867924528302
"MDG","MG",2864.0,0.0,27854.0,"manankinany",12968.0,49.53242,-17.02880667,3,"","",2015.0,"","",50,11,"","",50,31,"","",50,38,"","",1,8814,0.22,0.62,0.76,0.8762867924528299
"MDG","MG",2881.0,0.0,27936.0,"manarintsoa",55181.0,46.954399,-19.756001,3,"","",1995.0,"","",114,0,"","",114,82,"","",114,2,"","",3,9072,0.0,0.7192982456140351,0.017543859649122806,0.6832290922606085
"MDG","MG",2875.0,0.0,27905.0,"mandabe",12871.0,45.146832,-22.53961,1,"","",2015.0,"","",50,0,"","",50,3,"","",50,1,"","",1,8957,0.0,0.06,0.02,0.07433962264150942
"MDG","MG",2871.0,0.0,27887.0,"manerinerina",12768.0,47.1532712,-18.0107991,1,"","",2015.0,"","",50,0,"","",50,2,"","",50,0,"","",1,8903,0.0,0.04,0.0,0.03773584905660377
"MDG","MG","","",0.0,"mangalahala","",48.433,-17.751,4,"","",1982.0,0.0,99.0,265,26,"","",265,226,"","",265,148,"","",3,29503,0.09811320754716982,0.8528301886792453,0.5584905660377358,0.888111535912703
"MDG","MG",2871.0,0.0,27891.0,"mangasoavozo",12927.0,45.845545,-16.02537,3,"","",2015.0,"","",50,0,"","",50,0,"","",50,7,"","",1,8918,0.0,0.0,0.14,0.1320754716981132
"MDG","MG",2873.0,0.0,27897.0,"mangoaka",55157.0,48.05,-14.85,1,"","",1998.0,"","",263,41,"","",263,8,"","",263,18,"","",3,8943,0.155893536121673,0.030418250950570342,0.06844106463878327,0.22413586233010263
"MDG","MG",2878.0,0.0,27918.0,"manja",104173.0,44.3212902,-21.4315169,1,"","",2015.0,6.0,0.0,50,0,"","",50,3,"","",50,0,"","",1,865,0.0,0.06,0.0,0.056603773584905655
"MDG","MG",2870.0,0.0,27886.0,"manonga",12990.0,47.193903,-16.517008,3,"","",2015.0,"","",50,26,"","",50,0,"","",50,0,"","",1,8898,0.52,0.0,0.0,0.490566037735849
"MDG","MG",2879.0,0.0,27922.0,"marambo",104074.0,50.43302,-15.1836,3,"","",2015.0,10.0,0.0,50,9,"","",50,39,"","",50,47,"","",1,844,0.18,0.78,0.94,0.9331849056603773
"MDG","MG",2861.0,0.0,27835.0,"maroadabo",12796.0,48.24590667,-16.62337333,3,"","",2015.0,"","",50,0,"","",50,0,"","",50,0,"","",1,8783,0.0,0.0,0.0,0.0
"MDG","MG",2867.0,0.0,27868.0,"maroanaka","",43.6087024,-21.5612821,3,"","sentinel site",2015.0,7.0,10.0,83,1,0.0,0.0,83,0,0.0,0.0,83,0,0.0,0.0,1,26276,0.012048192771084338,0.0,0.0,0.011366219595362582
"MDG","MG",2867.0,0.0,27868.0,"maroanaka","",43.6087024,-21.5612821,3,"","sentinel site",2017.0,7.0,10.0,79,0,0.0,0.0,79,0,0.0,0.0,79,0,0.0,0.0,1,26277,0.0,0.0,0.0,0.0
"MDG","MG",2871.0,0.0,27892.0,"maroboaly",104218.0,46.9405556,-16.3641667,1,"","",2015.0,10.0,0.0,50,0,"","",50,0,"","",50,0,"","",1,878,0.0,0.0,0.0,0.0
"MDG","MG",2881.0,0.0,27936.0,"marodita",55182.0,46.830101,-19.7841,3,"","",1995.0,"","",68,1,"","",68,56,"","",68,5,"","",3,9077,0.014705882352941176,0.8235294117647058,0.07352941176470588,0.791424080894354
"MDG","MG",2876.0,0.0,27910.0,"marofotsy",55235.0,46.572399,-19.0413,3,"","",1996.0,"","",183,58,"","",183,60,"","",183,4,"","",3,8969,0.31693989071038253,0.32786885245901637,0.02185792349726776,0.5197444605514087
"MDG","MG",2869.0,0.0,27880.0,"marolambo",12923.0,48.13327,-20.05913,1,"","",2015.0,"","",50,20,"","",50,26,"","",50,26,"","",1,8872,0.4,0.52,0.52,0.8129811320754715
"MDG","MG",2869.0,0.0,27880.0,"maroleotra",12924.0,48.1333333,-20.0499999,3,"","",2015.0,"","",50,21,"","",50,19,"","",50,16,"","",1,8873,0.42,0.38,0.32,0.712709433962264
"MDG","MG",2882.0,0.0,27938.0,"maromandia",55201.0,47.766667,-21.383333,1,"","",1990.0,"","",84,9,"","",84,62,"","",84,29,"","",3,9101,0.10714285714285714,0.7380952380952381,0.34523809523809523,0.798951094364071
"MDG","MG",2882.0,0.0,0.0,"maromandia","",47.599,-21.133,4,"","",1990.0,1.0,10.0,84,9,"","",84,62,"","",84,29,"","",3,30589,0.10714285714285714,0.7380952380952381,0.34523809523809523,0.798951094364071
"MDG","MG",2880.0,0.0,27925.0,"maromandia",104043.0,48.0815933,-14.203229,1,"","",2015.0,10.0,0.0,50,11,"","",50,0,"","",50,1,"","",1,834,0.22,0.0,0.02,0.22226415094339622
"MDG","MG",2864.0,0.0,27855.0,"maromitety",13002.0,49.28657,-17.4376,3,"","",2015.0,"","",50,4,"","",50,20,"","",50,47,"","",1,8823,0.08,0.4,0.94,0.9121509433962263
"MDG","MG",2863.0,0.0,27845.0,"marondry",12814.0,47.003,-18.434685,3,"","",2015.0,"","",50,2,"","",50,10,"","",50,0,"","",1,8805,0.04,0.2,0.0,0.21886792452830187
"MDG","MG",2871.0,0.0,27890.0,"marosakoa","",46.75311111,-16.18258333,3,"","mapping",2014.0,10.0,14.0,50,7,0.0,0.0,50,1,0.0,0.0,50,1,0.0,0.0,1,26292,0.14,0.02,0.02,0.16420377358490565
"MDG","MG",2881.0,0.0,27946.0,"marotaolana ii",55222.0,46.053501,-19.537901,3,"","",1995.0,"","",70,5,"","",70,12,"","",70,3,"","",3,9120,0.07142857142857142,0.17142857142857143,0.04285714285714286,0.24866604323670163
"MDG","MG",2861.0,0.0,27835.0,"marovato",12797.0,48.57313,-16.46693,1,"","",2015.0,"","",44,0,"","",50,13,"","",48,0,"","",1,8784,0.0,0.26,0.0,0.2452830188679245
"MDG","MG",2873.0,0.0,27895.0,"marovato",104014.0,48.45,-14.02548,1,"","",2015.0,10.0,0.0,50,8,"","",50,0,"","",50,0,"","",1,824,0.16,0.0,0.0,0.1509433962264151
"MDG","MG",2880.0,0.0,27925.0,"marovoataza",104044.0,47.6666667,-15.3833332,3,"","",2015.0,8.0,0.0,50,0,"","",50,0,"","",50,0,"","",1,835,0.0,0.0,0.0,0.0
"MDG","MG",2877.0,0.0,27913.0,"marovoay sud",12854.0,44.589163,-16.973148,3,"","",2015.0,"","",50,9,"","",50,1,"","",50,1,"","",1,8984,0.18,0.02,0.02,0.2004452830188679
"MDG","MG",2871.0,0.0,27891.0,"matsakabanja",12928.0,45.83543,-15.91646167,3,"","",2015.0,"","",50,0,"","",50,0,"","",50,0,"","",1,8916,0.0,0.0,0.0,0.0
"MDG","MG",2872.0,0.0,27894.0,"mavoandro est",55254.0,46.257599,-18.6931,3,"","",1996.0,"","",222,149,"","",222,24,"","",222,3,"","",3,8935,0.6711711711711712,0.10810810810810811,0.013513513513513514,0.6704561073884502
"MDG","MG",2882.0,0.0,0.0,"menarano","",47.465,-21.282,4,"","",1990.0,1.0,10.0,51,19,"","",51,44,"","",51,31,"","",3,29175,0.37254901960784315,0.8627450980392157,0.6078431372549019,0.9115350637073906
"MDG","MG",2881.0,0.0,27936.0,"miadana bas",55183.0,46.8811,-19.9034,3,"","",1995.0,"","",28,2,"","",28,17,"","",28,3,"","",3,9093,0.07142857142857142,0.6071428571428571,0.10714285714285714,0.6361220364156442
"MDG","MG",2871.0,0.0,27890.0,"miadanasoa","",46.76413889,-16.02375,3,"","mapping",2014.0,10.0,14.0,50,0,0.0,0.0,50,1,0.0,0.02,50,1,0.0,0.02,1,26293,0.0,0.02,0.02,0.03735849056603773
"MDG","MG",2870.0,0.0,27886.0,"miadandririnina",12991.0,47.615365,-16.714702,3,"","",2015.0,"","",50,5,"","",50,0,"","",50,0,"","",1,8894,0.1,0.0,0.0,0.09433962264150943
"MDG","MG",2863.0,0.0,27842.0,"miadapahonina",12783.0,47.29151167,-18.68686667,3,"","",2015.0,"","",50,0,"","",50,4,"","",50,5,"","",1,8797,0.0,0.08,0.1,0.1622641509433962
"MDG","MG",2872.0,0.0,27893.0,"miandrarivo ii","",46.8902675,-18.5708189,3,"","sentinel site",2015.0,7.0,10.0,96,0,0.0,0.0,96,2,0.0,0.010400000000000001,96,1,0.0,0.0,1,26298,0.0,0.020833333333333332,0.010416666666666666,0.029276401991614253
"MDG","MG",2872.0,0.0,27893.0,"miandrarivo ii","",46.8902675,-18.5708189,3,"","sentinel site",2017.0,7.0,10.0,41,0,0.0,0.0,41,22,0.0,0.0,41,0,0.0,0.0,1,26299,0.0,0.5365853658536586,0.0,0.5062126092959043
"MDG","MG",2861.0,0.0,27835.0,"miarinarivo",104053.0,48.22086,-16.6015,1,"","",2015.0,10.0,0.0,49,0,"","",50,1,"","",50,0,"","",1,839,0.0,0.02,0.0,0.018867924528301886
"MDG","MG",2881.0,0.0,27936.0,"miarinatsimo",55184.0,46.930599,-19.92,3,"","",1995.0,"","",59,1,"","",59,47,"","",59,1,"","",3,9084,0.01694915254237288,0.7966101694915254,0.01694915254237288,0.7579682183523199
"MDG","MG",2881.0,0.0,27936.0,"miaripenoarivo",55185.0,46.736,-19.8999,3,"","",1995.0,"","",70,1,"","",70,59,"","",70,1,"","",3,9085,0.014285714285714285,0.8428571428571429,0.014285714285714285,0.7993536498157213
"MDG","MG",2867.0,0.0,27871.0,"milenaka",12985.0,44.08147,-22.658489,1,"","",2015.0,"","",50,0,"","",50,3,"","",50,0,"","",1,8858,0.0,0.06,0.0,0.056603773584905655
"MDG","MG",2867.0,0.0,27869.0,"mitia est","",44.2721494,-22.5954584,3,"","sentinel site",2015.0,7.0,10.0,42,0,0.0,0.0,42,0,0.0,0.0,42,0,0.0,0.0,1,26284,0.0,0.0,0.0,0.0
"MDG","MG",2867.0,0.0,27869.0,"mitia est","",44.2721494,-22.5954584,3,"","sentinel site",2017.0,7.0,10.0,49,0,0.0,0.0,49,0,0.0,0.0,49,0,0.0,0.0,1,26283,0.0,0.0,0.0,0.0
"MDG","MG",2871.0,0.0,27891.0,"mitsinjo",12929.0,45.8540833,-16.0140114,1,"","",2015.0,"","",50,0,"","",50,0,"","",50,0,"","",1,8917,0.0,0.0,0.0,0.0
"MDG","MG",2877.0,0.0,27912.0,"mokotibe",12827.0,44.4016189,-18.687349,1,"","",2015.0,"","",50,1,"","",50,0,"","",50,0,"","",1,8979,0.02,0.0,0.0,0.018867924528301886
"MDG","MG","","","","monannony","","","",99,"","",1990.0,1.0,10.0,111,9,"","",111,89,"","",111,20,"","",3,29136,0.08108108108108109,0.8018018018018018,0.18018018018018017,0.8025356558234158
"MDG","MG",2871.0,0.0,27891.0,"morafeno","",45.8573729,-15.9349185,3,"","sentinel site",2017.0,7.0,10.0,84,1,0.0,0.0,84,2,0.0,0.0238,84,6,0.0,0.0,1,26295,0.011904761904761904,0.023809523809523808,0.07142857142857142,0.09842324171357669
"MDG","MG",2871.0,0.0,27891.0,"morafeno","",45.8573729,-15.9349185,3,"","sentinel site",2015.0,7.0,10.0,96,0,0.0,0.0,96,0,0.0,0.0,96,0,0.0,0.0,1,26294,0.0,0.0,0.0,0.0
"MDG","MG","","","","morafeno","","","",99,"","",1987.0,5.0,18.0,84,8,"","",84,4,"","",84,4,"","",3,29510,0.09523809523809523,0.047619047619047616,0.047619047619047616,0.16920215225952612
"MDG","MG",2878.0,0.0,27917.0,"morafeno i","",44.64397222,-20.25819444,3,"","mapping",2014.0,10.0,14.0,50,7,0.0,0.0,50,0,0.0,0.0,50,0,0.0,0.0,1,26329,0.14,0.0,0.0,0.1320754716981132
"MDG","MG",2877.0,0.0,27915.0,"morafenobe mahamanina",12934.0,44.91877,-17.818621,1,"","",2015.0,"","",50,0,"","",50,1,"","",50,1,"","",1,8996,0.0,0.02,0.02,0.03735849056603773
"MDG","MG",2861.0,0.0,27837.0,"moramanga ambony",12939.0,48.2244268,-18.9489026,1,"","",2015.0,"","",50,4,"","",50,18,"","",50,26,"","",1,8787,0.08,0.36,0.52,0.6767698113207546
"MDG","MG",2878.0,0.0,27919.0,"morarano",55226.0,45.007999,-20.51939,1,"","",1995.0,"","",78,19,"","",78,13,"","",78,17,"","",3,9011,0.24358974358974358,0.16666666666666666,0.21794871794871795,0.4783399286302044
"MDG","MG",2863.0,0.0,27842.0,"morarano",12784.0,47.45,-19.033333,1,"","",2015.0,"","",50,1,"","",50,7,"","",50,5,"","",1,8795,0.02,0.14,0.1,0.22781132075471697
"MDG","MG",2881.0,0.0,27936.0,"morarano ii",55186.0,46.652901,-19.590599,3,"","",1995.0,"","",116,1,"","",116,46,"","",116,1,"","",3,9054,0.008620689655172414,0.39655172413793105,0.008620689655172414,0.3838784516217874
"MDG","MG",2876.0,0.0,27910.0,"moratsiazo","",46.74347222,-19.08394444,3,"","mapping",2015.0,10.0,14.0,49,0,0.0,0.0,49,12,0.0,0.0,49,6,0.0,0.0,1,26320,0.0,0.24489795918367346,0.12244897959183673,0.31826361657485475
"MDG","MG",2877.0,0.0,27914.0,"nazifiny",104153.0,0.0,"",99,"","",2015.0,10.0,0.0,50,0,"","",50,3,"","",50,0,"","",1,857,0.0,0.06,0.0,0.056603773584905655
"MDG","MG",2869.0,0.0,27883.0,"niherenana",12997.0,48.888699,-19.073139,1,"","",2015.0,"","",50,6,"","",50,28,"","",50,36,"","",1,8889,0.12,0.56,0.72,0.8411169811320753
"MDG","MG",2869.0,0.0,27881.0,"p/lle 21/54 epp zoto",12970.0,49.38398,-18.15248667,3,"","",2015.0,"","",50,9,"","",50,40,"","",50,38,"","",1,8878,0.18,0.8,0.76,0.9062641509433961
"MDG","MG",2869.0,0.0,27881.0,"p/lle 32/12   pointe tanio",12971.0,49.41260667,-18.14546167,3,"","",2015.0,"","",50,2,"","",50,37,"","",50,27,"","",1,8879,0.04,0.74,0.54,0.8350792452830189
"MDG","MG",2869.0,0.0,27881.0,"parcelle 14/12   analamboanio",12972.0,49.40347167,-18.11982,3,"","",2015.0,"","",50,1,"","",50,36,"","",50,48,"","",1,8877,0.02,0.72,0.96,0.933041509433962
"MDG","MG",2869.0,0.0,27881.0,"parcelle 23/25 manangareza",12973.0,49.40382667,-18.164965,3,"","",2015.0,"","",50,0,"","",50,38,"","",50,43,"","",1,8881,0.0,0.76,0.86,0.9116981132075472
"MDG","MG",2869.0,0.0,27881.0,"plle 21/51   la poudrette",12974.0,49.39075667,-18.15010667,3,"","",2015.0,"","",50,1,"","",50,39,"","",50,42,"","",1,8880,0.02,0.78,0.84,0.9108528301886791
"MDG","MG",2880.0,0.0,27930.0,"pont sofia",12913.0,48.61585167,-15.49758,3,"","",2015.0,"","",50,0,"","",50,11,"","",50,0,"","",1,9047,0.0,0.22,0.0,0.20754716981132074
"MDG","MG",2867.0,0.0,27871.0,"ranobe","",43.6098524,-23.0129875,3,"","sentinel site",2015.0,7.0,10.0,96,0,0.0,0.0,96,1,0.0,0.010400000000000001,96,3,0.0,0.0,1,26287,0.0,0.010416666666666666,0.03125,0.039001080974842756
"MDG","MG",2867.0,0.0,27871.0,"ranobe","",43.6098524,-23.0129875,3,"","sentinel site",2017.0,7.0,10.0,66,0,0.0,0.0,66,0,0.0,0.0,66,0,0.0,0.0,1,26288,0.0,0.0,0.0,0.0
"MDG","MG",2881.0,0.0,27946.0,"ranomainty",55223.0,46.573502,-19.5467,3,"","",1995.0,"","",8,0,"","",8,2,"","",8,0,"","",3,9109,0.0,0.25,0.0,0.23584905660377356
"MDG","MG",2875.0,0.0,27905.0,"ranotsara",12872.0,46.590439,-22.813881,1,"","",2015.0,"","",50,0,"","",50,9,"","",50,7,"","",1,8956,0.0,0.18,0.14,0.2781132075471698
"MDG","MG",2882.0,0.0,0.0,"ranovao","",47.463,-21.313,4,"","",1990.0,1.0,10.0,65,8,"","",65,55,"","",65,19,"","",3,30587,0.12307692307692308,0.8461538461538461,0.2923076923076923,0.853324859800242
"MDG","MG",2873.0,0.0,27897.0,"sadjaovato city",55158.0,49.348999,-12.616,3,"","",1998.0,"","",152,102,"","",152,31,"","",152,48,"","",3,8945,0.6710526315789473,0.20394736842105263,0.3157894736842105,0.7743707826378784
"MDG","MG",2882.0,0.0,0.0,"sahasomangana","",47.533,-21.065,4,"","",1990.0,1.0,10.0,92,25,"","",92,78,"","",92,50,"","",3,30588,0.2717391304347826,0.8478260869565217,0.5434782608695652,0.8956671773789604
"MDG","MG",2882.0,0.0,0.0,"sahavoemba","",47.483,-21.349,4,"","",1990.0,1.0,10.0,47,12,"","",47,35,"","",47,21,"","",3,30591,0.2553191489361702,0.7446808510638298,0.44680851063829785,0.8441707485108453
"MDG","MG",2874.0,0.0,27900.0,"sahavondronana","",47.307999,-21.252001,3,"","",1990.0,1.0,10.0,58,2,"","",58,47,"","",58,39,"","",3,30594,0.034482758620689655,0.8103448275862069,0.6724137931034483,0.8868056044443173
"MDG","MG",2867.0,0.0,27870.0,"sakabera",12981.0,44.3992892,-23.1485269,2,"","",2015.0,"","",50,0,"","",50,1,"","",50,0,"","",1,8854,0.0,0.02,0.0,0.018867924528301886
"MDG","MG",2872.0,0.0,27894.0,"sarotravoaka","",46.02322222,-19.0255,3,"","mapping",2015.0,10.0,15.0,50,0,0.0,0.0,50,1,0.0,0.0,50,0,0.0,0.0,1,26306,0.0,0.02,0.0,0.018867924528301886
"MDG","MG",2881.0,0.0,27936.0,"soafierenana",55187.0,46.671299,-19.615,3,"","",1995.0,"","",22,0,"","",22,15,"","",22,0,"","",3,9087,0.0,0.6818181818181818,0.0,0.6432246998284733
"MDG","MG",2881.0,0.0,27936.0,"soafierenana i",55188.0,46.717899,-19.906799,3,"","",1995.0,"","",51,0,"","",51,27,"","",51,2,"","",3,9089,0.0,0.5294117647058824,0.0392156862745098,0.5168549106657091
"MDG","MG",2867.0,0.0,27871.0,"soahazo",12986.0,43.67775,-22.464121,1,"","",2015.0,"","",50,0,"","",50,0,"","",50,0,"","",1,8857,0.0,0.0,0.0,0.0
"MDG","MG",2876.0,0.0,27910.0,"soanafindra",55236.0,46.681,-19.0448,3,"","",1996.0,"","",153,7,"","",153,102,"","",153,15,"","",3,8972,0.0457516339869281,0.6666666666666666,0.09803921568627451,0.6727375457109303
"MDG","MG",2867.0,0.0,27867.0,"soaserana","",44.8267214,-23.5610273,3,"","sentinel site",2015.0,7.0,10.0,96,0,0.0,0.0,96,2,0.0,0.0,96,3,0.0,0.0,1,26269,0.0,0.020833333333333332,0.03125,0.04852102987421383
"MDG","MG",2867.0,0.0,27867.0,"soaserana","",44.8267214,-23.5610273,3,"","sentinel site",2017.0,7.0,10.0,51,0,0.0,0.0,51,0,0.0,0.0,51,2,0.0,0.0,1,26270,0.0,0.0,0.0392156862745098,0.03699593044765075
"MDG","MG",2878.0,0.0,27917.0,"soaserana",55210.0,45.033333,-20.666667,1,"","",1998.0,"","",58,14,"","",58,1,"","",58,5,"","",3,9005,0.2413793103448276,0.017241379310344827,0.08620689655172414,0.30068844831841135
"MDG","MG",2878.0,0.0,27918.0,"soaserana",104174.0,45.033333,-20.666667,1,"","",2015.0,6.0,0.0,50,0,"","",50,0,"","",50,0,"","",1,866,0.0,0.0,0.0,0.0
"MDG","MG",2877.0,0.0,27912.0,"soatana",12828.0,44.48823667,-19.083625,3,"","",2015.0,"","",50,11,"","",50,1,"","",50,0,"","",1,8981,0.22,0.02,0.0,0.22226415094339622
"MDG","MG","","","","soatanana","","","",99,"","",1981.0,0.0,99.0,1086,46,"","",1086,160,"","",1086,36,"","",3,29184,0.0423572744014733,0.14732965009208104,0.03314917127071823,0.19859859983059483
"MDG","MG",2875.0,0.0,27905.0,"tainakanga",12873.0,46.624433,-22.93804,3,"","",2015.0,"","",50,0,"","",50,6,"","",50,5,"","",1,8955,0.0,0.12,0.1,0.1962264150943396
"MDG","MG",2881.0,0.0,27936.0,"tanamalaza",55189.0,46.923801,-19.8421,3,"","",1995.0,"","",71,1,"","",71,52,"","",71,9,"","",3,9074,0.014084507042253521,0.7323943661971831,0.1267605633802817,0.7260448378570765
"MDG","MG",2867.0,0.0,27864.0,"tanambao",12808.0,44.553655,-22.285035,3,"","",2015.0,"","",50,4,"","",0,0,"","",1,0,"","",1,8841,0.08,"",0.0,""
"MDG","MG",2864.0,0.0,27854.0,"tanambao fotsialanana",12969.0,49.48314167,-16.92226333,3,"","",2015.0,"","",50,2,"","",50,25,"","",50,36,"","",1,8816,0.04,0.5,0.72,0.8166037735849057
"MDG","MG",2869.0,0.0,27879.0,"tanamborozano",12894.0,48.482869,-19.534471,3,"","",2015.0,"","",50,22,"","",50,31,"","",50,44,"","",1,8871,0.44,0.62,0.88,0.9193056603773584
"MDG","MG",2861.0,0.0,27835.0,"tananafololahy",104054.0,0.0,"",99,"","",2015.0,10.0,0.0,48,0,"","",50,2,"","",50,0,"","",1,840,0.0,0.04,0.0,0.03773584905660377
"MDG","MG",2867.0,0.0,27866.0,"tanandava",104104.0,45.16667,-24.316667,1,"","",2015.0,10.0,0.0,50,0,"","",50,30,"","",50,1,"","",1,853,0.0,0.6,0.02,0.5735849056603772
"MDG","MG",2866.0,0.0,27860.0,"tanandava",12778.0,45.72397,-22.94708288,3,"","",2015.0,"","",50,2,"","",50,3,"","",50,3,"","",1,8829,0.04,0.06,0.06,0.14315471698113205
"MDG","MG",2878.0,0.0,27917.0,"tanandava",55211.0,44.570099,-20.821939,1,"","",1998.0,"","",42,1,"","",42,0,"","",42,1,"","",3,9004,0.023809523809523808,0.0,0.023809523809523808,0.04438882471227484
"MDG","MG",2875.0,0.0,27905.0,"tanandrefa",12874.0,46.601688,-22.891818,3,"","",2015.0,"","",50,0,"","",50,21,"","",50,21,"","",1,8954,0.0,0.42,0.42,0.6260377358490565
"MDG","MG",2867.0,0.0,27865.0,"tanapiso",104099.0,0.0,"",99,"","",2015.0,10.0,0.0,50,0,"","",50,0,"","",50,0,"","",1,849,0.0,0.0,0.0,0.0
"MDG","MG",2867.0,0.0,27864.0,"tandrano",12809.0,44.63942,-22.09008,1,"","",2015.0,"","",50,5,"","",7,0,"","",0,0,"","",1,8839,0.1,0.0,"",""
"MDG","MG",2867.0,0.0,27870.0,"toliara city (betania district)",55247.0,43.6830966,-23.3405816,1,"","",1998.0,"","",626,12,"","",626,176,"","",626,243,"","",3,8853,0.019169329073482427,0.28115015974440893,0.38817891373801916,0.5364370984742928
"MDG","MG",2881.0,0.0,27936.0,"tombaboanjo",55190.0,46.8937,-19.910601,3,"","",1995.0,"","",164,3,"","",164,120,"","",164,15,"","",3,9060,0.018292682926829267,0.7317073170731707,0.09146341463414634,0.7176464070293223
"MDG","MG",2881.0,0.0,27936.0,"tongafeno",55191.0,46.9212,-19.845699,3,"","",1995.0,"","",2,0,"","",2,2,"","",2,0,"","",3,9070,0.0,1.0,0.0,0.9433962264150942
"MDG","MG",2882.0,0.0,0.0,"torotosy","",47.498,-21.225,4,"","",1990.0,1.0,10.0,80,17,"","",80,68,"","",80,25,"","",3,30590,0.2125,0.85,0.3125,0.8667821344339621
"MDG","MG",2877.0,0.0,27912.0,"trangahy",12829.0,44.5517619,-19.12779,1,"","",2015.0,"","",50,7,"","",50,1,"","",50,0,"","",1,8980,0.14,0.02,0.0,0.14830188679245282
"MDG","MG",2881.0,0.0,27936.0,"tritriva",12859.0,46.925945,-19.920127,3,"","",2015.0,"","",50,0,"","",50,14,"","",50,3,"","",1,9081,0.0,0.28,0.06,0.3049056603773585
"MDG","MG",2879.0,0.0,27921.0,"tsarabanja",12794.0,49.6064,-14.67064667,3,"","",2015.0,"","",50,7,"","",50,40,"","",50,46,"","",1,9015,0.14,0.8,0.92,0.9304150943396228
"MDG","MG",2881.0,0.0,27936.0,"tsarahafatra",55192.0,46.873299,-19.846701,3,"","",1995.0,"","",7,0,"","",7,5,"","",7,2,"","",3,9061,0.0,0.7142857142857143,0.2857142857142857,0.7508663842895648
"MDG","MG",2876.0,0.0,27910.0,"tsarahonenana",55237.0,46.6339,-19.1222,3,"","",1996.0,"","",233,11,"","",233,86,"","",233,7,"","",3,8970,0.04721030042918455,0.36909871244635195,0.030042918454935622,0.3933424888682472
"MDG","MG",2881.0,0.0,27946.0,"tsaramasoandro",12909.0,46.417695,-19.52479667,3,"","",2015.0,"","",50,1,"","",50,0,"","",50,0,"","",1,9111,0.02,0.0,0.0,0.018867924528301886
"MDG","MG",2871.0,0.0,27888.0,"tsararano ambony",12884.0,46.3312878,-15.7030534,1,"","",2015.0,"","",50,0,"","",50,1,"","",50,3,"","",1,8909,0.0,0.02,0.06,0.07433962264150942
"MDG","MG",2872.0,0.0,27893.0,"tsaratanana",104124.0,46.316667,-18.066667,1,"","",2015.0,10.0,0.0,50,13,"","",50,1,"","",50,1,"","",1,855,0.26,0.02,0.02,0.27292830188679246
"MDG","MG",2881.0,0.0,27936.0,"tsaratanana",55193.0,47.6479775,-16.7918481,1,"","",1995.0,"","",118,1,"","",118,79,"","",118,5,"","",3,9073,0.00847457627118644,0.6694915254237288,0.0423728813559322,0.6473380736414875
"MDG","MG",2870.0,0.0,27886.0,"tsaratanana",12992.0,47.6479775,-16.7918481,1,"","",2015.0,"","",50,11,"","",50,2,"","",50,0,"","",1,8895,0.22,0.04,0.0,0.2369811320754717
"MDG","MG",2877.0,0.0,27914.0,"tsaratanana",104154.0,47.6479775,-16.7918481,1,"","",2015.0,10.0,0.0,50,1,"","",50,0,"","",50,1,"","",1,858,0.02,0.0,0.02,0.03735849056603773
"MDG","MG",2880.0,0.0,27930.0,"tsaratanana",12914.0,47.15,-15.8593096,1,"","",2015.0,"","",50,0,"","",50,4,"","",50,0,"","",1,9045,0.0,0.08,0.0,0.07547169811320754
"MDG","MG",2880.0,0.0,27931.0,"tsaratanana i",12949.0,47.6479775,-16.7918481,1,"","",2015.0,"","",50,0,"","",50,0,"","",50,0,"","",1,9051,0.0,0.0,0.0,0.0
"MDG","MG",2880.0,0.0,27931.0,"tsaratanana ii","",47.7690497,-15.8489579,3,"","sentinel site",2015.0,7.0,10.0,95,0,0.0,0.0,95,0,0.0,0.0,95,0,0.0,0.0,1,26351,0.0,0.0,0.0,0.0
"MDG","MG",2880.0,0.0,27931.0,"tsaratanana ii","",47.7690497,-15.8489579,3,"","sentinel site",2017.0,7.0,10.0,83,0,0.0,0.0,83,0,0.0,0.0,83,0,0.0,0.0,1,26353,0.0,0.0,0.0,0.0
"MDG","MG",2881.0,0.0,27936.0,"tsarazafy ii",55194.0,46.9632,-19.725201,3,"","",1995.0,"","",26,0,"","",26,21,"","",26,0,"","",3,9075,0.0,0.8076923076923077,0.0,0.7619738751814222
"MDG","MG",2881.0,0.0,27936.0,"tsarazaza",55195.0,46.761169,-19.66713,1,"","",1995.0,"","",54,0,"","",54,40,"","",54,1,"","",3,9067,0.0,0.7407407407407407,0.018518518518518517,0.7033413567305948
"MDG","MG",2878.0,0.0,27917.0,"tsiandevegna","",44.99275,-20.48380556,3,"","mapping",2014.0,10.0,14.0,50,1,0.0,0.0,50,0,0.0,0.0,50,0,0.0,0.0,1,26330,0.02,0.0,0.0,0.018867924528301886
"MDG","MG",2867.0,0.0,27871.0,"tsianisiha",12987.0,43.58461833,-22.899875,3,"","",2015.0,"","",50,0,"","",50,0,"","",50,0,"","",1,8861,0.0,0.0,0.0,0.0
"MDG","MG",2871.0,0.0,27889.0,"tsilakanina",12889.0,46.86140167,-15.86498167,3,"","",2015.0,"","",50,0,"","",50,0,"","",50,0,"","",1,8913,0.0,0.0,0.0,0.0
"MDG","MG",2878.0,0.0,27916.0,"tsimafana",12839.0,44.58375167,-19.72197667,3,"","",2015.0,"","",50,0,"","",50,0,"","",50,0,"","",1,9001,0.0,0.0,0.0,0.0
"MDG","MG",2881.0,0.0,27946.0,"tsinjoarivo",55224.0,47.680641,-19.636681,1,"","",1995.0,"","",115,3,"","",115,24,"","",115,2,"","",3,9114,0.02608695652173913,0.20869565217391303,0.017391304347826087,0.2290011180877443
"MDG","MG",2871.0,0.0,27887.0,"tsinjorano ii",12764.0,46.954182,-15.31049,1,"","",2015.0,"","",50,0,"","",50,1,"","",50,0,"","",1,8902,0.0,0.02,0.0,0.018867924528301886
"MDG","MG",2867.0,0.0,27870.0,"tsongobory",12982.0,44.322473,-23.5303938,1,"","",2015.0,"","",50,0,"","",50,19,"","",50,17,"","",1,8855,0.0,0.38,0.34,0.5573584905660377
"MDG","MG",2866.0,0.0,27860.0,"vahavola",12779.0,46.3166667,-25.1499999,3,"","",2015.0,"","",50,2,"","",50,7,"","",50,5,"","",1,8826,0.04,0.14,0.1,0.24241509433962263
"MDG","MG",2871.0,0.0,27892.0,"vilanandro",104219.0,45.4333307,-16.4944798,1,"","",2015.0,10.0,0.0,50,2,"","",50,0,"","",50,1,"","",1,879,0.04,0.0,0.02,0.055849056603773574
"MDG","MG",2864.0,0.0,27853.0,"vohilava",12954.0,49.82243,-17.07218,1,"","",2015.0,"","",50,7,"","",50,23,"","",50,49,"","",1,8810,0.14,0.46,0.98,0.9346339622641507
"MDG","MG","","",0.0,"vohimena","",48.6333,-17.3333,4,"","",1982.0,0.0,99.0,22,2,"","",22,15,"","",22,7,"","",3,29505,0.09090909090909091,0.6818181818181818,0.3181818181818182,0.7573394950597506
"MDG","MG",2874.0,0.0,27900.0,"vohiparara","",47.341999,-21.211,3,"","",1990.0,1.0,10.0,49,3,"","",49,35,"","",49,28,"","",3,30592,0.061224489795918366,0.7142857142857143,0.5714285714285714,0.8349508459525511
"MDG","MG","","",0.0,"vohitsara","",48.496,-17.406,4,"","",1982.0,0.0,99.0,179,1,"","",179,132,"","",179,42,"","",3,29498,0.00558659217877095,0.7374301675977654,0.2346368715083799,0.754869264410608
