"iso3","iso2","admin1_id","admin2_id","iu_id","location","site_id","longitude","latitude","georeliability","location_type","survey_type","year","age_start","age_end","hk_examined","hk_positive","hk_perc_highinfection","hk_perc_moderateinfection","asc_examined","asc_positive","asc_perc_highinfection","asc_perc_moderateinfection","tt_examined","tt_positive","tt_perc_highinfection","tt_perc_moderateinfection","quality","sn","hk_prevalence","asc_prevalence","tt_prevalence","sth_prevalence"
"MWI","MW",2993.0,28954.0,28954.0,"amazing grace","",35.28772,-15.97972,4,"school","sentinel site",2016,6.0,11.0,118,0,0.0,0.0,118,0,0.0,0.0,118,0,0.0,0.0,1,26478,0.0,0.0,0.0,0.0
"MWI","MW",2993.0,28954.0,28954.0,"amazing grace pvt","",33.81958,-14.00754,3,"school","sentinel site",2012,5.0,12.0,121,0,0.0,0.0,121,0,0.0,0.0,121,0,0.0,0.0,1,26479,0.0,0.0,0.0,0.0
"MWI","MW",2993.0,28954.0,28954.0,"amazing grace pvt school","",35.28772,-15.97972,4,"school","sentinel site",2017,6.0,11.0,115,0,0.0,0.0,115,0,0.0,0.0,115,0,0.0,0.0,1,26480,0.0,0.0,0.0,0.0
"MWI","MW",2993.0,28954.0,28954.0,"amazinga grace pvt school","",35.28772,-15.97972,4,"school","sentinel site",2015,6.0,12.0,82,0,0.0,0.0,82,0,0.0,0.0,82,0,0.0,0.0,1,26481,0.0,0.0,0.0,0.0
"MWI","MW",2993.0,28954.0,28954.0,"amwiri","",33.4434647,-14.1569117,3,"school","mapping",2018,10.0,14.0,29,0,0.0,0.0,29,0,0.0,0.0,29,0,0.0,0.0,1,26482,0.0,0.0,0.0,0.0
"MWI","MW",2993.0,28954.0,28954.0,"amwiri primary","",33.443675,-14.157055,3,"school","mapping",2012,10.0,13.0,30,0,0.0,0.0,30,0,0.0,0.0,30,0,0.0,0.0,1,26418,0.0,0.0,0.0,0.0
"MWI","MW",2984.0,28945.0,28945.0,"andisen primary school","",34.910505,-15.676695,3,"school","mapping",2012,11.0,14.0,30,0,0.0,0.0,30,0,0.0,0.0,30,0,0.0,0.0,1,26976,0.0,0.0,0.0,0.0
"MWI","MW",2984.0,28945.0,28945.0,"andiseni","",34.9108137,-15.6764975,3,"","mapping",2018,10.0,14.0,30,1,0.0,0.0,30,0,0.0,0.0,30,0,0.0,0.0,1,26977,0.03333333333333333,0.0,0.0,0.03144654088050314
"MWI","MW",2999.0,28972.0,28972.0,"area 1b f p school","",33.994915,-11.40484,3,"","mapping",2012,10.0,14.0,30,0,0.0,0.0,30,0,0.0,0.0,30,0,0.0,0.0,1,26772,0.0,0.0,0.0,0.0
"MWI","MW",2999.0,28972.0,28972.0,"area 1b","",33.9944379,-11.4042938,3,"","mapping",2018,10.0,14.0,29,0,0.0,0.0,29,0,0.0,0.0,29,0,0.0,0.0,1,26773,0.0,0.0,0.0,0.0
"MWI","MW",2993.0,28954.0,28954.0,"athens l l pvt school","",33.7302771,-14.0073891,3,"school","mapping",2018,10.0,14.0,28,0,0.0,0.0,28,0,0.0,0.0,28,0,0.0,0.0,1,26483,0.0,0.0,0.0,0.0
"MWI","MW",3005.0,28966.0,28966.0,"badanjala","",33.8855098,-13.3349719,3,"school","mapping",2018,10.0,14.0,29,0,0.0,0.0,29,3,0.0,0.0,29,0,0.0,0.0,1,26653,0.0,0.10344827586206896,0.0,0.09759271307742354
"MWI","MW",2990.0,28951.0,28951.0,"baka","",33.92246407,-9.93539449,3,"school","mapping",2017,10.0,15.0,30,0,0.0,0.0,30,0,0.0,0.0,30,0,0.0,0.0,1,26751,0.0,0.0,0.0,0.0
"MWI","MW",3004.0,28965.0,28965.0,"banda","",34.6384332,-14.8219765,1,"school","mapping",2012,10.0,14.0,31,2,0.0,0.0,31,0,0.0,0.0,31,0,0.0,0.0,1,26611,0.06451612903225806,0.0,0.0,0.06086427267194156
"MWI","MW",2989.0,28950.0,28950.0,"banga school","",34.2751622,-13.70627075,3,"school","mapping",2017,10.0,14.0,29,0,0.0,0.0,29,0,0.0,0.0,29,0,0.0,0.0,1,26374,0.0,0.0,0.0,0.0
"MWI","MW",3004.0,28965.0,28965.0,"bangala p","",34.68623,-14.84588,3,"school","mapping",2012,10.0,14.0,30,0,0.0,0.0,30,0,0.0,0.0,30,0,0.0,0.0,1,26612,0.0,0.0,0.0,0.0
"MWI","MW",2984.0,28945.0,28945.0,"bangwe catholic","",35.088245,-15.824605,3,"school","mapping",2012,10.0,14.0,30,3,0.0,0.0,30,0,0.0,0.0,30,0,0.0,0.0,1,26978,0.1,0.0,0.0,0.09433962264150943
"MWI","MW",2984.0,28945.0,28945.0,"bangwe catholic","",35.0886638,-15.824448199999999,3,"","mapping",2018,10.0,13.0,30,0,0.0,0.0,30,1,0.0,0.0,30,1,0.0,0.0,1,26979,0.0,0.03333333333333333,0.03333333333333333,0.06184486373165619
"MWI","MW",3007.0,28968.0,28968.0,"bawa","",33.58571532,-10.86806007,3,"school","mapping",2017,10.0,14.0,30,0,0.0,0.0,30,0,0.0,0.0,30,0,0.0,0.0,1,26913,0.0,0.0,0.0,0.0
"MWI","MW",3004.0,28965.0,28965.0,"bemvu","",34.7123128,-14.8766208,3,"school","mapping",2018,10.0,14.0,30,0,0.0,0.0,30,1,0.0,0.0,30,0,0.0,0.0,1,26613,0.0,0.03333333333333333,0.0,0.03144654088050314
"MWI","MW",3007.0,28968.0,28968.0,"betere jp school","",33.7180221,-11.05851826,3,"school","mapping",2017,10.0,13.0,30,0,0.0,0.0,30,0,0.0,0.0,30,0,0.0,0.0,1,26914,0.0,0.0,0.0,0.0
"MWI","MW",3007.0,28968.0,28968.0,"bethel mission pvt","",33.8485036,-11.02249546,3,"school","mapping",2017,10.0,14.0,19,0,0.0,0.0,19,0,0.0,0.0,19,0,0.0,0.0,1,26915,0.0,0.0,0.0,0.0
"MWI","MW",3004.0,28965.0,28965.0,"bilila","",34.842355,-14.821825,3,"school","mapping",2012,10.0,14.0,30,0,0.0,0.0,30,0,0.0,0.0,30,0,0.0,0.0,1,26614,0.0,0.0,0.0,0.0
"MWI","MW",2992.0,28953.0,28953.0,"bishop biggers","",34.73677,-12.0635,3,"school","mapping",2015,15.0,16.0,11,0,0.0,0.0,11,0,0.0,0.0,11,0,0.0,0.0,1,26720,0.0,0.0,0.0,0.0
"MWI","MW",2993.0,28954.0,28954.0,"biwi lea school","",33.7905631,-14.0034658,3,"school","mapping",2018,10.0,14.0,30,6,0.0,0.0,30,2,0.0,0.0,30,1,0.0,0.0,1,26484,0.2,0.06666666666666667,0.03333333333333333,0.2624737945492663
"MWI","MW",2984.0,28945.0,28945.0,"blantyre girls primary","",35.0167866,-15.7666707,1,"school","mapping",2012,10.0,14.0,30,2,0.0,0.0,30,0,0.0,0.0,30,0,0.0,0.0,1,26980,0.06666666666666667,0.0,0.0,0.06289308176100628
"MWI","MW",3006.0,28967.0,28967.0,"bona","",35.602501,-15.53115,3,"","",2002,9.0,10.0,60,2,"","",60,0,"","",60,0,"","",2,29200,0.03333333333333333,0.0,0.0,0.03144654088050314
"MWI","MW",3006.0,28967.0,28967.0,"bona primary school","",35.60316695,-15.53212591,3,"school","mapping",2017,10.0,14.0,29,0,0.0,0.0,29,0,0.0,0.0,29,0,0.0,0.0,1,27206,0.0,0.0,0.0,0.0
"MWI","MW",3004.0,28965.0,28965.0,"bonongwe","",34.8102917,-15.0487313,3,"school","mapping",2018,10.0,14.0,29,0,0.0,0.0,29,3,0.0,0.0,29,0,0.0,0.0,1,26615,0.0,0.10344827586206896,0.0,0.09759271307742354
"MWI","MW",3002.0,28963.0,28963.0,"bowa","",34.09006,-12.5695,3,"school","mapping",2013,10.0,13.0,30,0,0.0,0.0,30,13,0.16670000000000001,0.2667,30,0,0.0,0.0,1,26596,0.0,0.43333333333333335,0.0,0.40880503144654085
"MWI","MW",3002.0,28963.0,28963.0,"bowa",13251.0,34.09006,-12.5695,3,"","",2013,"","",30,2,"","",30,0,"","",30,0,"","",1,9917,0.06666666666666667,0.0,0.0,0.06289308176100628
"MWI","MW",2983.0,28944.0,28944.0,"bvumo","",35.02131103,-14.90433665,3,"school","mapping",2018,10.0,14.0,29,0,0.0,0.0,29,0,0.0,0.0,29,0,0.0,0.0,1,26934,0.0,0.0,0.0,0.0
"MWI","MW",3007.0,28968.0,28968.0,"bwang`ombe school","",34.12697201,-10.82724343,3,"school","mapping",2017,10.0,14.0,16,0,0.0,0.0,16,0,0.0,0.0,16,0,0.0,0.0,1,26916,0.0,0.0,0.0,0.0
"MWI","MW",3005.0,28966.0,28966.0,"chadaka","",34.0540291,-13.4195029,3,"school","mapping",2018,10.0,14.0,30,3,0.0,0.0,30,3,0.0,0.0,30,1,0.0333,0.0,1,26654,0.1,0.1,0.03333333333333333,0.20471698113207545
"MWI","MW",2996.0,28957.0,28957.0,"chafuta","",33.007297,-13.65466719,3,"school","mapping",2017,10.0,13.0,30,0,0.0,0.0,30,0,0.0,0.0,30,0,0.0,0.0,1,26575,0.0,0.0,0.0,0.0
"MWI","MW",2991.0,28952.0,28952.0,"chakhala school","",33.3514492,-13.32334699,3,"school","mapping",2017,10.0,14.0,30,0,0.0,0.0,30,0,0.0,0.0,30,0,0.0,0.0,1,26396,0.0,0.0,0.0,0.0
"MWI","MW",3005.0,28966.0,28966.0,"chakulanj","",33.891555,-13.10533,3,"school","mapping",2012,11.0,16.0,30,2,0.0,0.0,30,0,0.0,0.0,30,0,0.0,0.0,1,26655,0.06666666666666667,0.0,0.0,0.06289308176100628
"MWI","MW",2991.0,28952.0,28952.0,"chalizya school","",33.65085271,-12.85438511,3,"school","mapping",2017,10.0,14.0,27,0,0.0,0.0,27,0,0.0,0.0,27,0,0.0,0.0,1,26397,0.0,0.0,0.0,0.0
"MWI","MW",3010.0,28971.0,28971.0,"chalomwe lea","",35.34376,-15.4235,3,"school","mapping",2013,10.0,14.0,30,2,0.06670000000000001,0.0,30,2,0.0,0.06670000000000001,30,0,0.0,0.0,1,27246,0.06666666666666667,0.06666666666666667,0.0,0.12159329140461214
"MWI","MW",3010.0,28971.0,28971.0,"chalomwe lea",13321.0,35.34376,-15.4235,3,"","",2013,"","",30,0,"","",30,0,"","",30,0,"","",1,9997,0.0,0.0,0.0,0.0
"MWI","MW",2991.0,28952.0,28952.0,"chalowa school","",33.36681958,-13.07601781,3,"school","mapping",2017,10.0,14.0,30,0,0.0,0.0,30,0,0.0,0.0,30,0,0.0,0.0,1,26398,0.0,0.0,0.0,0.0
"MWI","MW",2999.0,28972.0,28972.0,"chamalaza","",34.0423267,-11.3753795,3,"","mapping",2018,10.0,13.0,28,0,0.0,0.0,28,0,0.0,0.0,28,0,0.0,0.0,1,26774,0.0,0.0,0.0,0.0
"MWI","MW",2999.0,28972.0,28972.0,"chamalaza f.p. school","",34.0425,-11.3754,3,"","mapping",2012,10.0,15.0,30,0,0.0,0.0,30,0,0.0,0.0,30,0,0.0,0.0,1,26775,0.0,0.0,0.0,0.0
"MWI","MW",2991.0,28952.0,28952.0,"chamatete school","",33.36653028,-13.17969884,3,"school","mapping",2017,10.0,14.0,30,0,0.0,0.0,30,1,0.0,0.0,30,0,0.0,0.0,1,26399,0.0,0.03333333333333333,0.0,0.03144654088050314
"MWI","MW",2999.0,28972.0,28972.0,"champhamba","",33.6793492,-11.5106816,3,"school","mapping",2018,10.0,14.0,30,4,0.0,0.0,30,4,0.0,0.0,30,0,0.0,0.0,1,26776,0.13333333333333333,0.13333333333333333,0.0,0.23480083857442344
"MWI","MW",2999.0,28973.0,28973.0,"champhamba primary","",33.679305,-11.510715,3,"school","mapping",2012,10.0,14.0,30,3,0.0,0.0,30,2,0.0,0.0,30,0,0.0,0.0,1,26834,0.1,0.06666666666666667,0.0,0.15094339622641512
"MWI","MW",3007.0,28968.0,28968.0,"chandamale school","",33.84431,-11.01719,3,"school","mapping",2017,10.0,14.0,29,0,0.0,0.0,29,0,0.0,0.0,29,0,0.0,0.0,1,26917,0.0,0.0,0.0,0.0
"MWI","MW",2991.0,28952.0,28952.0,"changuluwe","",33.31709009,-13.09799603,3,"school","mapping",2017,10.0,14.0,30,0,0.0,0.0,30,0,0.0,0.0,30,0,0.0,0.0,1,26400,0.0,0.0,0.0,0.0
"MWI","MW",2991.0,28952.0,28952.0,"chanjobvu school","",33.45086978,-12.71146134,3,"school","mapping",2017,10.0,15.0,30,0,0.0,0.0,30,0,0.0,0.0,30,0,0.0,0.0,1,26401,0.0,0.0,0.0,0.0
"MWI","MW",3005.0,28966.0,28966.0,"chanjoka","",34.01329097,-13.19961059,3,"school","mapping",2018,10.0,14.0,30,0,0.0,0.0,30,0,0.0,0.0,30,0,0.0,0.0,1,26656,0.0,0.0,0.0,0.0
"MWI","MW",2993.0,28954.0,28954.0,"chankhandwe f.p. school","",33.6582,-14.26648,3,"school","mapping",2012,10.0,13.0,30,3,0.0,0.0,30,0,0.0,0.0,30,0,0.0,0.0,1,26419,0.1,0.0,0.0,0.09433962264150943
"MWI","MW",2993.0,28954.0,28954.0,"chankhandwe lea","",33.7291496,-14.0072023,3,"school","mapping",2018,10.0,14.0,30,0,0.0,0.0,30,2,0.0,0.0,30,0,0.0,0.0,1,26485,0.0,0.06666666666666667,0.0,0.06289308176100628
"MWI","MW",2999.0,28973.0,28973.0,"chankhanga f.p.","",33.792245,-11.23042,3,"school","mapping",2012,11.0,20.0,30,2,0.0,0.0,30,0,0.0,0.0,30,0,0.0,0.0,1,26835,0.06666666666666667,0.0,0.0,0.06289308176100628
"MWI","MW",3002.0,28963.0,28963.0,"chanthomba","",34.25936,-12.86074,3,"school","mapping",2013,10.0,14.0,30,0,0.0,0.0,30,3,0.0,0.1,30,0,0.0,0.0,1,26597,0.0,0.1,0.0,0.09433962264150943
"MWI","MW",3002.0,28963.0,28963.0,"chanthomba",13252.0,34.25936,-12.86074,3,"","",2013,"","",30,0,"","",30,0,"","",30,0,"","",1,9924,0.0,0.0,0.0,0.0
"MWI","MW",3007.0,28968.0,28968.0,"chanyoli school","",33.73190703,-11.03588406,3,"school","mapping",2017,10.0,14.0,30,0,0.0,0.0,30,0,0.0,0.0,30,0,0.0,0.0,1,26918,0.0,0.0,0.0,0.0
"MWI","MW",2999.0,28972.0,28972.0,"chasamba","",33.41424583,-11.2048637,3,"school","mapping",2018,10.0,14.0,30,0,0.0,0.0,30,0,0.0,0.0,30,0,0.0,0.0,1,26777,0.0,0.0,0.0,0.0
"MWI","MW",2999.0,28973.0,28973.0,"chasamba","",33.414,-11.204545,3,"school","mapping",2012,10.0,14.0,30,0,0.0,0.0,30,0,0.0,0.0,30,0,0.0,0.0,1,26836,0.0,0.0,0.0,0.0
"MWI","MW",2991.0,28952.0,28952.0,"chasato school","",33.63862445,-13.21406633,3,"school","mapping",2017,10.0,13.0,30,0,0.0,0.0,30,0,0.0,0.0,30,0,0.0,0.0,1,26402,0.0,0.0,0.0,0.0
"MWI","MW",2991.0,28952.0,28952.0,"chatalala school","",33.48865092,-13.32473217,3,"school","mapping",2017,6.0,11.0,117,0,0.0,0.0,119,0,0.0,0.0,119,0,0.0,0.0,1,26403,0.0,0.0,0.0,0.0
"MWI","MW",3004.0,28965.0,28965.0,"chauta","",34.692836,-14.6413589,3,"school","mapping",2018,10.0,14.0,30,0,0.0,0.0,30,0,0.0,0.0,30,0,0.0,0.0,1,26616,0.0,0.0,0.0,0.0
"MWI","MW",2984.0,28945.0,28945.0,"chaweta","",35.28772,-15.97972,3,"","sentinel site",2015,6.0,11.0,91,6,0.0,0.0,91,0,0.0,0.0,91,0,0.0,0.0,1,26981,0.06593406593406594,0.0,0.0,0.06220194899440182
"MWI","MW",2984.0,28945.0,28945.0,"chaweta","",35.28772,-15.97972,3,"","sentinel site",2017,6.0,11.0,115,0,0.0,0.0,115,0,0.0,0.0,115,0,0.0,0.0,1,26983,0.0,0.0,0.0,0.0
"MWI","MW",2984.0,28945.0,28945.0,"chaweta","",35.28772,-15.97972,3,"","sentinel site",2016,6.0,12.0,120,0,0.0,0.0,120,0,0.0,0.0,120,0,0.0,0.0,1,26982,0.0,0.0,0.0,0.0
"MWI","MW",2984.0,28945.0,28945.0,"chaweta lea","",35.09837,-15.67272,3,"","sentinel site",2012,5.0,10.0,123,0,0.0,0.0,123,0,0.0,0.0,123,0,0.0,0.0,1,26984,0.0,0.0,0.0,0.0
"MWI","MW",2984.0,28945.0,28945.0,"chaweta lea school","",35.09837,-15.67272,3,"","sentinel site",2014,5.0,12.0,66,0,0.0,0.0,66,0,0.0,0.0,66,0,0.0,0.0,1,26985,0.0,0.0,0.0,0.0
"MWI","MW",2993.0,28954.0,28954.0,"chejika pvt","",33.7778434,-13.9419258,3,"school","mapping",2018,10.0,14.0,30,2,0.0,0.0,30,4,0.0,0.0,30,0,0.0,0.0,1,26486,0.06666666666666667,0.13333333333333333,0.0,0.180293501048218
"MWI","MW",3001.0,28962.0,28962.0,"chendasi","",34.04168,-11.55026,3,"school","mapping",2013,10.0,13.0,30,1,0.0333,0.0,30,0,0.0,0.0,30,0,0.0,0.0,1,26898,0.03333333333333333,0.0,0.0,0.03144654088050314
"MWI","MW",3001.0,28962.0,28962.0,"chendasi",13236.0,34.04168,-11.55026,3,"","",2013,"","",30,0,"","",30,0,"","",30,0,"","",1,9903,0.0,0.0,0.0,0.0
"MWI","MW",2987.0,28948.0,28948.0,"chibale","",33.43485348,-9.620210437,3,"school","mapping",2017,10.0,14.0,30,0,0.0,0.0,30,5,0.0,0.0,30,0,0.0,0.0,1,26730,0.0,0.16666666666666666,0.0,0.1572327044025157
"MWI","MW",2993.0,28954.0,28954.0,"chibubu","",33.891604,-14.1285698,3,"school","mapping",2018,10.0,13.0,30,1,0.0,0.0,30,2,0.0,0.0,30,0,0.0,0.0,1,26487,0.03333333333333333,0.06666666666666667,0.0,0.09224318658280922
"MWI","MW",3005.0,28966.0,28966.0,"chibweya","",34.023925,-13.487225,3,"school","mapping",2012,10.0,14.0,31,2,0.0,0.0,31,5,0.0,0.0,31,0,0.0,0.0,1,26657,0.06451612903225806,0.16129032258064516,0.0,0.20320813617890165
"MWI","MW",2984.0,28945.0,28945.0,"chichiri","",35.0437458,-15.802885,3,"","mapping",2018,10.0,13.0,30,0,0.0,0.0,30,1,0.0,0.0,30,0,0.0,0.0,1,26986,0.0,0.03333333333333333,0.0,0.03144654088050314
"MWI","MW",2984.0,28945.0,28945.0,"chichiri primary","",35.04384,-15.803,3,"school","mapping",2012,10.0,14.0,30,0,0.0,0.0,30,0,0.0,0.0,30,0,0.0,0.0,1,26987,0.0,0.0,0.0,0.0
"MWI","MW",2983.0,28944.0,28944.0,"chidalala","",34.97220987,-15.02661075,3,"school","mapping",2018,10.0,14.0,30,1,0.0,0.0,30,0,0.0,0.0,30,0,0.0,0.0,1,26936,0.03333333333333333,0.0,0.0,0.03144654088050314
"MWI","MW",2983.0,28944.0,28944.0,"chidalala","",34.97220987,-15.02661075,3,"school","mapping",2012,10.0,14.0,30,0,0.0,0.0,30,0,0.0,0.0,30,0,0.0,0.0,1,26935,0.0,0.0,0.0,0.0
"MWI","MW",2985.0,28946.0,28946.0,"chidimba","",34.62314942,-16.32405833,3,"school","mapping",2017,11.0,14.0,26,0,0.0,0.0,26,0,0.0,0.0,26,0,0.0,0.0,1,27057,0.0,0.0,0.0,0.0
"MWI","MW",2991.0,28952.0,28952.0,"chidongo school","",33.37602183,-13.04369691,3,"school","mapping",2017,10.0,14.0,30,0,0.0,0.0,30,0,0.0,0.0,30,0,0.0,0.0,1,26404,0.0,0.0,0.0,0.0
"MWI","MW",2983.0,28944.0,28944.0,"chiendausiku","",35.0801068,-15.0185542,1,"","",2002,9.0,10.0,53,0,"","",53,0,"","",53,0,"","",2,29217,0.0,0.0,0.0,0.0
"MWI","MW",3004.0,28965.0,28965.0,"chigodi","",34.54067065,-14.49115068,3,"school","mapping",2018,10.0,14.0,30,0,0.0,0.0,30,0,0.0,0.0,30,0,0.0,0.0,1,26617,0.0,0.0,0.0,0.0
"MWI","MW",2993.0,28954.0,28954.0,"chigodi primary school","",34.05754,-14.06694,3,"school","mapping",2012,11.0,14.0,30,0,0.0,0.0,30,2,0.0,0.0,30,0,0.0,0.0,1,26420,0.0,0.06666666666666667,0.0,0.06289308176100628
"MWI","MW",3008.0,28969.0,28969.0,"chigolo","",34.4887,-13.602640000000001,3,"school","mapping",2013,10.0,14.0,29,0,0.0,0.0,30,0,0.0,0.0,29,0,0.0,0.0,1,26705,0.0,0.0,0.0,0.0
"MWI","MW",2984.0,28945.0,28945.0,"chigombe","",34.8704595,-15.5988583,3,"","mapping",2018,10.0,14.0,30,2,0.0,0.0,30,2,0.0,0.0,30,0,0.0,0.0,1,26988,0.06666666666666667,0.06666666666666667,0.0,0.12159329140461214
"MWI","MW",3008.0,28969.0,28969.0,"chigombe","",34.43339,-13.77445,3,"school","mapping",2013,9.0,14.0,30,7,0.2333,0.0,30,1,0.0,0.0333,30,0,0.0,0.0,1,26706,0.23333333333333334,0.03333333333333333,0.0,0.2442348008385744
"MWI","MW",3008.0,28969.0,28969.0,"chigombe",13307.0,34.43339,-13.77445,3,"","",2013,"","",30,0,"","",30,0,"","",30,0,"","",1,9989,0.0,0.0,0.0,0.0
"MWI","MW",2997.0,28958.0,28958.0,"chigombe f.p school","",35.61485278,-16.06102387,3,"school","mapping",2017,10.0,14.0,30,0,0.0,0.0,30,0,0.0,0.0,30,0,0.0,0.0,1,27142,0.0,0.0,0.0,0.0
"MWI","MW",2984.0,28945.0,28945.0,"chigombe l e a","",35.00854,-15.7666707,1,"school","mapping",2012,11.0,14.0,30,0,0.0,0.0,30,0,0.0,0.0,30,0,0.0,0.0,1,26989,0.0,0.0,0.0,0.0
"MWI","MW",2996.0,28957.0,28957.0,"chigumba school","",33.24306801,-13.82227418,3,"school","mapping",2017,10.0,14.0,30,0,0.0,0.0,30,0,0.0,0.0,30,0,0.0,0.0,1,26576,0.0,0.0,0.0,0.0
"MWI","MW",2984.0,"",3694.0,"chigumula","",35.054516,-15.860884,4,"","",2002,9.0,10.0,59,5,"","",59,3,"","",59,0,"","",2,29210,0.0847457627118644,0.05084745762711865,0.0,0.12385293750982422
"MWI","MW",2983.0,28944.0,28944.0,"chigumula","",35.0677063,-14.9974329,3,"school","mapping",2018,10.0,13.0,30,0,0.0,0.0,30,0,0.0,0.0,30,0,0.0,0.0,1,26937,0.0,0.0,0.0,0.0
"MWI","MW",2983.0,28944.0,28944.0,"chigumula primary school","",35.06793,-14.99746,3,"school","mapping",2012,10.0,14.0,30,0,0.0,0.0,30,0,0.0,0.0,30,0,0.0,0.0,1,26938,0.0,0.0,0.0,0.0
"MWI","MW",3003.0,28964.0,28964.0,"chigwamafumu school","",35.15659,-16.5237,3,"school","mapping",2017,10.0,14.0,30,0,0.0,0.0,30,3,0.0,0.0,30,0,0.0,0.0,1,27191,0.0,0.1,0.0,0.09433962264150943
"MWI","MW",2988.0,28949.0,28949.0,"chigwenembe school","",34.18887265,-14.3460171,3,"school","mapping",2017,10.0,14.0,30,0,0.0,0.0,30,0,0.0,0.0,30,0,0.0,0.0,1,26354,0.0,0.0,0.0,0.0
"MWI","MW",3004.0,28965.0,28965.0,"chikande1","",34.910105,-14.779465,3,"school","mapping",2012,10.0,14.0,44,2,0.0,0.0,44,0,0.0,0.0,44,0,0.0,0.0,1,26618,0.045454545454545456,0.0,0.0,0.04288164665523156
"MWI","MW",2986.0,28947.0,28947.0,"chikangulu","",35.2803807,-15.7838358,3,"school","mapping",2018,10.0,14.0,30,1,0.0,0.0,30,4,0.0,0.0,30,0,0.0,0.0,1,27073,0.03333333333333333,0.13333333333333333,0.0,0.15303983228511528
"MWI","MW",2986.0,28947.0,28947.0,"chikangulu","",35.2803807,-15.7838358,3,"school","mapping",2012,11.0,14.0,30,0,0.0,0.0,30,0,0.0,0.0,30,0,0.0,0.0,1,27072,0.0,0.0,0.0,0.0
"MWI","MW",3005.0,28966.0,28966.0,"chikhota","",33.88432,-13.15088,3,"school","sentinel site",2012,6.0,10.0,120,2,0.0,0.0,120,1,0.0,0.0,120,0,0.0,0.0,1,26660,0.016666666666666666,0.008333333333333333,0.0,0.023453878406708595
"MWI","MW",3005.0,28966.0,28966.0,"chikhota","",33.88432,-13.15088,3,"school","sentinel site",2015,6.0,11.0,79,3,0.0,0.0,79,0,0.0,0.0,79,0,0.0,0.0,1,26658,0.0379746835443038,0.0,0.0,0.03582517315500358
"MWI","MW",3005.0,28966.0,28966.0,"chikhota","",33.88432,-13.15088,3,"school","sentinel site",2017,6.0,11.0,112,1,0.0,0.0,112,0,0.0,0.0,112,0,0.0,0.0,1,26662,0.008928571428571428,0.0,0.0,0.008423180592991913
"MWI","MW",3005.0,28966.0,28966.0,"chikhota","",33.88432,-13.15088,3,"school","sentinel site",2016,6.0,11.0,119,0,0.0,0.0,119,0,0.0,0.0,119,0,0.0,0.0,1,26659,0.0,0.0,0.0,0.0
"MWI","MW",3005.0,28966.0,28966.0,"chikhota","",33.88432,-13.15088,3,"school","sentinel site",2014,6.0,15.0,89,0,0.0,0.0,89,0,0.0,0.0,89,0,0.0,0.0,1,26661,0.0,0.0,0.0,0.0
"MWI","MW",2993.0,28954.0,28954.0,"chikhutu","",33.6821306,-13.748348,3,"school","mapping",2018,10.0,14.0,30,0,0.0,0.0,30,2,0.0,0.0,30,0,0.0,0.0,1,26488,0.0,0.06666666666666667,0.0,0.06289308176100628
"MWI","MW",2993.0,28954.0,28954.0,"chikhutu primary full pr","",33.68216,-13.74844,3,"school","mapping",2012,11.0,15.0,30,2,0.0,0.0,30,0,0.0,0.0,30,0,0.0,0.0,1,26421,0.06666666666666667,0.0,0.0,0.06289308176100628
"MWI","MW",2985.0,28946.0,28946.0,"chikhwawa","",34.801694499999996,-16.0437784,1,"","",2004,"","",1642,324,"","",0,0,"","",0,0,"","",2,29885,0.19732034104750304,"","",""
"MWI","MW",3009.0,28970.0,28970.0,"chikolombe school","",35.30366205,-16.06102984,3,"school","mapping",2017,10.0,14.0,30,0,0.0,0.0,30,0,0.0,0.0,30,0,0.0,0.0,1,27226,0.0,0.0,0.0,0.0
"MWI","MW",2988.0,28949.0,28949.0,"chikwawa school","",34.57111055,-14.28461726,3,"school","mapping",2017,10.0,12.0,30,0,0.0,0.0,30,0,0.0,0.0,30,0,0.0,0.0,1,26355,0.0,0.0,0.0,0.0
"MWI","MW",2983.0,28944.0,28944.0,"chilanga","",35.1842756,-14.9689336,3,"school","mapping",2018,10.0,14.0,30,2,0.0,0.0,30,3,0.0,0.0,30,0,0.0,0.0,1,26940,0.06666666666666667,0.1,0.0,0.15094339622641512
"MWI","MW",2983.0,28944.0,28944.0,"chilanga","",35.1842756,-14.9689336,3,"school","mapping",2012,10.0,14.0,30,0,0.0,0.0,30,0,0.0,0.0,30,0,0.0,0.0,1,26939,0.0,0.0,0.0,0.0
"MWI","MW",3003.0,28964.0,28964.0,"chilikha school","",34.91195011,-16.67911374,3,"school","mapping",2017,10.0,14.0,30,0,0.0,0.0,30,1,0.0,0.0,30,0,0.0,0.0,1,27192,0.0,0.03333333333333333,0.0,0.03144654088050314
"MWI","MW",2989.0,28950.0,28950.0,"chilima school","",33.81720762,-13.57912823,3,"school","mapping",2017,10.0,14.0,15,0,0.0,0.0,15,0,0.0,0.0,15,0,0.0,0.0,1,26375,0.0,0.0,0.0,0.0
"MWI","MW",2993.0,28954.0,28954.0,"chilinda","",33.5623116,-14.0951633,3,"school","mapping",2018,10.0,14.0,30,0,0.0,0.0,30,3,0.0,0.0,30,0,0.0,0.0,1,26489,0.0,0.1,0.0,0.09433962264150943
"MWI","MW",2984.0,28945.0,28945.0,"chilomoni l.e.a.","",34.9823534,-15.7792844,1,"school","mapping",2012,10.0,14.0,31,0,0.0,0.0,30,0,0.0,0.0,30,0,0.0,0.0,1,26990,0.0,0.0,0.0,0.0
"MWI","MW",2984.0,28945.0,28945.0,"chilomoni","",34.97847382,-15.77853196,3,"","mapping",2018,10.0,13.0,30,0,0.0,0.0,30,0,0.0,0.0,30,0,0.0,0.0,1,26991,0.0,0.0,0.0,0.0
"MWI","MW",3001.0,28962.0,28962.0,"chilundwe","",34.16468,-11.614090000000001,3,"school","mapping",2013,10.0,13.0,30,1,0.0333,0.0,30,0,0.0,0.0,30,0,0.0,0.0,1,26899,0.03333333333333333,0.0,0.0,0.03144654088050314
"MWI","MW",3001.0,28962.0,28962.0,"chilundwe",13237.0,34.16468,-11.614090000000001,3,"","",2013,"","",30,3,"","",30,0,"","",30,0,"","",1,9897,0.1,0.0,0.0,0.09433962264150943
"MWI","MW",3008.0,28969.0,28969.0,"chiluwa 1","",34.27528,-13.45759,3,"school","mapping",2013,10.0,14.0,30,0,0.0,0.0,30,1,0.0,0.0333,30,0,0.0,0.0,1,26707,0.0,0.03333333333333333,0.0,0.03144654088050314
"MWI","MW",3008.0,28969.0,28969.0,"chiluwa 1",13308.0,34.27528,-13.45759,3,"","",2013,"","",30,0,"","",30,0,"","",30,0,"","",1,9979,0.0,0.0,0.0,0.0
"MWI","MW",2992.0,28953.0,28953.0,"chima","",34.73281,-12.09031,3,"school","mapping",2015,10.0,14.0,25,0,0.0,0.0,25,0,0.0,0.0,25,0,0.0,0.0,1,26721,0.0,0.0,0.0,0.0
"MWI","MW",3002.0,28963.0,28963.0,"chimalire","",34.114349,-13.365533,3,"","",2002,9.0,10.0,59,0,"","",59,0,"","",59,0,"","",2,29196,0.0,0.0,0.0,0.0
"MWI","MW",2993.0,28954.0,28954.0,"chimanato primary school","",33.74147,-14.10312,3,"school","sentinel site",2014,5.0,14.0,112,0,0.0,0.0,112,0,0.0,0.0,112,0,0.0,0.0,1,26490,0.0,0.0,0.0,0.0
"MWI","MW",2993.0,28954.0,28954.0,"chimanazo","",33.74147,-14.10312,3,"school","sentinel site",2017,6.0,11.0,108,0,0.0,0.0,107,0,0.0,0.0,107,0,0.0,0.0,1,26492,0.0,0.0,0.0,0.0
"MWI","MW",2993.0,28954.0,28954.0,"chimanazo","",33.74147,-14.10312,3,"school","sentinel site",2016,6.0,12.0,95,0,0.0,0.0,95,0,0.0,0.0,95,0,0.0,0.0,1,26494,0.0,0.0,0.0,0.0
"MWI","MW",2993.0,28954.0,28954.0,"chimanazo","",33.74147,-14.10312,3,"school","sentinel site",2015,6.0,12.0,104,0,0.0,0.0,104,0,0.0,0.0,103,0,0.0,0.0,1,26493,0.0,0.0,0.0,0.0
"MWI","MW",2993.0,28954.0,28954.0,"chimanazo","",33.74147,-14.10312,3,"school","sentinel site",2012,6.0,10.0,125,0,0.0,0.0,125,0,0.0,0.0,125,0,0.0,0.0,1,26491,0.0,0.0,0.0,0.0
"MWI","MW",2990.0,28951.0,28951.0,"chimati school","","","",99,"school","",2017,10.0,14.0,30,0,0.0,0.0,30,0,0.0,0.0,30,0,0.0,0.0,1,26752,0.0,0.0,0.0,0.0
"MWI","MW",2988.0,28949.0,28949.0,"chimbiya","",34.158318,-14.288834,3,"","",2002,9.0,10.0,60,0,"","",60,0,"","",60,0,"","",2,29205,0.0,0.0,0.0,0.0
"MWI","MW",2995.0,28956.0,28956.0,"chimbiya","",35.075333,-13.7586,3,"","",2002,9.0,10.0,65,1,"","",65,0,"","",65,0,"","",2,29219,0.015384615384615385,0.0,0.0,0.014513788098693758
"MWI","MW",2983.0,28944.0,28944.0,"chimera","",35.20370636,-15.02901281,3,"school","mapping",2018,10.0,14.0,28,1,0.0,0.0,28,0,0.0,0.0,28,0,0.0,0.0,1,26941,0.03571428571428571,0.0,0.0,0.03369272237196765
"MWI","MW",2995.0,28956.0,28956.0,"chimesya","",35.38555,-14.76386,3,"school","mapping",2013,10.0,14.0,29,0,0.0,0.0,29,5,0.0345,0.1379,29,0,0.0,0.0,1,27127,0.0,0.1724137931034483,0.0,0.16265452179570591
"MWI","MW",2995.0,28956.0,28956.0,"chimesya",13147.0,35.38555,-14.76386,3,"","",2013,"","",30,0,"","",30,0,"","",30,0,"","",1,9802,0.0,0.0,0.0,0.0
"MWI","MW",2986.0,28947.0,28947.0,"chimgala","",35.144125,-15.74703,3,"school","mapping",2012,11.0,14.0,30,0,0.0,0.0,30,0,0.0,0.0,30,0,0.0,0.0,1,27074,0.0,0.0,0.0,0.0
"MWI","MW",3002.0,28963.0,28963.0,"chimgonda","",34.0,-12.931686299999999,1,"school","mapping",2013,10.0,13.0,30,0,0.0,0.0,30,3,0.0333,0.06670000000000001,30,0,0.0,0.0,1,26598,0.0,0.1,0.0,0.09433962264150943
"MWI","MW",3002.0,28963.0,28963.0,"chimgonda",13253.0,34.0,-12.931686299999999,1,"","",2013,"","",30,0,"","",30,0,"","",30,0,"","",1,9920,0.0,0.0,0.0,0.0
"MWI","MW",2993.0,28954.0,28954.0,"chimgonera","",33.5504762,-14.1582764,3,"school","mapping",2018,10.0,14.0,28,0,0.0,0.0,28,0,0.0,0.0,28,0,0.0,0.0,1,26495,0.0,0.0,0.0,0.0
"MWI","MW",2993.0,28954.0,28954.0,"chimgonera primary","",33.550555,-14.158295,3,"school","mapping",2012,10.0,14.0,30,0,0.0,0.0,30,0,0.0,0.0,30,0,0.0,0.0,1,26422,0.0,0.0,0.0,0.0
"MWI","MW",2988.0,28949.0,28949.0,"chimkombero school","",34.4232492,-14.30317483,3,"school","mapping",2017,10.0,14.0,29,0,0.0,0.0,29,0,0.0,0.0,29,0,0.0,0.0,1,26356,0.0,0.0,0.0,0.0
"MWI","MW",3005.0,28966.0,28966.0,"chimphoyo","",34.016195,-13.23034,3,"school","mapping",2012,10.0,15.0,62,3,0.0,0.0,62,3,0.0,0.0,62,0,0.0,0.0,1,26663,0.04838709677419355,0.04838709677419355,0.0,0.08908762491901123
"MWI","MW",3005.0,28966.0,28966.0,"chimphoyo",13288.0,34.016195,-13.23034,3,"","",2012,"","",0,0,"","",31,2,"","",0,0,"","",1,9967,"",0.06451612903225806,"",""
"MWI","MW",3005.0,28966.0,28966.0,"chimphoyo",13287.0,34.016195,-13.23034,3,"","",2012,"","",31,1,"","",0,0,"","",31,0,"","",1,9955,0.03225806451612903,"",0.0,""
"MWI","MW",2996.0,28957.0,28957.0,"chimteka ii","",33.21433081,-13.77112129,3,"school","mapping",2017,10.0,14.0,30,0,0.0,0.0,30,1,0.0,0.0,30,0,0.0,0.0,1,26577,0.0,0.03333333333333333,0.0,0.03144654088050314
"MWI","MW",2993.0,"",3704.0,"chimutu","",33.776733,-13.948867,4,"","",2002,9.0,10.0,34,0,"","",34,4,"","",34,0,"","",2,29207,0.0,0.11764705882352941,0.0,0.11098779134295227
"MWI","MW",2993.0,28954.0,28954.0,"chimvite primary","",33.58151,-14.018665,3,"school","mapping",2012,10.0,13.0,30,0,0.0,0.0,30,0,0.0,0.0,30,0,0.0,0.0,1,26423,0.0,0.0,0.0,0.0
"MWI","MW",2984.0,28945.0,28945.0,"chimwakhunda","",35.0060298,-15.8248724,1,"school","mapping",2012,10.0,14.0,30,0,0.0,0.0,30,0,0.0,0.0,30,0,0.0,0.0,1,26992,0.0,0.0,0.0,0.0
"MWI","MW",3005.0,28966.0,28966.0,"chimwala","",33.95218666,-13.50740293,3,"school","mapping",2018,10.0,14.0,26,0,0.0,0.0,26,0,0.0,0.0,26,0,0.0,0.0,1,26664,0.0,0.0,0.0,0.0
"MWI","MW",3005.0,28966.0,28966.0,"chimwang'","",33.81467,-13.112795,3,"school","mapping",2012,10.0,15.0,33,2,0.0,0.0,33,0,0.0,0.0,33,0,0.0,0.0,1,26665,0.06060606060606061,0.0,0.0,0.05717552887364208
"MWI","MW",2986.0,28947.0,28947.0,"chimwankhunda","",35.24853389,-15.71297018,3,"school","mapping",2018,10.0,14.0,30,0,0.0,0.0,30,0,0.0,0.0,30,0,0.0,0.0,1,27076,0.0,0.0,0.0,0.0
"MWI","MW",2986.0,28947.0,28947.0,"chimwankhunda","",35.24853389,-15.71297018,3,"school","mapping",2012,11.0,14.0,30,0,0.0,0.0,30,0,0.0,0.0,30,0,0.0,0.0,1,27075,0.0,0.0,0.0,0.0
"MWI","MW",3004.0,28965.0,28965.0,"chimwano","",34.87212,-14.85381,3,"school","mapping",2012,10.0,14.0,30,0,0.0,0.0,30,0,0.0,0.0,30,0,0.0,0.0,1,26619,0.0,0.0,0.0,0.0
"MWI","MW",2991.0,"",3701.0,"chimwaye","",33.645649,-13.081833,4,"","",2002,9.0,10.0,49,1,"","",49,0,"","",49,0,"","",2,29211,0.02040816326530612,0.0,0.0,0.01925298421255294
"MWI","MW",2991.0,28952.0,28952.0,"chimwaye school","",33.66203598,-13.1145725,3,"school","mapping",2017,10.0,14.0,30,0,0.0,0.0,30,0,0.0,0.0,30,0,0.0,0.0,1,26405,0.0,0.0,0.0,0.0
"MWI","MW",3008.0,28969.0,28969.0,"chimweta","",34.44602,-13.77756,3,"school","mapping",2013,9.0,13.0,30,0,0.0,0.0,30,0,0.0,0.0,30,0,0.0,0.0,1,26708,0.0,0.0,0.0,0.0
"MWI","MW",3001.0,28962.0,28962.0,"chinguluwe","",34.21309,-11.56483,3,"school","mapping",2013,10.0,14.0,30,0,0.0,0.0,30,0,0.0,0.0,30,0,0.0,0.0,1,26900,0.0,0.0,0.0,0.0
"MWI","MW",3001.0,28962.0,28962.0,"chinguluwe",13238.0,34.21309,-11.56483,3,"","",2013,"","",30,5,"","",30,0,"","",30,0,"","",1,9901,0.16666666666666666,0.0,0.0,0.1572327044025157
"MWI","MW",2994.0,28955.0,28955.0,"chinguni school","",35.2687582,-15.07123651,3,"school","mapping",2017,10.0,14.0,25,0,0.0,0.0,25,0,0.0,0.0,25,0,0.0,0.0,1,27112,0.0,0.0,0.0,0.0
"MWI","MW",2991.0,28952.0,28952.0,"chinguwo school","",33.57175594,-13.17233899,3,"school","mapping",2017,10.0,14.0,28,0,0.0,0.0,28,0,0.0,0.0,28,0,0.0,0.0,1,26406,0.0,0.0,0.0,0.0
"MWI","MW",2988.0,28949.0,28949.0,"chinkhumbe school","",34.5281984,-14.21324566,3,"school","mapping",2017,10.0,14.0,30,0,0.0,0.0,30,0,0.0,0.0,30,0,0.0,0.0,1,26357,0.0,0.0,0.0,0.0
"MWI","MW",3010.0,28971.0,28971.0,"chinkhwangwa","",35.62106,-15.49754,3,"school","mapping",2013,10.0,13.0,30,1,0.0333,0.0,30,4,0.0333,0.1,30,0,0.0,0.0,1,27247,0.03333333333333333,0.13333333333333333,0.0,0.15303983228511528
"MWI","MW",3010.0,28971.0,28971.0,"chinkhwangwa",13322.0,35.62106,-15.49754,3,"","",2013,"","",31,0,"","",31,0,"","",31,0,"","",1,10006,0.0,0.0,0.0,0.0
"MWI","MW",2993.0,28954.0,28954.0,"chinsapo primary school","",33.731255,-14.01278,3,"school","mapping",2012,10.0,14.0,30,2,0.0,0.0,30,0,0.0,0.0,30,0,0.0,0.0,1,26424,0.06666666666666667,0.0,0.0,0.06289308176100628
"MWI","MW",2993.0,28954.0,28954.0,"chinsapo  lea school","",33.7313273,-14.0139398,3,"school","mapping",2018,10.0,14.0,28,2,0.0,0.0,28,2,0.0,0.0,28,0,0.0,0.0,1,26496,0.07142857142857142,0.07142857142857142,0.0,0.12995764343473235
"MWI","MW",2990.0,28951.0,28951.0,"chinsogholo school","",33.98408324,-10.08872625,3,"school","mapping",2017,10.0,15.0,29,0,0.0,0.0,29,0,0.0,0.0,29,0,0.0,0.0,1,26753,0.0,0.0,0.0,0.0
"MWI","MW",2999.0,28973.0,28973.0,"chinungu","",33.4934028,-12.0227407,3,"","mapping",2018,10.0,14.0,28,0,0.0,0.0,28,0,0.0,0.0,28,0,0.0,0.0,1,26837,0.0,0.0,0.0,0.0
"MWI","MW",3001.0,28962.0,28962.0,"chiomba jp","",34.04493,-11.98173,3,"school","mapping",2013,10.0,13.0,30,5,0.16670000000000001,0.0,30,3,0.06670000000000001,0.0333,30,0,0.0,0.0,1,26901,0.16666666666666666,0.1,0.0,0.23584905660377356
"MWI","MW",3001.0,28962.0,28962.0,"chiomba jp",13239.0,34.04493,-11.98173,3,"","",2013,"","",30,2,"","",30,0,"","",30,0,"","",1,9896,0.06666666666666667,0.0,0.0,0.06289308176100628
"MWI","MW",3008.0,28969.0,28969.0,"chionjeza fp","",34.29415,-13.49321,3,"school","mapping",2013,10.0,14.0,29,0,0.0,0.0,30,5,0.0,0.16670000000000001,29,0,0.0,0.0,1,26709,0.0,0.16666666666666666,0.0,0.1572327044025157
"MWI","MW",3008.0,28969.0,28969.0,"chionjeza fp",13310.0,34.29415,-13.49321,3,"","",2013,"","",29,0,"","",29,0,"","",29,0,"","",1,9981,0.0,0.0,0.0,0.0
"MWI","MW",2993.0,28954.0,28954.0,"chipala","",33.77256386,-13.90469789,3,"school","mapping",2018,10.0,14.0,30,0,0.0,0.0,30,0,0.0,0.0,30,0,0.0,0.0,1,26497,0.0,0.0,0.0,0.0
"MWI","MW",2993.0,28954.0,28954.0,"chipala primary school","",33.772475,-13.904685,3,"school","mapping",2012,10.0,14.0,30,0,0.0,0.0,30,0,0.0,0.0,30,0,0.0,0.0,1,26425,0.0,0.0,0.0,0.0
"MWI","MW",2999.0,28973.0,28973.0,"chipata","",33.5731643,-12.2982965,3,"","mapping",2018,10.0,14.0,30,2,0.0,0.0,30,0,0.0,0.0,30,0,0.0,0.0,1,26838,0.06666666666666667,0.0,0.0,0.06289308176100628
"MWI","MW",2999.0,28973.0,28973.0,"chipata primary","",33.573085,-12.298865,3,"school","mapping",2012,10.0,14.0,30,0,0.0,0.0,30,0,0.0,0.0,30,0,0.0,0.0,1,26839,0.0,0.0,0.0,0.0
"MWI","MW",2991.0,28952.0,28952.0,"chipata school","",33.55298601,-12.57062093,3,"school","mapping",2017,10.0,14.0,30,0,0.0,0.0,30,0,0.0,0.0,30,0,0.0,0.0,1,26407,0.0,0.0,0.0,0.0
"MWI","MW",3009.0,28970.0,28970.0,"chipho school","",35.2666487,-16.27433856,3,"school","mapping",2017,10.0,15.0,21,0,0.0,0.0,21,0,0.0,0.0,21,0,0.0,0.0,1,27227,0.0,0.0,0.0,0.0
"MWI","MW",3002.0,28963.0,28963.0,"chiphole","",34.20539,-12.728860000000001,3,"school","mapping",2013,10.0,13.0,30,0,0.0,0.0,30,4,0.06670000000000001,0.06670000000000001,30,0,0.0,0.0,1,26599,0.0,0.13333333333333333,0.0,0.12578616352201255
"MWI","MW",3002.0,28963.0,28963.0,"chiphole",13254.0,34.20539,-12.728860000000001,3,"","",2013,"","",30,0,"","",30,0,"","",30,0,"","",1,9919,0.0,0.0,0.0,0.0
"MWI","MW",3000.0,28961.0,28961.0,"chipindu school","",34.5917198,-15.6398228,3,"","mapping",2018,10.0,14.0,30,1,0.0,0.0,30,0,0.0,0.0,30,0,0.0,0.0,1,27169,0.03333333333333333,0.0,0.0,0.03144654088050314
"MWI","MW",2993.0,28954.0,28954.0,"chiponde","",33.8581896,-13.7836024,3,"school","mapping",2018,10.0,14.0,30,3,0.0,0.0,30,4,0.0,0.0,30,0,0.0,0.0,1,26498,0.1,0.13333333333333333,0.0,0.20754716981132074
"MWI","MW",3004.0,28965.0,28965.0,"chipusile","",34.586685,-14.805835,3,"school","mapping",2012,10.0,14.0,30,0,0.0,0.0,30,0,0.0,0.0,30,0,0.0,0.0,1,26620,0.0,0.0,0.0,0.0
"MWI","MW",2999.0,28972.0,28972.0,"chiputula","",34.01921279,-11.43692312,3,"","mapping",2018,10.0,14.0,30,0,0.0,0.0,30,0,0.0,0.0,30,0,0.0,0.0,1,26778,0.0,0.0,0.0,0.0
"MWI","MW",2999.0,28972.0,28972.0,"chiputula full primary s","",34.0209755,-11.4409854,1,"","mapping",2012,10.0,15.0,30,0,0.0,0.0,30,2,0.0,0.0,30,0,0.0,0.0,1,26779,0.0,0.06666666666666667,0.0,0.06289308176100628
"MWI","MW",2987.0,28948.0,28948.0,"chipwela school","",33.52872506,-9.777221619,3,"school","mapping",2017,10.0,14.0,30,0,0.0,0.0,30,4,0.0,0.0,30,0,0.0,0.0,1,26731,0.0,0.13333333333333333,0.0,0.12578616352201255
"MWI","MW",2992.0,28953.0,28953.0,"chipyera","",34.72331,-12.0821,3,"school","mapping",2015,13.0,17.0,28,0,0.0,0.0,28,0,0.0,0.0,28,0,0.0,0.0,1,26722,0.0,0.0,0.0,0.0
"MWI","MW",2986.0,28947.0,28947.0,"chiradzulu urban primary","",35.1406293,-15.6759485,1,"school","mapping",2012,10.0,14.0,30,0,0.0,0.0,30,0,0.0,0.0,30,0,0.0,0.0,1,27077,0.0,0.0,0.0,0.0
"MWI","MW",2986.0,28947.0,28947.0,"chiradzulu f p school","",35.1843087,-15.7015096,3,"school","mapping",2018,10.0,13.0,30,0,0.0,0.0,30,0,0.0,0.0,30,0,0.0,0.0,1,27078,0.0,0.0,0.0,0.0
"MWI","MW",2984.0,28945.0,28945.0,"chirimba primary school","",35.0179121,-15.7445436,1,"school","mapping",2012,10.0,14.0,30,0,0.0,0.0,30,0,0.0,0.0,30,0,0.0,0.0,1,26993,0.0,0.0,0.0,0.0
"MWI","MW",3000.0,28961.0,28961.0,"chirimbondo","",34.574615,-15.387185,3,"school","mapping",2012,10.0,14.0,30,0,0.0,0.0,30,0,0.0,0.0,30,0,0.0,0.0,1,27170,0.0,0.0,0.0,0.0
"MWI","MW",3000.0,28961.0,28961.0,"chirimbondo school","",34.57457685,-15.38705978,3,"","mapping",2018,10.0,13.0,30,0,0.0,0.0,30,1,0.0,0.0,30,0,0.0,0.0,1,27171,0.0,0.03333333333333333,0.0,0.03144654088050314
"MWI","MW",3005.0,28966.0,28966.0,"chisanja","",33.85227,-13.418725,3,"school","mapping",2012,10.0,14.0,30,0,0.0,0.0,30,0,0.0,0.0,30,0,0.0,0.0,1,26666,0.0,0.0,0.0,0.0
"MWI","MW",2984.0,28945.0,28945.0,"chisawani","",34.9618598,-15.8736396,3,"","mapping",2018,10.0,14.0,30,0,0.0,0.0,30,0,0.0,0.0,30,0,0.0,0.0,1,26995,0.0,0.0,0.0,0.0
"MWI","MW",2984.0,28945.0,28945.0,"chisawani","",34.9618598,-15.8736396,3,"school","mapping",2012,10.0,14.0,30,0,0.0,0.0,30,0,0.0,0.0,30,0,0.0,0.0,1,26994,0.0,0.0,0.0,0.0
"MWI","MW",2987.0,28948.0,28948.0,"chisenga fp school","",33.39747888,-9.987416854,3,"school","mapping",2017,10.0,14.0,30,1,0.0,0.0,30,5,0.0,0.0,30,0,0.0,0.0,1,26732,0.03333333333333333,0.16666666666666666,0.0,0.1834381551362683
"MWI","MW",2994.0,28955.0,28955.0,"chisese school","",35.76365419,-14.80076464,3,"school","mapping",2017,11.0,14.0,30,0,0.0,0.0,30,0,0.0,0.0,30,0,0.0,0.0,1,27113,0.0,0.0,0.0,0.0
"MWI","MW",2997.0,28958.0,28958.0,"chisitu fp school","",35.43830629,-15.99802948,3,"school","mapping",2017,10.0,14.0,30,0,0.0,0.0,30,3,0.0,0.0,30,0,0.0,0.0,1,27143,0.0,0.1,0.0,0.09433962264150943
"MWI","MW",2990.0,28951.0,28951.0,"chisumbu","",34.245201,-10.4369,3,"","",1999,9.0,16.0,141,73,"","",0,0,"","",141,2,"","",3,29521,0.5177304964539007,"",0.014184397163120567,""
"MWI","MW",2993.0,28954.0,28954.0,"chitedze lea","",33.6371591,-13.9815026,1,"school","mapping",2012,10.0,14.0,30,0,0.0,0.0,30,0,0.0,0.0,30,0,0.0,0.0,1,26426,0.0,0.0,0.0,0.0
"MWI","MW",2993.0,28954.0,28954.0,"chitedze","",33.6469585,-13.9832615,3,"school","mapping",2018,10.0,14.0,30,1,0.0,0.0,30,0,0.0,0.0,30,0,0.0,0.0,1,26499,0.03333333333333333,0.0,0.0,0.03144654088050314
"MWI","MW",3006.0,28967.0,28967.0,"chitekesa","",35.56629958,-15.55274181,3,"school","mapping",2017,10.0,14.0,30,0,0.0,0.0,30,0,0.0,0.0,30,0,0.0,0.0,1,27207,0.0,0.0,0.0,0.0
"MWI","MW",2992.0,28953.0,28953.0,"chiteko","",34.61243,"",99,"school","",2015,10.0,13.0,23,0,0.0,0.0,23,0,0.0,0.0,23,0,0.0,0.0,1,26723,0.0,0.0,0.0,0.0
"MWI","MW",3006.0,28967.0,28967.0,"chithumbwi school","",35.5940028,-15.60922859,3,"school","mapping",2017,10.0,14.0,30,0,0.0,0.0,30,0,0.0,0.0,30,0,0.0,0.0,1,27208,0.0,0.0,0.0,0.0
"MWI","MW",3000.0,28961.0,28961.0,"chitika school","",34.6191793,-15.3927636,3,"","mapping",2018,10.0,14.0,27,3,0.0,0.0,27,2,0.0,0.0,27,0,0.0,0.0,1,27172,0.1111111111111111,0.07407407407407407,0.0,0.16693842689649815
"MWI","MW",2998.0,28959.0,28959.0,"chiuli","",34.52479,-15.5997929,1,"school","mapping",2012,11.0,14.0,30,0,0.0,0.0,30,0,0.0,0.0,30,0,0.0,0.0,1,27156,0.0,0.0,0.0,0.0
"MWI","MW",3000.0,28961.0,28961.0,"chiuli school","",34.6950569,-15.3873533,3,"","mapping",2018,10.0,14.0,30,0,0.0,0.0,30,0,0.0,0.0,30,0,0.0,0.0,1,27173,0.0,0.0,0.0,0.0
"MWI","MW",2993.0,28954.0,28954.0,"chiunjiza","",33.6700942,-14.4070617,3,"school","mapping",2018,10.0,14.0,29,0,0.0,0.0,29,0,0.0,0.0,29,0,0.0,0.0,1,26500,0.0,0.0,0.0,0.0
"MWI","MW",2993.0,28954.0,28954.0,"chiunjiza f.p. school","",33.729685,-14.19226,3,"school","mapping",2012,9.0,15.0,30,0,0.0,0.0,30,0,0.0,0.0,30,0,0.0,0.0,1,26427,0.0,0.0,0.0,0.0
"MWI","MW",2994.0,28955.0,28955.0,"chiuta school","",35.84161216,-14.74856269,3,"school","mapping",2017,11.0,14.0,30,0,0.0,0.0,30,0,0.0,0.0,30,0,0.0,0.0,1,27114,0.0,0.0,0.0,0.0
"MWI","MW",2984.0,28945.0,28945.0,"chivumbe","",35.00854,-15.8334948,1,"","mapping",2018,10.0,14.0,30,1,0.0,0.0,30,2,0.0,0.0,30,0,0.0,0.0,1,26997,0.03333333333333333,0.06666666666666667,0.0,0.09224318658280922
"MWI","MW",2984.0,28945.0,28945.0,"chivumbe","",35.00854,-15.8334948,1,"school","mapping",2012,11.0,14.0,30,0,0.0,0.0,30,0,0.0,0.0,30,2,0.0,0.0,1,26996,0.0,0.0,0.06666666666666667,0.06289308176100628
"MWI","MW",3007.0,28968.0,28968.0,"chivungulu","",34.024399,-10.871667,3,"","",2002,9.0,10.0,47,3,"","",47,0,"","",47,0,"","",2,29213,0.06382978723404255,0.0,0.0,0.0602167804094741
"MWI","MW",3007.0,28968.0,28968.0,"chivwaradi","",34.02986875,-10.91856486,3,"school","mapping",2017,10.0,14.0,30,0,0.0,0.0,30,0,0.0,0.0,30,0,0.0,0.0,1,26919,0.0,0.0,0.0,0.0
"MWI","MW",2987.0,28948.0,28948.0,"chiwanga school","",33.02222169,-9.444877484,3,"school","mapping",2017,10.0,14.0,29,0,0.0,0.0,29,3,0.0,0.0,29,0,0.0,0.0,1,26733,0.0,0.10344827586206896,0.0,0.09759271307742354
"MWI","MW",2993.0,28954.0,28954.0,"chiyembekezo","",33.7282053,-14.1853116,3,"school","mapping",2018,10.0,14.0,30,0,0.0,0.0,30,2,0.0,0.0,30,0,0.0,0.0,1,26501,0.0,0.06666666666666667,0.0,0.06289308176100628
"MWI","MW",2999.0,28973.0,28973.0,"chizimya","",33.3800335,-12.1241443,3,"","mapping",2018,10.0,13.0,29,0,0.0,0.0,29,0,0.0,0.0,29,0,0.0,0.0,1,26840,0.0,0.0,0.0,0.0
"MWI","MW",2999.0,28973.0,28973.0,"chizmya primary","",33.38006,-12.123915,3,"school","mapping",2012,10.0,14.0,28,0,0.0,0.0,28,2,0.0,0.0,28,0,0.0,0.0,1,26841,0.0,0.07142857142857142,0.0,0.0673854447439353
"MWI","MW",2992.0,28953.0,28953.0,"chizumulo cdss","",34.61969,"",99,"school","",2015,14.0,17.0,16,0,0.0,0.0,16,0,0.0,0.0,16,0,0.0,0.0,1,26724,0.0,0.0,0.0,0.0
"MWI","MW",2986.0,28947.0,28947.0,"choda","",35.2358333,-15.8791667,1,"school","mapping",2012,10.0,14.0,30,1,0.0,0.0,19,1,0.0,0.0,19,0,0.0,0.0,1,27079,0.03333333333333333,0.05263157894736842,0.0,0.07944389275074476
"MWI","MW",2986.0,28947.0,28947.0,"choda","",35.2358333,-15.8791667,1,"school","mapping",2018,11.0,14.0,30,0,0.0,0.0,30,0,0.0,0.0,30,0,0.0,0.0,1,27080,0.0,0.0,0.0,0.0
"MWI","MW",2995.0,28956.0,28956.0,"chowe","",35.3666667,-14.4333333,1,"school","mapping",2013,10.0,14.0,30,0,0.0,0.0,30,1,0.0333,0.0,30,0,0.0,0.0,1,27128,0.0,0.03333333333333333,0.0,0.03144654088050314
"MWI","MW",2995.0,28956.0,28956.0,"chowe",13148.0,35.3666667,-14.4333333,1,"","",2013,"","",30,0,"","",30,0,"","",30,0,"","",1,9807,0.0,0.0,0.0,0.0
"MWI","MW",2994.0,28955.0,28955.0,"daimani school","",35.63485025,-14.92806645,3,"school","mapping",2017,10.0,14.0,30,0,0.0,0.0,30,0,0.0,0.0,30,0,0.0,0.0,1,27115,0.0,0.0,0.0,0.0
"MWI","MW",2989.0,28950.0,28950.0,"daimoni school","",33.53416025,-13.64205096,3,"school","mapping",2017,10.0,14.0,30,0,0.0,0.0,30,0,0.0,0.0,30,1,0.0,0.0333,1,26376,0.0,0.0,0.03333333333333333,0.03144654088050314
"MWI","MW",2983.0,28944.0,28944.0,"dalabani","",35.0217718,-14.87543,3,"school","mapping",2012,11.0,14.0,30,2,0.0,0.0,30,0,0.0,0.0,30,0,0.0,0.0,1,26942,0.06666666666666667,0.0,0.0,0.06289308176100628
"MWI","MW",2983.0,28944.0,28944.0,"dalabani","",35.0217718,-14.87543,3,"school","mapping",2018,10.0,14.0,30,0,0.0,0.0,30,0,0.0,0.0,30,0,0.0,0.0,1,26943,0.0,0.0,0.0,0.0
"MWI","MW",2993.0,28954.0,28954.0,"dembo","",33.9253687,-14.155381,3,"school","mapping",2018,10.0,14.0,30,2,0.0,0.0,30,5,0.0,0.0,30,0,0.0,0.0,1,26502,0.06666666666666667,0.16666666666666666,0.0,0.20964360587002095
"MWI","MW",2993.0,28954.0,28954.0,"diaphwi","",33.8131832,-14.3298494,3,"school","mapping",2018,10.0,14.0,29,0,0.0,0.0,29,0,0.0,0.0,29,0,0.0,0.0,1,26503,0.0,0.0,0.0,0.0
"MWI","MW",2996.0,28957.0,28957.0,"diti school","",33.12652257,-13.56052393,3,"school","mapping",2017,10.0,14.0,30,0,0.0,0.0,30,0,0.0,0.0,30,0,0.0,0.0,1,26578,0.0,0.0,0.0,0.0
"MWI","MW",2985.0,28946.0,28946.0,"dolo school","",34.92149295,-16.54948421,3,"school","mapping",2017,10.0,14.0,24,0,0.0,0.0,24,0,0.0,0.0,24,0,0.0,0.0,1,27058,0.0,0.0,0.0,0.0
"MWI","MW",3008.0,28969.0,28969.0,"domira bay","",34.43141,-13.61541,3,"school","mapping",2013,10.0,14.0,29,0,0.0,0.0,30,2,0.0,0.06670000000000001,29,0,0.0,0.0,1,26710,0.0,0.06666666666666667,0.0,0.06289308176100628
"MWI","MW",3008.0,28969.0,28969.0,"domira bay",13311.0,34.43141,-13.61541,3,"","",2013,"","",29,0,"","",29,0,"","",29,0,"","",1,9985,0.0,0.0,0.0,0.0
"MWI","MW",2999.0,28972.0,28972.0,"doroba","",33.9856026,-11.3589785,3,"","mapping",2018,10.0,14.0,30,0,0.0,0.0,30,1,0.0,0.0,30,0,0.0,0.0,1,26780,0.0,0.03333333333333333,0.0,0.03144654088050314
"MWI","MW",2990.0,28951.0,28951.0,"doroba","",34.12706209,-10.43342145,3,"school","mapping",2017,10.0,14.0,29,0,0.0,0.0,29,0,0.0,0.0,29,0,0.0,0.0,1,26754,0.0,0.0,0.0,0.0
"MWI","MW",2999.0,28972.0,28972.0,"doroba primary","",33.985545,-11.35899,3,"","mapping",2012,10.0,14.0,30,0,0.0,0.0,30,0,0.0,0.0,30,0,0.0,0.0,1,26781,0.0,0.0,0.0,0.0
"MWI","MW",2989.0,28950.0,28950.0,"dowa 2 school","",33.92911506,-13.65465901,3,"school","mapping",2017,10.0,13.0,30,0,0.0,0.0,30,0,0.0,0.0,30,0,0.0,0.0,1,26377,0.0,0.0,0.0,0.0
"MWI","MW",2989.0,28950.0,28950.0,"dowa 1","",34.2751622,-13.7062708,3,"school","mapping",2017,10.0,14.0,29,0,0.0,0.0,29,0,0.0,0.0,29,0,0.0,0.0,1,35005,0.0,0.0,0.0,0.0
"MWI","MW",2989.0,28950.0,28950.0,"dowa 10","",33.9263732,-13.5370801,3,"school","mapping",2017,10.0,14.0,29,0,0.0,0.0,29,0,0.0,0.0,29,0,0.0,0.0,1,35006,0.0,0.0,0.0,0.0
"MWI","MW",2989.0,28950.0,28950.0,"dowa 11","",34.093867,-13.5465359,3,"school","mapping",2017,10.0,14.0,30,0,0.0,0.0,29,0,0.0,0.0,29,0,0.0,0.0,1,35007,0.0,0.0,0.0,0.0
"MWI","MW",3002.0,28963.0,28963.0,"dwambadzi","",33.9918963,-12.2339323,1,"school","mapping",2013,10.0,14.0,30,2,0.06670000000000001,0.0,30,0,0.0,0.0,30,0,0.0,0.0,1,26600,0.06666666666666667,0.0,0.0,0.06289308176100628
"MWI","MW",3002.0,28963.0,28963.0,"dwambadzi",13255.0,33.9918963,-12.2339323,1,"","",2013,"","",30,0,"","",30,0,"","",30,0,"","",1,9914,0.0,0.0,0.0,0.0
"MWI","MW",3001.0,28962.0,28962.0,"dwambazi","",33.998116,-12.242383,3,"","",2002,9.0,10.0,60,0,"","",60,0,"","",60,0,"","",2,29209,0.0,0.0,0.0,0.0
"MWI","MW",2993.0,28954.0,28954.0,"dzama","",33.2848168,-13.856301,3,"school","mapping",2018,10.0,14.0,29,0,0.0,0.0,29,1,0.0,0.0,29,0,0.0,0.0,1,26504,0.0,0.034482758620689655,0.0,0.03253090435914118
"MWI","MW",2993.0,28954.0,28954.0,"dzama f.p. school","",33.28447,-13.85599,3,"school","mapping",2012,11.0,15.0,30,5,0.0,0.0,30,0,0.0,0.0,30,0,0.0,0.0,1,26428,0.16666666666666666,0.0,0.0,0.1572327044025157
"MWI","MW",3006.0,28967.0,28967.0,"dzanjo","",35.652629160000004,-15.52577825,3,"school","mapping",2017,10.0,14.0,29,0,0.0,0.0,29,0,0.0,0.0,29,0,0.0,0.0,1,27209,0.0,0.0,0.0,0.0
"MWI","MW",2993.0,28954.0,28954.0,"dzenza","",33.746264,-13.8782939,3,"school","mapping",2018,10.0,14.0,27,0,0.0,0.0,27,4,0.0,0.0,27,0,0.0,0.0,1,26505,0.0,0.14814814814814814,0.0,0.1397624039133473
"MWI","MW",2993.0,28954.0,28954.0,"dzenza primary","",33.74628,-13.87827,3,"school","mapping",2012,9.0,15.0,30,1,0.0,0.0,30,1,0.0,0.0,30,0,0.0,0.0,1,26429,0.03333333333333333,0.03333333333333333,0.0,0.06184486373165619
"MWI","MW",2985.0,28946.0,28946.0,"dzimbiri cp school","",34.7485167,-15.93088519,3,"school","mapping",2017,11.0,14.0,27,0,0.0,0.0,27,0,0.0,0.0,27,0,0.0,0.0,1,27059,0.0,0.0,0.0,0.0
"MWI","MW",2999.0,28973.0,28973.0,"edingeni","",33.311802,-12.045373,3,"","mapping",2018,10.0,14.0,30,0,0.0,0.0,30,0,0.0,0.0,30,0,0.0,0.0,1,26842,0.0,0.0,0.0,0.0
"MWI","MW",2999.0,28972.0,28972.0,"ehlekweni","",33.8467859,-11.4176172,3,"school","mapping",2018,10.0,13.0,30,3,0.0,0.0,30,8,0.0,0.0,30,0,0.0,0.0,1,26782,0.1,0.26666666666666666,0.0,0.32075471698113206
"MWI","MW",2999.0,28973.0,28973.0,"ehlekweni f.p. school","",33.846705,-11.417445,3,"school","mapping",2012,10.0,15.0,30,1,0.0,0.0,30,4,0.0,0.0,30,1,0.0,0.0,1,26843,0.03333333333333333,0.13333333333333333,0.03333333333333333,0.17938504542278122
"MWI","MW",2984.0,28945.0,28945.0,"elim private primary sch","",35.029075,-15.76462,3,"school","mapping",2012,10.0,14.0,30,0,0.0,0.0,30,0,0.0,0.0,30,0,0.0,0.0,1,26998,0.0,0.0,0.0,0.0
"MWI","MW",3003.0,28964.0,28964.0,"elim springs school","",35.11249,-16.56627,3,"school","mapping",2017,10.0,14.0,30,0,0.0,0.0,30,2,0.0,0.0,30,0,0.0,0.0,1,27193,0.0,0.06666666666666667,0.0,0.06289308176100628
"MWI","MW",2991.0,28952.0,28952.0,"empundwini school","",33.53731838,-12.54129411,3,"school","mapping",2017,10.0,14.0,30,0,0.0,0.0,30,0,0.0,0.0,30,0,0.0,0.0,1,26408,0.0,0.0,0.0,0.0
"MWI","MW",2999.0,28972.0,28972.0,"emvuyeni","",33.8249556,-11.3708257,3,"school","mapping",2018,10.0,14.0,28,0,0.0,0.0,28,0,0.0,0.0,28,0,0.0,0.0,1,26783,0.0,0.0,0.0,0.0
"MWI","MW",2999.0,28973.0,28973.0,"emvuyeni primary school","",33.82517,-11.370505,3,"school","mapping",2012,10.0,14.0,30,2,0.0,0.0,30,0,0.0,0.0,30,0,0.0,0.0,1,26844,0.06666666666666667,0.0,0.0,0.06289308176100628
"MWI","MW",2999.0,28972.0,28972.0,"enukweni","",33.8828266,-11.1802475,3,"school","mapping",2018,10.0,13.0,30,2,0.0,0.0,30,3,0.0,0.0,30,0,0.0,0.0,1,26784,0.06666666666666667,0.1,0.0,0.15094339622641512
"MWI","MW",2999.0,28973.0,28973.0,"enukweni f.p.","",33.88325,-11.18054,3,"school","mapping",2012,11.0,14.0,30,0,0.0,0.0,30,0,0.0,0.0,30,2,0.0,0.0,1,26845,0.0,0.0,0.06666666666666667,0.06289308176100628
"MWI","MW",2999.0,28972.0,28972.0,"ezondweni","",33.7478832,-11.3961213,3,"school","mapping",2018,10.0,14.0,29,0,0.0,0.0,29,0,0.0,0.0,29,0,0.0,0.0,1,26785,0.0,0.0,0.0,0.0
"MWI","MW",2999.0,28973.0,28973.0,"ezondweni primary","",33.747805,-11.396075,3,"school","mapping",2012,10.0,14.0,30,0,0.0,0.0,30,0,0.0,0.0,30,0,0.0,0.0,1,26846,0.0,0.0,0.0,0.0
"MWI","MW",2993.0,28954.0,28954.0,"falls baptist primary","",33.787235,-14.0031,3,"school","mapping",2012,10.0,14.0,30,2,0.0,0.0,30,0,0.0,0.0,30,0,0.0,0.0,1,26430,0.06666666666666667,0.0,0.0,0.06289308176100628
"MWI","MW",2983.0,28944.0,28944.0,"ferry","",34.95575,-14.0743777,1,"school","mapping",2018,10.0,14.0,29,0,0.0,0.0,29,0,0.0,0.0,29,0,0.0,0.0,1,26945,0.0,0.0,0.0,0.0
"MWI","MW",2983.0,28944.0,28944.0,"ferry","",34.95575,-14.0743777,1,"school","mapping",2012,10.0,14.0,30,0,0.0,0.0,30,0,0.0,0.0,30,0,0.0,0.0,1,26944,0.0,0.0,0.0,0.0
"MWI","MW",2990.0,28951.0,28951.0,"fulirwa school","",34.09803304,-10.44789983,3,"school","mapping",2017,10.0,14.0,29,0,0.0,0.0,29,0,0.0,0.0,29,0,0.0,0.0,1,26755,0.0,0.0,0.0,0.0
"MWI","MW",2995.0,28956.0,28956.0,"funwe","",34.90729,-14.26897,3,"school","mapping",2013,10.0,14.0,30,10,0.33330000000000004,0.0,30,4,0.06670000000000001,0.06670000000000001,30,0,0.0,0.0,1,27129,0.3333333333333333,0.13333333333333333,0.0,0.3983228511530398
"MWI","MW",2995.0,28956.0,28956.0,"funwe",13149.0,34.90729,-14.26897,3,"","",2013,"","",30,0,"","",30,1,"","",30,0,"","",1,9809,0.0,0.03333333333333333,0.0,0.03144654088050314
"MWI","MW",2984.0,28945.0,28945.0,"future leaders","",34.9790481,-15.763565700000001,3,"","mapping",2018,10.0,14.0,30,0,0.0,0.0,30,0,0.0,0.0,30,0,0.0,0.0,1,26999,0.0,0.0,0.0,0.0
"MWI","MW",2990.0,28951.0,28951.0,"fwira","",33.89112509,-9.800736298,3,"school","mapping",2017,10.0,14.0,30,0,0.0,0.0,30,0,0.0,0.0,30,0,0.0,0.0,1,26756,0.0,0.0,0.0,0.0
"MWI","MW",2997.0,28958.0,28958.0,"gambula school","",35.70560575,-16.07718663,3,"school","mapping",2017,10.0,14.0,29,2,0.0,0.0,29,4,0.0,0.0,29,0,0.0,0.0,1,27144,0.06896551724137931,0.13793103448275862,0.0,0.18621138357301503
"MWI","MW",3004.0,28965.0,28965.0,"ganya pri","",34.61899,-14.60983,3,"school","mapping",2012,11.0,14.0,30,0,0.0,0.0,30,0,0.0,0.0,30,0,0.0,0.0,1,26621,0.0,0.0,0.0,0.0
"MWI","MW",2999.0,28972.0,28972.0,"geisha","",33.9840617,-11.4797448,3,"","mapping",2018,10.0,14.0,30,0,0.0,0.0,30,0,0.0,0.0,30,0,0.0,0.0,1,26786,0.0,0.0,0.0,0.0
"MWI","MW",2999.0,28972.0,28972.0,"geisha primary school","",33.983945,-11.480045,3,"","mapping",2012,10.0,14.0,30,5,0.0,0.0,30,0,0.0,0.0,30,0,0.0,0.0,1,26787,0.16666666666666666,0.0,0.0,0.1572327044025157
"MWI","MW",2996.0,28957.0,28957.0,"general farming","",33.063965,-13.404384,3,"","",2002,9.0,10.0,51,2,"","",51,1,"","",51,0,"","",2,29212,0.0392156862745098,0.0196078431372549,0.0,0.0547684852705418
"MWI","MW",3005.0,28966.0,28966.0,"gobede","",34.1164334,-13.4406826,3,"school","mapping",2018,10.0,14.0,28,0,0.0,0.0,28,0,0.0,0.0,28,0,0.0,0.0,1,26667,0.0,0.0,0.0,0.0
"MWI","MW",2991.0,28952.0,28952.0,"gogo","",33.08831936,-13.32431665,3,"school","mapping",2017,10.0,14.0,30,0,0.0,0.0,30,0,0.0,0.0,30,0,0.0,0.0,1,26409,0.0,0.0,0.0,0.0
"MWI","MW",2986.0,28947.0,28947.0,"gologota",13073.0,-25.40918,"",99,"","",2012,11.0,14.0,30,0,"","",30,0,"","",30,0,"","",1,9729,0.0,0.0,0.0,0.0
"MWI","MW",2985.0,28946.0,28946.0,"goma school","",34.85768748,-16.39322404,3,"school","mapping",2017,11.0,14.0,30,1,0.0,0.0,30,0,0.0,0.0,30,1,0.0,0.0,1,27060,0.03333333333333333,0.0,0.03333333333333333,0.06184486373165619
"MWI","MW",2993.0,28954.0,28954.0,"gome","",33.5919306,-13.9578333,3,"school","mapping",2018,10.0,14.0,30,0,0.0,0.0,30,3,0.0,0.0,30,0,0.0,0.0,1,26506,0.0,0.1,0.0,0.09433962264150943
"MWI","MW",2993.0,28954.0,28954.0,"gome primary","",33.59167,-13.957934999999999,3,"school","mapping",2012,10.0,14.0,30,0,0.0,0.0,30,0,0.0,0.0,30,0,0.0,0.0,1,26431,0.0,0.0,0.0,0.0
"MWI","MW",3004.0,28965.0,28965.0,"gomeza","",34.6777859,-14.9030129,3,"school","mapping",2018,10.0,14.0,30,0,0.0,0.0,30,11,0.0,0.0,30,0,0.0,0.0,1,26622,0.0,0.36666666666666664,0.0,0.3459119496855345
"MWI","MW",2993.0,28954.0,28954.0,"grace spring christian pvt school","",33.76095382,-13.941083710000001,3,"school","mapping",2018,10.0,14.0,26,0,0.0,0.0,26,0,0.0,0.0,26,0,0.0,0.0,1,26507,0.0,0.0,0.0,0.0
"MWI","MW",2984.0,28945.0,28945.0,"green acress private pri","",35.07921,-15.732825,3,"school","mapping",2012,10.0,13.0,30,0,0.0,0.0,30,0,0.0,0.0,30,0,0.0,0.0,1,27000,0.0,0.0,0.0,0.0
"MWI","MW",2984.0,28945.0,28945.0,"green acres","",35.0790978,-15.7328397,3,"","mapping",2018,10.0,14.0,30,0,0.0,0.0,30,0,0.0,0.0,30,0,0.0,0.0,1,27001,0.0,0.0,0.0,0.0
"MWI","MW",2993.0,28954.0,28954.0,"guide us education centre","",33.8244989,-14.0029898,3,"school","mapping",2018,10.0,14.0,26,0,0.0,0.0,26,1,0.0,0.0,26,0,0.0,0.0,1,26508,0.0,0.038461538461538464,0.0,0.036284470246734396
"MWI","MW",2993.0,28954.0,28954.0,"gulule primary school","",33.80751,-14.09272,3,"school","mapping",2012,10.0,14.0,30,0,0.0,0.0,30,3,0.0,0.0,30,0,0.0,0.0,1,26432,0.0,0.1,0.0,0.09433962264150943
"MWI","MW",3010.0,28971.0,28971.0,"guta fp","",35.12529,-15.29835,3,"school","mapping",2013,10.0,14.0,30,21,0.7000000000000001,0.0,30,3,0.0333,0.06670000000000001,29,0,0.0,0.0,1,27248,0.7,0.1,0.0,0.6886792452830188
"MWI","MW",3010.0,28971.0,28971.0,"guta fp",13323.0,35.12529,-15.29835,3,"","",2013,"","",30,0,"","",30,0,"","",29,0,"","",1,10000,0.0,0.0,0.0,0.0
"MWI","MW",3005.0,28966.0,28966.0,"gwangwa","",33.8025339,-13.4234715,3,"school","mapping",2018,10.0,14.0,23,1,0.0,0.0,23,2,0.0,0.043500000000000004,23,0,0.0,0.0,1,26668,0.043478260869565216,0.08695652173913043,0.0,0.11948496629453934
"MWI","MW",2990.0,"",28951.0,"hara","",34.204449,-10.5049,4,"","",1999,9.0,16.0,128,78,"","",0,0,"","",128,2,"","",3,29458,0.609375,"",0.015625,""
"MWI","MW",2984.0,"",3694.0,"hhi","",35.02375,-15.7841,4,"","",2002,9.0,10.0,47,0,"","",47,4,"","",47,0,"","",2,29220,0.0,0.0851063829787234,0.0,0.08028904054596546
"MWI","MW",2999.0,28972.0,28972.0,"holera","",33.875614,-11.166235,3,"school","mapping",2018,10.0,14.0,30,2,0.0,0.0,30,7,0.0,0.0,30,0,0.0,0.0,1,26788,0.06666666666666667,0.23333333333333334,0.0,0.2683438155136268
"MWI","MW",2999.0,28973.0,28973.0,"holera primary","",33.875485,-11.16625,3,"school","mapping",2012,10.0,14.0,30,0,0.0,0.0,30,0,0.0,0.0,30,0,0.0,0.0,1,26847,0.0,0.0,0.0,0.0
"MWI","MW",2987.0,28948.0,28948.0,"ibabala school","",33.47482684,-9.631828552,3,"school","mapping",2017,10.0,14.0,30,0,0.0,0.0,30,3,0.0,0.0,30,0,0.0,0.0,1,26734,0.0,0.1,0.0,0.09433962264150943
"MWI","MW",2987.0,28948.0,28948.0,"ifumbo fp school","",33.40550516,-9.608343686,3,"school","mapping",2017,10.0,14.0,30,2,0.0,0.0,30,6,0.0,0.0,30,0,0.0,0.0,1,26735,0.06666666666666667,0.2,0.0,0.2389937106918239
"MWI","MW",2987.0,28948.0,28948.0,"ilema school","",33.32794122,-9.757568907,3,"school","mapping",2017,10.0,14.0,30,0,0.0,0.0,30,1,0.0,0.0,30,0,0.0,0.0,1,26736,0.0,0.03333333333333333,0.0,0.03144654088050314
"MWI","MW",2987.0,28948.0,28948.0,"ipenza school","",33.11451033,-9.478515042,3,"school","mapping",2017,10.0,15.0,30,0,0.0,0.0,30,1,0.0,0.0,30,0,0.0,0.0,1,26737,0.0,0.03333333333333333,0.0,0.03144654088050314
"MWI","MW",2989.0,28950.0,28950.0,"james fp school","",33.99829028,-13.63633688,3,"school","mapping",2017,10.0,14.0,29,0,0.0,0.0,29,1,0.0,0.0,29,0,0.0,0.0,1,26378,0.0,0.034482758620689655,0.0,0.03253090435914118
"MWI","MW",2985.0,28946.0,28946.0,"jeke  jp school","",34.941145,-16.16340969,3,"school","mapping",2017,11.0,14.0,29,0,0.0,0.0,29,0,0.0,0.0,29,0,0.0,0.0,1,27061,0.0,0.0,0.0,0.0
"MWI","MW",3000.0,28961.0,28961.0,"jimbe school","",34.6960355,-15.5537362,3,"","mapping",2018,10.0,14.0,30,3,0.0,0.0,30,5,0.0,0.0,30,0,0.0,0.0,1,27174,0.1,0.16666666666666666,0.0,0.23584905660377356
"MWI","MW",2990.0,28951.0,28951.0,"k and k","",33.92829922,-9.940838941,3,"school","mapping",2017,10.0,13.0,26,0,0.0,0.0,26,0,0.0,0.0,26,0,0.0,0.0,1,26757,0.0,0.0,0.0,0.0
"MWI","MW",2993.0,28954.0,28954.0,"kabudula","",33.44623621,-13.81774344,3,"school","mapping",2018,10.0,14.0,30,0,0.0,0.0,30,0,0.0,0.0,30,0,0.0,0.0,1,26509,0.0,0.0,0.0,0.0
"MWI","MW",2993.0,28954.0,28954.0,"kabudula f.p.","",33.446165,-13.567755,3,"school","mapping",2012,10.0,14.0,30,0,0.0,0.0,30,2,0.0,0.0,30,0,0.0,0.0,1,26433,0.0,0.06666666666666667,0.0,0.06289308176100628
"MWI","MW",3005.0,28966.0,28966.0,"kabumba","",33.8234177,-13.1341203,3,"school","mapping",2018,10.0,12.0,30,1,0.0,0.0,30,0,0.0,0.0,30,1,0.0,0.0,1,26669,0.03333333333333333,0.0,0.03333333333333333,0.06184486373165619
"MWI","MW",2993.0,28954.0,28954.0,"kabuthu","",33.49984597,-13.87819306,3,"school","mapping",2012,10.0,15.0,30,3,0.0,0.0,30,0,0.0,0.0,30,0,0.0,0.0,1,26434,0.1,0.0,0.0,0.09433962264150943
"MWI","MW",2993.0,28954.0,28954.0,"kabuthu","",33.49984597,-13.87819306,3,"school","mapping",2018,10.0,14.0,30,0,0.0,0.0,30,0,0.0,0.0,30,0,0.0,0.0,1,26510,0.0,0.0,0.0,0.0
"MWI","MW",2993.0,28954.0,28954.0,"kabwabwa school","",33.7608395,-13.8851628,3,"school","mapping",2018,10.0,14.0,29,3,0.0,0.0,29,2,0.0,0.0,29,0,0.0,0.0,1,26511,0.10344827586206896,0.06896551724137931,0.0,0.1559239898593319
"MWI","MW",2984.0,28945.0,28945.0,"kachanga","",34.9805402,-15.6860275,3,"","mapping",2018,10.0,14.0,30,0,0.0,0.0,30,0,0.0,0.0,30,0,0.0,0.0,1,27002,0.0,0.0,0.0,0.0
"MWI","MW",2984.0,28945.0,28945.0,"kachanga l e a","",34.980545,-15.68579,3,"school","mapping",2012,10.0,14.0,33,0,0.0,0.0,33,0,0.0,0.0,33,0,0.0,0.0,1,27003,0.0,0.0,0.0,0.0
"MWI","MW",2991.0,28952.0,28952.0,"kachembwe school","",33.60725,-13.22369,3,"school","mapping",2017,10.0,13.0,30,1,0.0,0.0,30,0,0.0,0.0,30,0,0.0,0.0,1,26410,0.03333333333333333,0.0,0.0,0.03144654088050314
"MWI","MW",2984.0,28945.0,28945.0,"kachere 1","",34.93577,-15.588565,3,"school","mapping",2012,10.0,14.0,30,0,0.0,0.0,30,0,0.0,0.0,30,0,0.0,0.0,1,27004,0.0,0.0,0.0,0.0
"MWI","MW",2984.0,28945.0,28945.0,"kachere 1","",34.9355797,-15.5885554,3,"","mapping",2018,10.0,14.0,30,0,0.0,0.0,30,1,0.0,0.0,30,0,0.0,0.0,1,27005,0.0,0.03333333333333333,0.0,0.03144654088050314
"MWI","MW",2993.0,28954.0,28954.0,"kachiswe primary","",33.44804,-14.02887,3,"school","mapping",2012,10.0,14.0,30,0,0.0,0.0,30,2,0.0,0.0,30,0,0.0,0.0,1,26435,0.0,0.06666666666666667,0.0,0.06289308176100628
"MWI","MW",3010.0,28971.0,28971.0,"kachulu","",35.58704,-15.37759,3,"school","mapping",2013,11.0,14.0,30,0,0.0,0.0,30,5,0.06670000000000001,0.1,30,0,0.0,0.0,1,27249,0.0,0.16666666666666666,0.0,0.1572327044025157
"MWI","MW",3010.0,28971.0,28971.0,"kachulu",13324.0,35.58704,-15.37759,3,"","",2013,"","",30,0,"","",30,0,"","",30,0,"","",1,10002,0.0,0.0,0.0,0.0
"MWI","MW",3005.0,28966.0,28966.0,"kadayera","",33.81882,-13.30751,3,"school","mapping",2012,10.0,14.0,33,0,0.0,0.0,33,2,0.0,0.0,33,0,0.0,0.0,1,26670,0.0,0.06060606060606061,0.0,0.05717552887364208
"MWI","MW",2995.0,28956.0,28956.0,"kadyangunde","",35.05111,-14.63051,3,"school","mapping",2013,11.0,14.0,30,0,0.0,0.0,30,6,0.06670000000000001,0.1333,30,0,0.0,0.0,1,27130,0.0,0.2,0.0,0.18867924528301885
"MWI","MW",2995.0,28956.0,28956.0,"kadyangunde",13150.0,35.05111,-14.63051,3,"","",2013,"","",60,0,"","",60,0,"","",60,0,"","",1,9811,0.0,0.0,0.0,0.0
"MWI","MW",3004.0,28965.0,28965.0,"kadzakalo","",34.55129,-14.73157,3,"school","mapping",2012,10.0,14.0,30,0,0.0,0.0,30,0,0.0,0.0,30,0,0.0,0.0,1,26623,0.0,0.0,0.0,0.0
"MWI","MW",2990.0,28951.0,28951.0,"kafa private","",33.86769005,-9.742950076,3,"school","mapping",2017,9.0,15.0,44,0,0.0,0.0,44,0,0.0,0.0,44,0,0.0,0.0,1,26758,0.0,0.0,0.0,0.0
"MWI","MW",3005.0,28966.0,28966.0,"kafantand","",34.074215,-13.51705,3,"school","mapping",2012,10.0,14.0,31,0,0.0,0.0,31,2,0.0,0.0,31,0,0.0,0.0,1,26671,0.0,0.06451612903225806,0.0,0.06086427267194156
"MWI","MW",3005.0,28966.0,28966.0,"kafantandala","",34.0742608,-13.5170969,3,"school","mapping",2018,10.0,14.0,30,0,0.0,0.0,30,0,0.0,0.0,30,0,0.0,0.0,1,26672,0.0,0.0,0.0,0.0
"MWI","MW",3007.0,28968.0,28968.0,"kafukwe j.p. school","",33.98047041,-10.87724247,3,"school","mapping",2017,10.0,14.0,25,0,0.0,0.0,25,0,0.0,0.0,25,0,0.0,0.0,1,26920,0.0,0.0,0.0,0.0
"MWI","MW",2990.0,28951.0,28951.0,"kafulu","",33.82713626,-9.754670287,3,"school","mapping",2017,10.0,14.0,28,0,0.0,0.0,28,0,0.0,0.0,28,0,0.0,0.0,1,26759,0.0,0.0,0.0,0.0
"MWI","MW",2993.0,28954.0,28954.0,"kafulu primary school","",33.7937476,-14.0053358,3,"school","mapping",2012,10.0,14.0,30,0,0.0,0.0,30,0,0.0,0.0,30,0,0.0,0.0,1,26436,0.0,0.0,0.0,0.0
"MWI","MW",2993.0,28954.0,28954.0,"kafulu lea school","",33.7939033,-14.0053114,3,"school","mapping",2018,10.0,14.0,30,1,0.0,0.0,30,4,0.0,0.0,30,0,0.0,0.0,1,26512,0.03333333333333333,0.13333333333333333,0.0,0.15303983228511528
"MWI","MW",2999.0,28973.0,28973.0,"kafulufulu full primary","",33.79681,-11.5152,3,"school","mapping",2012,10.0,15.0,30,0,0.0,0.0,30,3,0.0,0.0,30,0,0.0,0.0,1,26848,0.0,0.1,0.0,0.09433962264150943
"MWI","MW",2999.0,28972.0,28972.0,"kafululu","",33.79687539,-11.51533096,3,"school","mapping",2018,10.0,14.0,28,0,0.0,0.0,28,0,0.0,0.0,28,0,0.0,0.0,1,26789,0.0,0.0,0.0,0.0
"MWI","MW",2988.0,28949.0,28949.0,"kaimvi fp school","",33.96002069,-14.38378731,3,"school","mapping",2017,10.0,14.0,30,0,0.0,0.0,30,0,0.0,0.0,30,0,0.0,0.0,1,26358,0.0,0.0,0.0,0.0
"MWI","MW",2993.0,28954.0,28954.0,"kakule primary school","",33.715755,-14.017765,3,"school","mapping",2012,11.0,14.0,30,0,0.0,0.0,30,0,0.0,0.0,30,0,0.0,0.0,1,26437,0.0,0.0,0.0,0.0
"MWI","MW",2993.0,28954.0,28954.0,"kakule  c p school","",33.7158128,-14.0176646,3,"school","mapping",2018,10.0,14.0,30,1,0.0,0.0,30,3,0.0,0.0,30,0,0.0,0.0,1,26513,0.03333333333333333,0.1,0.0,0.12264150943396225
"MWI","MW",2999.0,28972.0,28972.0,"kakululu","",33.5857337,-11.4020775,3,"school","mapping",2018,10.0,14.0,30,1,0.0,0.0,30,0,0.0,0.0,30,0,0.0,0.0,1,26790,0.03333333333333333,0.0,0.0,0.03144654088050314
"MWI","MW",2996.0,28957.0,28957.0,"kalanzi school","",33.08840261,-13.93784211,3,"school","mapping",2017,10.0,14.0,30,0,0.0,0.0,30,0,0.0,0.0,30,0,0.0,0.0,1,26579,0.0,0.0,0.0,0.0
"MWI","MW",3005.0,28966.0,28966.0,"kalem l.e","",33.90777,-13.362285,3,"school","mapping",2012,10.0,14.0,30,3,0.0,0.0,30,3,0.0,0.0,30,0,0.0,0.0,1,26673,0.1,0.1,0.0,0.1792452830188679
"MWI","MW",2999.0,28973.0,28973.0,"kalikumbi","",33.3342865,-12.2020915,3,"","mapping",2018,10.0,14.0,27,0,0.0,0.0,27,0,0.0,0.0,27,0,0.0,0.0,1,26849,0.0,0.0,0.0,0.0
"MWI","MW",3010.0,28971.0,28971.0,"kalira","",35.11306,-15.41706,3,"school","mapping",2013,11.0,14.0,29,3,0.1034,0.0,29,4,0.069,0.069,29,0,0.0,0.0,1,27250,0.10344827586206896,0.13793103448275862,0.0,0.21425526664124017
"MWI","MW",3010.0,28971.0,28971.0,"kalira",13325.0,35.11306,-15.41706,3,"","",2013,"","",29,0,"","",28,0,"","",29,0,"","",1,10005,0.0,0.0,0.0,0.0
"MWI","MW",2988.0,28949.0,28949.0,"kalira school","",34.49902535,-14.26776028,3,"school","mapping",2017,10.0,14.0,30,0,0.0,0.0,30,0,0.0,0.0,30,0,0.0,0.0,1,26359,0.0,0.0,0.0,0.0
"MWI","MW",2993.0,28954.0,28954.0,"kalonga","",33.5805368,-13.7769903,3,"school","mapping",2018,10.0,14.0,29,0,0.0,0.0,29,0,0.0,0.0,29,0,0.0,0.0,1,26514,0.0,0.0,0.0,0.0
"MWI","MW",2993.0,28954.0,28954.0,"kalonga lea school","",33.75659,-13.93882,3,"school","mapping",2012,11.0,14.0,30,0,0.0,0.0,30,0,0.0,0.0,30,0,0.0,0.0,1,26438,0.0,0.0,0.0,0.0
"MWI","MW",2993.0,28954.0,28954.0,"kalonga cdss","",33.6682977,-14.2007414,3,"school","mapping",2018,14.0,14.0,10,0,0.0,0.0,10,0,0.0,0.0,10,0,0.0,0.0,1,26515,0.0,0.0,0.0,0.0
"MWI","MW",2999.0,28973.0,28973.0,"kalowa","",33.57648664,-11.85889888,3,"","mapping",2018,10.0,13.0,26,0,0.0,0.0,26,0,0.0,0.0,26,0,0.0,0.0,1,26850,0.0,0.0,0.0,0.0
"MWI","MW",2999.0,28973.0,28973.0,"kalowa primary","",33.57636,-11.858875,3,"school","mapping",2012,12.0,14.0,30,0,0.0,0.0,30,2,0.0,0.0,30,0,0.0,0.0,1,26851,0.0,0.06666666666666667,0.0,0.06289308176100628
"MWI","MW",2993.0,28954.0,28954.0,"kalumba primary school","",33.8081,-14.08027,3,"school","mapping",2012,11.0,14.0,30,0,0.0,0.0,30,2,0.0,0.0,30,0,0.0,0.0,1,26439,0.0,0.06666666666666667,0.0,0.06289308176100628
"MWI","MW",2999.0,28973.0,28973.0,"kalweya primary","",33.44624,-11.887235,3,"school","mapping",2012,10.0,15.0,30,0,0.0,0.0,30,0,0.0,0.0,30,0,0.0,0.0,1,26852,0.0,0.0,0.0,0.0
"MWI","MW",2996.0,28957.0,28957.0,"kamangilira school","",33.21183892,-13.71968265,3,"school","mapping",2017,10.0,14.0,29,0,0.0,0.0,29,0,0.0,0.0,29,0,0.0,0.0,1,26580,0.0,0.0,0.0,0.0
"MWI","MW",2991.0,28952.0,28952.0,"kambira school","",33.78948144,-12.823692040000001,3,"school","mapping",2017,10.0,14.0,29,0,0.0,0.0,29,0,0.0,0.0,29,0,0.0,0.0,1,26411,0.0,0.0,0.0,0.0
"MWI","MW",2993.0,28954.0,28954.0,"kambwa","",33.5054438,-13.7617675,3,"school","mapping",2018,10.0,14.0,29,0,0.0,0.0,29,2,0.0,0.0,29,1,0.0,0.0345,1,26516,0.0,0.06896551724137931,0.034482758620689655,0.09534920243196553
"MWI","MW",3007.0,28968.0,28968.0,"kambwiya school","",34.10173,-10.76994,3,"school","mapping",2017,10.0,14.0,8,0,0.0,0.0,8,0,0.0,0.0,8,0,0.0,0.0,1,26921,0.0,0.0,0.0,0.0
"MWI","MW",2999.0,28973.0,28973.0,"kamilawanthu","",33.6451492,-12.607033,3,"","mapping",2018,10.0,14.0,30,3,0.0,0.0,30,10,0.0,0.0,30,0,0.0,0.0,1,26853,0.1,0.3333333333333333,0.0,0.3773584905660377
"MWI","MW",2999.0,28973.0,28973.0,"kamilawanthu f.p school","",33.64491,-12.60687,3,"school","mapping",2012,10.0,15.0,29,4,0.0,0.0,30,0,0.0,0.0,30,0,0.0,0.0,1,26854,0.13793103448275862,0.0,0.0,0.13012361743656473
"MWI","MW",2993.0,28954.0,28954.0,"kamkodola","",33.73538,-13.941835,3,"school","mapping",2012,10.0,14.0,30,0,0.0,0.0,30,0,0.0,0.0,30,0,0.0,0.0,1,26440,0.0,0.0,0.0,0.0
"MWI","MW",2993.0,28954.0,28954.0,"kamkodola lea","",33.73548417,-13.94161112,3,"school","mapping",2018,10.0,14.0,30,0,0.0,0.0,30,0,0.0,0.0,30,0,0.0,0.0,1,26517,0.0,0.0,0.0,0.0
"MWI","MW",2999.0,28973.0,28973.0,"kamombwa","",33.3880929,-11.8611851,3,"","mapping",2018,10.0,14.0,30,2,0.0,0.0333,30,1,0.0,0.0,30,0,0.0,0.0,1,26855,0.06666666666666667,0.03333333333333333,0.0,0.09224318658280922
"MWI","MW",2999.0,28972.0,28972.0,"kampondo","",33.4684709,-11.246474599999999,3,"school","mapping",2018,10.0,13.0,30,0,0.0,0.0,30,0,0.0,0.0,30,0,0.0,0.0,1,26791,0.0,0.0,0.0,0.0
"MWI","MW",2999.0,28973.0,28973.0,"kampondo primary","",33.468225,-11.24582,3,"school","mapping",2012,10.0,14.0,30,2,0.0,0.0,30,0,0.0,0.0,30,0,0.0,0.0,1,26856,0.06666666666666667,0.0,0.0,0.06289308176100628
"MWI","MW",3005.0,28966.0,28966.0,"kamsonga","",33.7990183,-13.2760093,3,"school","mapping",2018,10.0,14.0,30,0,0.0,0.0,30,0,0.0,0.0,30,0,0.0,0.0,1,26675,0.0,0.0,0.0,0.0
"MWI","MW",3005.0,28966.0,28966.0,"kamsonga","",33.7990183,-13.2760093,3,"school","mapping",2012,10.0,14.0,30,0,0.0,0.0,30,0,0.0,0.0,30,0,0.0,0.0,1,26674,0.0,0.0,0.0,0.0
"MWI","MW",3001.0,28962.0,28962.0,"kamundi","",34.14837,-11.67837,3,"school","mapping",2013,10.0,13.0,29,0,0.0,0.0,30,1,0.0,0.0333,30,1,0.0,0.0,1,26902,0.0,0.03333333333333333,0.03333333333333333,0.06184486373165619
"MWI","MW",3001.0,28962.0,28962.0,"kamundi",13240.0,34.14837,-11.67837,3,"","",2013,"","",30,0,"","",30,0,"","",30,1,"","",1,9911,0.0,0.0,0.03333333333333333,0.03144654088050314
"MWI","MW",2996.0,28957.0,28957.0,"kamuzu lea school","",32.89199252,-13.78963555,3,"school","mapping",2017,10.0,14.0,27,0,0.0,0.0,27,0,0.0,0.0,27,0,0.0,0.0,1,26581,0.0,0.0,0.0,0.0
"MWI","MW",2991.0,28952.0,28952.0,"kamwala lea school","",33.52384524,-13.0376415,3,"school","mapping",2017,10.0,14.0,29,0,0.0,0.0,29,0,0.0,0.0,29,0,0.0,0.0,1,26412,0.0,0.0,0.0,0.0
"MWI","MW",2997.0,28958.0,28958.0,"kamwendo school","",35.45834238,-15.66808444,3,"school","mapping",2017,10.0,14.0,29,4,0.0,0.0,29,2,0.0,0.0,29,2,0.0,0.0,1,27145,0.13793103448275862,0.06896551724137931,0.06896551724137931,0.23843102790695153
"MWI","MW",2993.0,28954.0,28954.0,"kamzimbi","",33.43480424,-13.71010838,3,"school","mapping",2018,10.0,14.0,30,0,0.0,0.0,30,0,0.0,0.0,30,0,0.0,0.0,1,26518,0.0,0.0,0.0,0.0
"MWI","MW",3005.0,28966.0,28966.0,"kandawe","",33.8587651,-13.2868407,3,"school","mapping",2018,10.0,14.0,29,0,0.0,0.0,29,1,0.0,0.0,29,0,0.0,0.0,1,26676,0.0,0.034482758620689655,0.0,0.03253090435914118
"MWI","MW",3004.0,28965.0,28965.0,"kandoma","",34.6699989,-15.0387716,3,"school","mapping",2018,10.0,14.0,29,0,0.0,0.0,29,0,0.0,0.0,29,0,0.0,0.0,1,26624,0.0,0.0,0.0,0.0
"MWI","MW",2984.0,28945.0,28945.0,"kanjedza","",35.0513162,-15.8124157,3,"","mapping",2018,10.0,14.0,30,0,0.0,0.0,30,0,0.0,0.0,30,0,0.0,0.0,1,27006,0.0,0.0,0.0,0.0
"MWI","MW",2984.0,28945.0,28945.0,"kanjedza primary","",35.051335,-15.812685,3,"school","mapping",2012,10.0,14.0,30,3,0.0,0.0,30,2,0.0,0.0,30,0,0.0,0.0,1,27007,0.1,0.06666666666666667,0.0,0.15094339622641512
"MWI","MW",2997.0,28958.0,28958.0,"kanjedza school","",35.2149,-17.0416,3,"school","mapping",2017,10.0,14.0,29,0,0.0,0.0,29,3,0.0,0.0,29,1,0.0,0.0,1,27146,0.0,0.10344827586206896,0.034482758620689655,0.1267583514683777
"MWI","MW",3003.0,28964.0,28964.0,"kanjedza school","",35.46296046,-16.10606173,3,"school","mapping",2017,10.0,14.0,30,0,0.0,0.0,30,3,0.0,0.0,30,0,0.0,0.0,1,27194,0.0,0.1,0.0,0.09433962264150943
"MWI","MW",2998.0,28959.0,28959.0,"kanjeza primary school","",34.49885,-15.539505,3,"school","mapping",2012,11.0,14.0,30,0,0.0,0.0,30,0,0.0,0.0,30,0,0.0,0.0,1,27157,0.0,0.0,0.0,0.0
"MWI","MW",2996.0,28957.0,28957.0,"kanongo school","",33.33262054,-13.99594476,3,"school","mapping",2017,10.0,14.0,30,0,0.0,0.0,30,0,0.0,0.0,30,0,0.0,0.0,1,26582,0.0,0.0,0.0,0.0
"MWI","MW",2993.0,28954.0,28954.0,"kanthonga school","",33.9718525,-13.8394174,3,"school","mapping",2018,10.0,14.0,30,4,0.0,0.0,30,3,0.0,0.0,30,0,0.0,0.0,1,26519,0.13333333333333333,0.1,0.0,0.20754716981132074
"MWI","MW",3002.0,28963.0,28963.0,"kanyenje","",34.22359,-12.83989,3,"school","mapping",2013,10.0,14.0,30,2,0.06670000000000001,0.0,30,7,0.0333,0.2,30,0,0.0,0.0,1,26601,0.06666666666666667,0.23333333333333334,0.0,0.2683438155136268
"MWI","MW",3002.0,28963.0,28963.0,"kanyenje",13256.0,34.22359,-12.83989,3,"","",2013,"","",30,0,"","",30,0,"","",30,0,"","",1,9915,0.0,0.0,0.0,0.0
"MWI","MW",3004.0,28965.0,28965.0,"kanyimbo","",34.5381283,-14.7175322,3,"school","mapping",2018,10.0,13.0,29,0,0.0,0.0,29,0,0.0,0.0,29,0,0.0,0.0,1,26625,0.0,0.0,0.0,0.0
"MWI","MW",2983.0,28944.0,28944.0,"kapalamula","",34.8962424,-14.9571773,3,"school","mapping",2018,10.0,13.0,27,0,0.0,0.0,27,1,0.0,0.0,27,0,0.0,0.0,1,26946,0.0,0.037037037037037035,0.0,0.034940600978336823
"MWI","MW",3004.0,28965.0,28965.0,"kapalamula","",34.7142146,-14.729789199999999,3,"school","mapping",2018,10.0,14.0,30,0,0.0,0.0,30,0,0.0,0.0,30,0,0.0,0.0,1,26626,0.0,0.0,0.0,0.0
"MWI","MW",2983.0,28944.0,28944.0,"kapalamula catholic","",34.8961,-14.95731,3,"school","mapping",2012,10.0,14.0,30,0,0.0,0.0,30,0,0.0,0.0,30,0,0.0,0.0,1,26947,0.0,0.0,0.0,0.0
"MWI","MW",2983.0,28944.0,28944.0,"kapandatsisti","",35.0971885,-14.9658799,3,"school","mapping",2018,10.0,14.0,29,1,0.0,0.0,29,0,0.0,0.0,29,0,0.0,0.0,1,26948,0.034482758620689655,0.0,0.0,0.03253090435914118
"MWI","MW",2983.0,28944.0,28944.0,"kapandatsitsi","",35.09708,-14.96569,3,"school","mapping",2012,10.0,14.0,30,0,0.0,0.0,30,0,0.0,0.0,30,0,0.0,0.0,1,26949,0.0,0.0,0.0,0.0
"MWI","MW",2987.0,28948.0,28948.0,"kapele","",33.017384,-9.611567,3,"","",2002,9.0,10.0,33,0,"","",33,1,"","",33,0,"","",2,29218,0.0,0.030303030303030304,0.0,0.02858776443682104
"MWI","MW",2984.0,28945.0,28945.0,"kapeni primary school","",35.039895,-15.83188,3,"school","mapping",2012,10.0,14.0,30,0,0.0,0.0,30,0,0.0,0.0,28,0,0.0,0.0,1,27008,0.0,0.0,0.0,0.0
"MWI","MW",2984.0,28945.0,28945.0,"kapeni demonstration","",35.0397763,-15.831969,3,"","mapping",2018,10.0,14.0,30,1,0.0,0.0,30,0,0.0,0.0,30,0,0.0,0.0,1,27009,0.03333333333333333,0.0,0.0,0.03144654088050314
"MWI","MW",2993.0,28954.0,28954.0,"kaphira","",33.4585845,-14.1332726,3,"school","mapping",2018,10.0,14.0,30,0,0.0,0.0,30,0,0.0,0.0,30,0,0.0,0.0,1,26520,0.0,0.0,0.0,0.0
"MWI","MW",2997.0,28958.0,28958.0,"kaphiri jp school","",35.35965535,-15.89365684,3,"school","mapping",2017,10.0,14.0,30,1,0.0,0.0,30,4,0.0,0.0,30,0,0.0,0.0,1,27147,0.03333333333333333,0.13333333333333333,0.0,0.15303983228511528
"MWI","MW",3005.0,28966.0,28966.0,"kapombe","",33.93050643,-13.43401251,3,"school","mapping",2018,10.0,14.0,30,0,0.0,0.0,30,0,0.0,0.0,30,0,0.0,0.0,1,26677,0.0,0.0,0.0,0.0
"MWI","MW",2999.0,28973.0,28973.0,"kapondelo f.p.","",33.986745,-11.25665,3,"school","mapping",2012,10.0,15.0,30,4,0.0,0.0,30,0,0.0,0.0,30,0,0.0,0.0,1,26857,0.13333333333333333,0.0,0.0,0.12578616352201255
"MWI","MW",2999.0,28972.0,28972.0,"kapondero","",33.9867875,-11.2565717,3,"school","mapping",2018,10.0,14.0,29,0,0.0,0.0,29,0,0.0,0.0,29,0,0.0,0.0,1,26792,0.0,0.0,0.0,0.0
"MWI","MW",2990.0,28951.0,28951.0,"karonga old mission 1 school","",33.93992545,-9.95110873,3,"school","mapping",2017,10.0,13.0,30,0,0.0,0.0,30,0,0.0,0.0,30,0,0.0,0.0,1,26760,0.0,0.0,0.0,0.0
"MWI","MW",2987.0,28948.0,28948.0,"karopa school","",33.64422624,-10.21872332,3,"school","mapping",2017,10.0,14.0,30,0,0.0,0.0,30,4,0.0,0.0,30,0,0.0,0.0,1,26738,0.0,0.13333333333333333,0.0,0.12578616352201255
"MWI","MW",3005.0,28966.0,28966.0,"kasamba","",33.8498076,-13.1682636,3,"school","mapping",2018,10.0,14.0,29,4,0.0,0.0,29,4,0.0,0.0,29,0,0.0,0.0,1,26678,0.13793103448275862,0.13793103448275862,0.0,0.24229914970946537
"MWI","MW",2991.0,28952.0,28952.0,"kasambankhole school","",33.69459103,-12.73649808,3,"school","mapping",2017,10.0,14.0,30,0,0.0,0.0,30,0,0.0,0.0,30,0,0.0,0.0,1,26413,0.0,0.0,0.0,0.0
"MWI","MW",2990.0,28951.0,28951.0,"kasantha","",33.83966003,-9.742996725,3,"school","mapping",2017,10.0,14.0,26,0,0.0,0.0,26,0,0.0,0.0,26,0,0.0,0.0,1,26761,0.0,0.0,0.0,0.0
"MWI","MW",3007.0,28968.0,28968.0,"kasasa school","",33.61779114,-10.87737229,3,"school","mapping",2017,10.0,14.0,30,1,0.0,0.0,30,0,0.0,0.0,30,0,0.0,0.0,1,26922,0.03333333333333333,0.0,0.0,0.03144654088050314
"MWI","MW",3004.0,28965.0,28965.0,"kasisi","",34.8229581,-14.9998819,3,"school","mapping",2018,10.0,14.0,30,2,0.0,0.0,30,3,0.0,0.0,30,0,0.0,0.0,1,26627,0.06666666666666667,0.1,0.0,0.15094339622641512
"MWI","MW",2990.0,28951.0,28951.0,"kasisi","",33.842098,-9.8589,3,"","",1999,9.0,16.0,97,75,"","",0,0,"","",97,1,"","",3,29066,0.7731958762886598,"",0.010309278350515464,""
"MWI","MW",2989.0,28950.0,28950.0,"kasumba school","",34.1146,-13.643650000000001,3,"school","mapping",2017,10.0,14.0,25,0,0.0,0.0,25,0,0.0,0.0,25,0,0.0,0.0,1,26379,0.0,0.0,0.0,0.0
"MWI","MW",2991.0,28952.0,28952.0,"kasungu 1","",33.0883194,-13.3243167,3,"school","mapping",2017,10.0,14.0,30,0,0.0,0.0,30,0,0.0,0.0,30,0,0.0,0.0,1,35044,0.0,0.0,0.0,0.0
"MWI","MW",2991.0,28952.0,28952.0,"kasungu 10","",33.3760218,-13.0436969,3,"school","mapping",2017,10.0,14.0,30,0,0.0,0.0,30,0,0.0,0.0,30,0,0.0,0.0,1,35045,0.0,0.0,0.0,0.0
"MWI","MW",2991.0,28952.0,28952.0,"kasungu 11","",33.3668196,-13.0760178,3,"school","mapping",2017,10.0,14.0,30,0,0.0,0.0,30,0,0.0,0.0,30,0,0.0,0.0,1,35046,0.0,0.0,0.0,0.0
"MWI","MW",2991.0,28952.0,28952.0,"kasungu 12","",33.552986,-12.5706209,3,"school","mapping",2017,10.0,14.0,30,0,0.0,0.0,30,0,0.0,0.0,30,0,0.0,0.0,1,35047,0.0,0.0,0.0,0.0
"MWI","MW",2991.0,28952.0,28952.0,"kasungu 13","",33.3665303,-13.1796988,3,"school","mapping",2017,10.0,14.0,30,0,0.0,0.0,30,3,0.0,0.0,30,0,0.0,0.0,1,35048,0.0,0.1,0.0,0.09433962264150943
"MWI","MW",2991.0,28952.0,28952.0,"kasungu 14","",33.4508698,-12.7114613,3,"school","mapping",2017,10.0,14.0,30,0,0.0,0.0,30,0,0.0,0.0,30,0,0.0,0.0,1,35049,0.0,0.0,0.0,0.0
"MWI","MW",2999.0,28972.0,28972.0,"katawa","",34.02731834,-11.44434155,3,"","mapping",2018,10.0,13.0,30,0,0.0,0.0,30,0,0.0,0.0,30,0,0.0,0.0,1,26793,0.0,0.0,0.0,0.0
"MWI","MW",2999.0,28972.0,28972.0,"katawa ccap primary scho","",34.02689,-11.444455,3,"","mapping",2012,10.0,13.0,30,0,0.0,0.0,30,2,0.0,0.0,30,0,0.0,0.0,1,26794,0.0,0.06666666666666667,0.0,0.06289308176100628
"MWI","MW",2988.0,28949.0,28949.0,"katayila","",34.58319275,-14.18247592,3,"school","mapping",2017,10.0,13.0,30,0,0.0,0.0,30,0,0.0,0.0,30,0,0.0,0.0,1,26360,0.0,0.0,0.0,0.0
"MWI","MW",2984.0,28945.0,28945.0,"katete","",35.0195835,-15.4004374,3,"","mapping",2018,10.0,14.0,30,0,0.0,0.0,30,0,0.0,0.0,30,0,0.0,0.0,1,27010,0.0,0.0,0.0,0.0
"MWI","MW",2993.0,28954.0,28954.0,"katete","",33.592272,-14.2045202,3,"school","mapping",2018,10.0,14.0,30,0,0.0,0.0,30,0,0.0,0.0,30,0,0.0,0.0,1,26521,0.0,0.0,0.0,0.0
"MWI","MW",2984.0,28945.0,28945.0,"katete 1 fp school","",35.00854,-14.0584127,1,"school","mapping",2012,10.0,14.0,30,0,0.0,0.0,30,0,0.0,0.0,30,0,0.0,0.0,1,27011,0.0,0.0,0.0,0.0
"MWI","MW",3004.0,28965.0,28965.0,"kateza","",34.9435697,-14.7578669,3,"school","mapping",2018,10.0,12.0,30,0,0.0,0.0,30,0,0.0,0.0,30,0,0.0,0.0,1,26628,0.0,0.0,0.0,0.0
"MWI","MW",2993.0,28954.0,28954.0,"katobo","",33.6397971,-14.1967021,3,"school","mapping",2018,10.0,14.0,30,0,0.0,0.0,30,2,0.0,0.0,30,0,0.0,0.0,1,26522,0.0,0.06666666666666667,0.0,0.06289308176100628
"MWI","MW",3002.0,28963.0,28963.0,"katope","",34.13777,-13.27561,3,"school","mapping",2013,10.0,13.0,30,0,0.0,0.0,30,4,0.0,0.1333,29,0,0.0,0.0,1,26602,0.0,0.13333333333333333,0.0,0.12578616352201255
"MWI","MW",3002.0,28963.0,28963.0,"katope",13257.0,34.13777,-13.27561,3,"","",2013,"","",30,0,"","",29,0,"","",29,0,"","",1,9922,0.0,0.0,0.0,0.0
"MWI","MW",2999.0,28972.0,28972.0,"katoto","",34.0093668,-11.4588527,3,"","mapping",2018,10.0,14.0,29,1,0.0,0.0,29,1,0.0,0.0,29,0,0.0,0.0,1,26795,0.034482758620689655,0.034482758620689655,0.0,0.06394005339555335
"MWI","MW",2999.0,28972.0,28972.0,"katoto primary school","",34.0098325,-11.4595549,1,"","mapping",2012,10.0,14.0,30,0,0.0,0.0,30,2,0.0,0.0,30,0,0.0,0.0,1,26796,0.0,0.06666666666666667,0.0,0.06289308176100628
"MWI","MW",3004.0,28965.0,28965.0,"katsekera","",34.638725,-15.03404,3,"school","mapping",2012,10.0,14.0,30,0,0.0,0.0,30,0,0.0,0.0,30,0,0.0,0.0,1,26629,0.0,0.0,0.0,0.0
"MWI","MW",2991.0,28952.0,28952.0,"katunda school","",33.70184838,-12.96299193,3,"school","mapping",2017,10.0,14.0,30,0,0.0,0.0,30,0,0.0,0.0,30,0,0.0,0.0,1,26414,0.0,0.0,0.0,0.0
"MWI","MW",2989.0,28950.0,28950.0,"katundu","",34.03031394,-13.79505626,3,"school","mapping",2017,10.0,15.0,29,0,0.0,0.0,29,0,0.0,0.0,29,0,0.0,0.0,1,26380,0.0,0.0,0.0,0.0
"MWI","MW",2996.0,28957.0,28957.0,"katutula school","",32.97557512,-13.44046811,3,"school","mapping",2017,10.0,13.0,20,0,0.0,0.0,20,0,0.0,0.0,20,0,0.0,0.0,1,26583,0.0,0.0,0.0,0.0
"MWI","MW",3001.0,28962.0,28962.0,"kaulasisi","",34.03389,-11.31199,3,"school","mapping",2013,9.0,13.0,30,0,0.0,0.0,30,1,0.0,0.0333,30,1,0.0,0.0,1,26903,0.0,0.03333333333333333,0.03333333333333333,0.06184486373165619
"MWI","MW",3001.0,28962.0,28962.0,"kaulasisi",13241.0,34.03389,-11.31199,3,"","",2013,"","",30,1,"","",30,0,"","",30,1,"","",1,9898,0.03333333333333333,0.0,0.03333333333333333,0.06184486373165619
"MWI","MW",2993.0,28954.0,28954.0,"kaundama","",34.070705,-14.11557,3,"school","mapping",2012,10.0,15.0,30,2,0.0,0.0,30,0,0.0,0.0,30,0,0.0,0.0,1,26441,0.06666666666666667,0.0,0.0,0.06289308176100628
"MWI","MW",2999.0,28972.0,28972.0,"kaviwale","",33.9789583,-11.4549779,3,"","mapping",2018,10.0,14.0,30,0,0.0,0.0,30,0,0.0,0.0,30,0,0.0,0.0,1,26797,0.0,0.0,0.0,0.0
"MWI","MW",2999.0,28972.0,28972.0,"kaviwale primary","",33.978875,-11.455235,3,"","mapping",2012,10.0,13.0,30,0,0.0,0.0,30,0,0.0,0.0,30,0,0.0,0.0,1,26798,0.0,0.0,0.0,0.0
"MWI","MW",2996.0,28957.0,28957.0,"kavumbwa lea","",33.2249687,-13.67392151,3,"school","mapping",2017,10.0,14.0,30,0,0.0,0.0,30,0,0.0,0.0,30,0,0.0,0.0,1,26584,0.0,0.0,0.0,0.0
"MWI","MW",3008.0,28969.0,28969.0,"kavunguti","",34.30728,-13.84322,3,"school","mapping",2013,10.0,14.0,30,19,0.6333000000000001,0.0,30,0,0.0,0.0,30,0,0.0,0.0,1,26711,0.6333333333333333,0.0,0.0,0.5974842767295596
"MWI","MW",2989.0,28950.0,28950.0,"kavunguti","",33.628933,-13.566283,3,"","",2002,9.0,10.0,50,0,"","",50,0,"","",50,0,"","",2,29201,0.0,0.0,0.0,0.0
"MWI","MW",2989.0,28950.0,28950.0,"kavuu school","",34.09386699,-13.54653594,3,"school","mapping",2017,10.0,13.0,30,0,0.0,0.0,29,0,0.0,0.0,29,0,0.0,0.0,1,26381,0.0,0.0,0.0,0.0
"MWI","MW",2999.0,28973.0,28973.0,"kavyeyo","",33.4546839,-12.1324177,3,"","mapping",2018,10.0,12.0,30,0,0.0,0.0,30,2,0.0,0.0,30,0,0.0,0.0,1,26858,0.0,0.06666666666666667,0.0,0.06289308176100628
"MWI","MW",2999.0,28973.0,28973.0,"kavyeyo f.p.","",33.454475,-12.132605,3,"school","mapping",2012,11.0,14.0,27,2,0.0,0.0,27,0,0.0,0.0,27,0,0.0,0.0,1,26859,0.07407407407407407,0.0,0.0,0.06988120195667365
"MWI","MW",2993.0,28954.0,28954.0,"kawale lea school","",33.800245,-13.98891,3,"school","mapping",2012,10.0,13.0,30,0,0.0,0.0,30,0,0.0,0.0,30,0,0.0,0.0,1,26442,0.0,0.0,0.0,0.0
"MWI","MW",2993.0,28954.0,28954.0,"kawale lea school","",33.8001068,-13.9889948,3,"school","mapping",2018,10.0,14.0,29,0,0.0,0.0,29,0,0.0,0.0,29,0,0.0,0.0,1,26523,0.0,0.0,0.0,0.0
"MWI","MW",2989.0,28950.0,28950.0,"kawangwi school","",34.25429428,-13.75170312,3,"school","mapping",2017,10.0,14.0,30,0,0.0,0.0,30,0,0.0,0.0,30,0,0.0,0.0,1,26382,0.0,0.0,0.0,0.0
"MWI","MW",3007.0,28968.0,28968.0,"kawaza primary school","",33.7442,-10.94939,3,"school","mapping",2017,10.0,15.0,29,1,0.0,0.0,29,0,0.0,0.0,29,1,0.0,0.0345,1,26923,0.034482758620689655,0.0,0.034482758620689655,0.06394005339555335
"MWI","MW",2989.0,28950.0,28950.0,"kayembe school","",33.58295543,-13.64447518,3,"school","mapping",2017,10.0,14.0,30,0,0.0,0.0,30,0,0.0,0.0,30,0,0.0,0.0,1,26383,0.0,0.0,0.0,0.0
"MWI","MW",2999.0,28973.0,28973.0,"kazengo","",33.5844882,-11.9060946,3,"","mapping",2018,10.0,13.0,28,0,0.0,0.0,28,0,0.0,0.0,28,0,0.0,0.0,1,26860,0.0,0.0,0.0,0.0
"MWI","MW",2999.0,28973.0,28973.0,"kazengo f.p.","",33.58443,-11.906085,3,"school","mapping",2012,10.0,14.0,30,0,0.0,0.0,30,0,0.0,0.0,30,0,0.0,0.0,1,26861,0.0,0.0,0.0,0.0
"MWI","MW",2993.0,28954.0,28954.0,"kazika","",33.90515788,-14.22582004,3,"school","mapping",2018,10.0,14.0,29,0,0.0,0.0,29,0,0.0,0.0,29,0,0.0,0.0,1,26524,0.0,0.0,0.0,0.0
"MWI","MW",2999.0,28973.0,28973.0,"kazingilira","",33.6494231,-12.2828068,3,"","mapping",2018,10.0,14.0,30,0,0.0,0.0,30,0,0.0,0.0,30,0,0.0,0.0,1,26862,0.0,0.0,0.0,0.0
"MWI","MW",2999.0,28973.0,28973.0,"kazingilira f p school","",33.649555,-12.283115,3,"school","mapping",2012,10.0,14.0,30,1,0.0,0.0,30,1,0.0,0.0,30,0,0.0,0.0,1,26863,0.03333333333333333,0.03333333333333333,0.0,0.06184486373165619
"MWI","MW",3005.0,28966.0,28966.0,"kaziwa","",33.9242215,-13.4020254,3,"school","mapping",2018,11.0,14.0,30,5,0.0,0.0,30,9,0.0,0.0,30,0,0.0,0.0,1,26680,0.16666666666666666,0.3,0.0,0.3930817610062893
"MWI","MW",3005.0,28966.0,28966.0,"kaziwa","",33.9242215,-13.4020254,3,"school","mapping",2012,11.0,14.0,31,1,0.0,0.0,31,2,0.0,0.0,31,0,0.0,0.0,1,26679,0.03225806451612903,0.06451612903225806,0.0,0.08933304537333359
"MWI","MW",2993.0,28954.0,28954.0,"khanda primary","",33.457265,-14.00998,3,"school","mapping",2012,10.0,14.0,30,0,0.0,0.0,30,0,0.0,0.0,30,0,0.0,0.0,1,26443,0.0,0.0,0.0,0.0
"MWI","MW",2998.0,28959.0,28959.0,"kholombidzo","",34.52479,-15.5997929,1,"school","mapping",2012,10.0,14.0,30,0,0.0,0.0,30,0,0.0,0.0,30,0,0.0,0.0,1,27158,0.0,0.0,0.0,0.0
"MWI","MW",3000.0,28961.0,28961.0,"kholombidzo school","",34.9026617,-15.3785339,3,"","mapping",2018,10.0,14.0,30,1,0.0,0.0,30,0,0.0,0.0,30,0,0.0,0.0,1,27175,0.03333333333333333,0.0,0.0,0.03144654088050314
"MWI","MW",3003.0,28964.0,28964.0,"khope jp school","",35.19202493,-16.64963625,3,"school","mapping",2017,10.0,14.0,30,1,0.0,0.0,30,1,0.0,0.0,30,0,0.0,0.0,1,27195,0.03333333333333333,0.03333333333333333,0.0,0.06184486373165619
"MWI","MW",2993.0,28954.0,28954.0,"khumula primary school","",33.786435,-13.99559,3,"school","mapping",2012,10.0,14.0,30,2,0.0,0.0,30,0,0.0,0.0,30,0,0.0,0.0,1,26444,0.06666666666666667,0.0,0.0,0.06289308176100628
"MWI","MW",2993.0,28954.0,28954.0,"khumula school","",33.7862861,-13.9952443,3,"school","mapping",2018,10.0,14.0,30,0,0.0,0.0,30,0,0.0,0.0,30,0,0.0,0.0,1,26525,0.0,0.0,0.0,0.0
"MWI","MW",3005.0,28966.0,28966.0,"kwezani","",33.954165,-13.331875,3,"school","mapping",2012,10.0,14.0,62,0,0.0,0.0,62,4,0.0,0.0,62,0,0.0,0.0,1,26681,0.0,0.06451612903225806,0.0,0.06086427267194156
"MWI","MW",2985.0,28946.0,28946.0,"lalanje school","",35.02116997,-16.52293686,3,"school","mapping",2017,10.0,14.0,30,0,0.0,0.0,30,0,0.0,0.0,30,0,0.0,0.0,1,27062,0.0,0.0,0.0,0.0
"MWI","MW",2996.0,28957.0,28957.0,"lameke school","",32.98106131,-13.55372145,3,"school","mapping",2017,10.0,14.0,30,0,0.0,0.0,30,0,0.0,0.0,30,0,0.0,0.0,1,26585,0.0,0.0,0.0,0.0
"MWI","MW",2985.0,28946.0,28946.0,"lengwe lea school","",34.79957864,-16.20180751,3,"school","mapping",2017,11.0,14.0,28,0,0.0,0.0,28,0,0.0,0.0,28,0,0.0,0.0,1,27063,0.0,0.0,0.0,0.0
"MWI","MW",3000.0,28961.0,28961.0,"ligowe","",34.651965,-15.47522,3,"school","mapping",2012,10.0,14.0,30,0,0.0,0.0,30,0,0.0,0.0,30,0,0.0,0.0,1,27176,0.0,0.0,0.0,0.0
"MWI","MW",3000.0,28961.0,28961.0,"ligowe school","",34.652183,-15.4750346,3,"","mapping",2018,10.0,14.0,30,2,0.0,0.0,30,3,0.0,0.0,30,1,0.0,0.0,1,27177,0.06666666666666667,0.1,0.03333333333333333,0.17735849056603772
"MWI","MW",3006.0,28967.0,28967.0,"likanani school","",35.76522481,-15.927373620000001,3,"school","mapping",2017,10.0,14.0,29,0,0.0,0.0,29,0,0.0,0.0,29,0,0.0,0.0,1,27210,0.0,0.0,0.0,0.0
"MWI","MW",2984.0,28945.0,28945.0,"lilangwe f p school","",35.025385,-15.529755,3,"school","mapping",2012,10.0,14.0,30,0,0.0,0.0,30,0,0.0,0.0,30,0,0.0,0.0,1,27012,0.0,0.0,0.0,0.0
"MWI","MW",2986.0,28947.0,28947.0,"lilangwe primary school","",35.14776,-15.571645,3,"school","mapping",2012,10.0,14.0,30,0,0.0,0.0,30,2,0.0,0.0,30,0,0.0,0.0,1,27082,0.0,0.06666666666666667,0.0,0.06289308176100628
"MWI","MW",2993.0,28954.0,28954.0,"lilongwe demo school","",33.7764343,-13.8919725,3,"school","mapping",2018,10.0,14.0,29,1,0.0,0.0,29,3,0.0,0.0,29,0,0.0,0.0,1,26526,0.034482758620689655,0.10344827586206896,0.0,0.1267583514683777
"MWI","MW",2984.0,28945.0,28945.0,"limbe","",35.0551647,-15.8093431,3,"","mapping",2018,10.0,14.0,30,2,0.0,0.0333,30,0,0.0,0.0,30,2,0.0,0.0,1,27013,0.06666666666666667,0.0,0.06666666666666667,0.12159329140461214
"MWI","MW",2984.0,28945.0,28945.0,"limbe primary","",35.05498,-15.80926,3,"school","mapping",2012,10.0,14.0,30,0,0.0,0.0,30,2,0.0,0.0,30,0,0.0,0.0,1,27014,0.0,0.06666666666666667,0.0,0.06289308176100628
"MWI","MW",2994.0,28955.0,28955.0,"limera school","",35.70482387,-14.90719808,3,"school","mapping",2017,10.0,14.0,30,0,0.0,0.0,30,0,0.0,0.0,30,0,0.0,0.0,1,27116,0.0,0.0,0.0,0.0
"MWI","MW",3007.0,28968.0,28968.0,"linga school","",33.94647699,-10.91946978,3,"school","mapping",2017,10.0,14.0,30,0,0.0,0.0,30,0,0.0,0.0,30,0,0.0,0.0,1,26924,0.0,0.0,0.0,0.0
"MWI","MW",3009.0,28970.0,28970.0,"lipho school","",35.29543021,-16.26703753,3,"school","mapping",2017,10.0,14.0,30,0,0.0,0.0,30,0,0.0,0.0,30,0,0.0,0.0,1,27228,0.0,0.0,0.0,0.0
"MWI","MW",3000.0,28961.0,28961.0,"lisungwi school","",34.77676447,-15.4360091,3,"","mapping",2018,10.0,14.0,30,0,0.0,0.0,30,0,0.0,0.0,30,0,0.0,0.0,1,27178,0.0,0.0,0.0,0.0
"MWI","MW",2986.0,28947.0,28947.0,"litchenza f p school","",35.2702556,-15.918821,3,"school","mapping",2018,10.0,14.0,30,0,0.0,0.0,30,0,0.0,0.0,30,0,0.0,0.0,1,27083,0.0,0.0,0.0,0.0
"MWI","MW",2984.0,28945.0,28945.0,"little chaps","",34.99992717,-15.76389507,3,"","mapping",2018,10.0,14.0,30,0,0.0,0.0,30,0,0.0,0.0,30,0,0.0,0.0,1,27015,0.0,0.0,0.0,0.0
"MWI","MW",3004.0,28965.0,28965.0,"livalo","",34.80918,-14.82439,3,"school","mapping",2012,11.0,14.0,30,0,0.0,0.0,30,0,0.0,0.0,30,0,0.0,0.0,1,26630,0.0,0.0,0.0,0.0
"MWI","MW",2993.0,28954.0,28954.0,"liwinga","",33.34691388,-13.89592329,3,"school","mapping",2018,10.0,14.0,30,0,0.0,0.0,30,0,0.0,0.0,30,0,0.0,0.0,1,26527,0.0,0.0,0.0,0.0
"MWI","MW",2993.0,28954.0,28954.0,"liwinga j.p. school","",33.346815,-13.895795,3,"school","mapping",2012,10.0,14.0,30,8,0.0,0.0,30,0,0.0,0.0,30,0,0.0,0.0,1,26445,0.26666666666666666,0.0,0.0,0.2515723270440251
"MWI","MW",2996.0,28957.0,28957.0,"lombwa school","",33.06339052,-13.47763004,3,"school","mapping",2017,10.0,14.0,30,0,0.0,0.0,30,0,0.0,0.0,30,0,0.0,0.0,1,26586,0.0,0.0,0.0,0.0
"MWI","MW",2984.0,28945.0,28945.0,"love of god","",35.0104054,-15.7460723,3,"","mapping",2018,10.0,14.0,30,2,0.0,0.0,30,0,0.0,0.0,30,0,0.0,0.0,1,27016,0.06666666666666667,0.0,0.0,0.06289308176100628
"MWI","MW",3009.0,28970.0,28970.0,"luchenza catholic","",35.3159425,-16.00323428,3,"school","mapping",2017,10.0,12.0,28,0,0.0,0.0,28,0,0.0,0.0,28,0,0.0,0.0,1,27229,0.0,0.0,0.0,0.0
"MWI","MW",2999.0,28972.0,28972.0,"luhomero","",33.9453616,-11.2673682,3,"school","mapping",2018,10.0,14.0,28,0,0.0,0.0,28,0,0.0,0.0,28,0,0.0,0.0,1,26799,0.0,0.0,0.0,0.0
"MWI","MW",2999.0,28973.0,28973.0,"luhomero","",33.94563,-11.267375,3,"school","mapping",2012,11.0,15.0,30,0,0.0,0.0,30,0,0.0,0.0,30,0,0.0,0.0,1,26864,0.0,0.0,0.0,0.0
"MWI","MW",3007.0,28968.0,28968.0,"luhono school","",33.63595624,-10.98822643,3,"school","mapping",2017,10.0,14.0,30,0,0.0,0.0,30,0,0.0,0.0,30,0,0.0,0.0,1,26925,0.0,0.0,0.0,0.0
"MWI","MW",2990.0,28951.0,28951.0,"lulindo school","",33.93299129,-9.937072732,3,"school","mapping",2017,10.0,13.0,29,0,0.0,0.0,29,0,0.0,0.0,29,0,0.0,0.0,1,26762,0.0,0.0,0.0,0.0
"MWI","MW",2999.0,28972.0,28972.0,"lumemo","",33.8429787,-11.0353649,3,"school","mapping",2018,10.0,13.0,30,0,0.0,0.0,30,0,0.0,0.0,30,0,0.0,0.0,1,26800,0.0,0.0,0.0,0.0
"MWI","MW",2999.0,28973.0,28973.0,"lumemo f.p.","",33.842675,-11.060535,3,"school","mapping",2012,10.0,15.0,30,2,0.0,0.0,30,0,0.0,0.0,30,0,0.0,0.0,1,26865,0.06666666666666667,0.0,0.0,0.06289308176100628
"MWI","MW",3007.0,28968.0,28968.0,"lundu school","",33.73962999,-10.92418213,3,"school","mapping",2017,10.0,14.0,30,0,0.0,0.0,30,0,0.0,0.0,30,0,0.0,0.0,1,26926,0.0,0.0,0.0,0.0
"MWI","MW",2999.0,28972.0,28972.0,"lunyangwa","",34.0256605,-11.4516321,3,"","mapping",2018,10.0,14.0,30,0,0.0,0.0,30,2,0.0,0.0,30,0,0.0,0.0,1,26801,0.0,0.06666666666666667,0.0,0.06289308176100628
"MWI","MW",2999.0,28972.0,28972.0,"lunyangwa girls primary","",34.0260814,-11.4518103,1,"","mapping",2012,10.0,14.0,30,2,0.0,0.0,30,2,0.0,0.0,30,0,0.0,0.0,1,26802,0.06666666666666667,0.06666666666666667,0.0,0.12159329140461214
"MWI","MW",2984.0,28945.0,28945.0,"lunzu","",35.019648,-15.6484158,3,"","mapping",2018,10.0,14.0,30,0,0.0,0.0,30,1,0.0,0.0,30,0,0.0,0.0,1,27017,0.0,0.03333333333333333,0.0,0.03144654088050314
"MWI","MW",2984.0,28945.0,28945.0,"lunzu catholic","",35.0195406,-15.6527167,1,"school","mapping",2012,10.0,14.0,30,2,0.0,0.0,30,0,0.0,0.0,30,0,0.0,0.0,1,27018,0.06666666666666667,0.0,0.0,0.06289308176100628
"MWI","MW",2995.0,28956.0,28956.0,"luwalika","",35.442917,-14.263984,3,"","",2002,9.0,10.0,51,2,"","",51,1,"","",51,0,"","",2,29222,0.0392156862745098,0.0196078431372549,0.0,0.0547684852705418
"MWI","MW",3006.0,28967.0,28967.0,"luwani school","",35.80269108,-15.75512603,3,"school","mapping",2017,10.0,15.0,30,0,0.0,0.0,30,0,0.0,0.0,30,0,0.0,0.0,1,27211,0.0,0.0,0.0,0.0
"MWI","MW",3007.0,28968.0,28968.0,"luwendela school","",34.03757239,-10.74845114,3,"school","mapping",2017,10.0,14.0,30,0,0.0,0.0,30,0,0.0,0.0,30,0,0.0,0.0,1,26927,0.0,0.0,0.0,0.0
"MWI","MW",3010.0,28971.0,28971.0,"luwezi","",35.15429,-15.33681,3,"school","mapping",2013,10.0,14.0,29,1,0.0345,0.0,30,3,0.0333,0.06670000000000001,29,0,0.0,0.0,1,27251,0.034482758620689655,0.1,0.0,0.12361743656473648
"MWI","MW",3010.0,28971.0,28971.0,"luwezi",13326.0,35.15429,-15.33681,3,"","",2013,"","",29,0,"","",28,0,"","",29,0,"","",1,10001,0.0,0.0,0.0,0.0
"MWI","MW",2993.0,28954.0,28954.0,"m'buka lea school","",33.77811,-14.01436,3,"school","mapping",2012,10.0,14.0,30,0,0.0,0.0,30,0,0.0,0.0,30,0,0.0,0.0,1,26453,0.0,0.0,0.0,0.0
"MWI","MW",3004.0,28965.0,28965.0,"m'deka pr","",34.62249,-14.81424,3,"school","mapping",2012,10.0,14.0,30,0,0.0,0.0,30,0,0.0,0.0,30,0,0.0,0.0,1,26635,0.0,0.0,0.0,0.0
"MWI","MW",2983.0,28944.0,28944.0,"m'manga","",35.18489,-15.046570000000001,3,"school","mapping",2012,10.0,14.0,30,0,0.0,0.0,30,0,0.0,0.0,30,0,0.0,0.0,1,26953,0.0,0.0,0.0,0.0
"MWI","MW",2999.0,28973.0,28973.0,"mabiri","",33.42850363,-12.24503536,3,"","mapping",2018,10.0,14.0,28,0,0.0,0.0,28,0,0.0,0.0,28,2,0.0,0.0,1,26866,0.0,0.0,0.07142857142857142,0.0673854447439353
"MWI","MW",2999.0,28973.0,28973.0,"mabiri f.p school","",33.42865,-12.244905,3,"school","mapping",2012,10.0,14.0,30,0,0.0,0.0,30,0,0.0,0.0,30,0,0.0,0.0,1,26867,0.0,0.0,0.0,0.0
"MWI","MW",3005.0,28966.0,28966.0,"madanjala","",33.885665,-13.33588,3,"school","mapping",2012,10.0,14.0,31,2,0.0,0.0,31,0,0.0,0.0,31,0,0.0,0.0,1,26682,0.06451612903225806,0.0,0.0,0.06086427267194156
"MWI","MW",2994.0,28955.0,28955.0,"madziabango school","",35.3451581,-15.08953707,3,"school","mapping",2017,11.0,14.0,30,0,0.0,0.0,30,0,0.0,0.0,30,0,0.0,0.0,1,27117,0.0,0.0,0.0,0.0
"MWI","MW",2988.0,28949.0,28949.0,"madzumbi school","",34.38048584,-14.13203053,3,"school","mapping",2017,10.0,14.0,30,0,0.0,0.0,30,0,0.0,0.0,30,0,0.0,0.0,1,26361,0.0,0.0,0.0,0.0
"MWI","MW",3010.0,28971.0,28971.0,"mafuwa","",35.47944,-15.34862,3,"school","mapping",2013,9.0,16.0,29,1,0.0345,0.0,30,1,0.0,0.0333,29,0,0.0,0.0,1,27252,0.034482758620689655,0.03333333333333333,0.0,0.06289308176100629
"MWI","MW",3010.0,28971.0,28971.0,"mafuwa",13327.0,35.47944,-15.34862,3,"","",2013,"","",29,1,"","",29,0,"","",29,0,"","",1,9995,0.034482758620689655,0.0,0.0,0.03253090435914118
"MWI","MW",2986.0,28947.0,28947.0,"maiwa primary","",35.20875,-15.72386,3,"school","mapping",2012,12.0,14.0,30,0,0.0,0.0,30,0,0.0,0.0,30,0,0.0,0.0,1,27084,0.0,0.0,0.0,0.0
"MWI","MW",2995.0,28956.0,28956.0,"majuni","",35.45221,-14.35981,3,"school","mapping",2013,10.0,14.0,30,0,0.0,0.0,30,0,0.0,0.0,30,0,0.0,0.0,1,27131,0.0,0.0,0.0,0.0
"MWI","MW",2998.0,28959.0,28959.0,"makali primary school","",34.52479,-15.5997929,1,"school","mapping",2012,10.0,14.0,30,0,0.0,0.0,30,0,0.0,0.0,30,0,0.0,0.0,1,27159,0.0,0.0,0.0,0.0
"MWI","MW",3000.0,28961.0,28961.0,"makali school","",34.6555005,-15.524926,3,"","mapping",2018,10.0,14.0,30,0,0.0,0.0,30,0,0.0,0.0,30,0,0.0,0.0,1,27179,0.0,0.0,0.0,0.0
"MWI","MW",3009.0,28970.0,28970.0,"makandi school","",35.26129235,-15.9526687,3,"school","mapping",2017,10.0,12.0,17,0,0.0,0.0,17,0,0.0,0.0,17,0,0.0,0.0,1,27230,0.0,0.0,0.0,0.0
"MWI","MW",2993.0,28954.0,28954.0,"makanya","",33.93746095,-14.18846832,3,"school","mapping",2018,10.0,13.0,29,0,0.0,0.0,29,0,0.0,0.0,29,0,0.0,0.0,1,26528,0.0,0.0,0.0,0.0
"MWI","MW",3009.0,28970.0,28970.0,"makapwa school","",35.28198809,-16.18006882,3,"school","mapping",2017,10.0,14.0,28,0,0.0,0.0,28,0,0.0,0.0,28,0,0.0,0.0,1,27231,0.0,0.0,0.0,0.0
"MWI","MW",2984.0,28945.0,28945.0,"makata ccap school","",35.03978,-15.769615,3,"school","mapping",2012,10.0,14.0,30,0,0.0,0.0,29,0,0.0,0.0,29,0,0.0,0.0,1,27019,0.0,0.0,0.0,0.0
"MWI","MW",2999.0,28973.0,28973.0,"makazi","",33.4034578,-11.9452162,3,"","mapping",2018,10.0,14.0,29,0,0.0,0.0,29,0,0.0,0.0,29,0,0.0,0.0,1,26868,0.0,0.0,0.0,0.0
"MWI","MW",2999.0,28973.0,28973.0,"makazi f.p.","",33.403395,-11.945185,3,"school","mapping",2012,11.0,15.0,27,0,0.0,0.0,27,0,0.0,0.0,27,0,0.0,0.0,1,26869,0.0,0.0,0.0,0.0
"MWI","MW",3006.0,28967.0,28967.0,"makhanga school","",35.78273036,-15.52853557,3,"school","mapping",2017,10.0,14.0,30,0,0.0,0.0,30,0,0.0,0.0,30,0,0.0,0.0,1,27212,0.0,0.0,0.0,0.0
"MWI","MW",2993.0,28954.0,28954.0,"makumbi","",33.78725,-13.9626121,1,"school","mapping",2012,10.0,15.0,29,4,0.0,0.0,30,0,0.0,0.0,30,0,0.0,0.0,1,26446,0.13793103448275862,0.0,0.0,0.13012361743656473
"MWI","MW",2994.0,28955.0,28955.0,"makwera school","",35.68027639,-14.79095368,3,"school","mapping",2017,11.0,14.0,30,0,0.0,0.0,30,0,0.0,0.0,30,0,0.0,0.0,1,27118,0.0,0.0,0.0,0.0
"MWI","MW",2988.0,28949.0,28949.0,"malambalala school","",34.59088995,-14.41415726,3,"school","mapping",2017,10.0,14.0,30,0,0.0,0.0,30,0,0.0,0.0,30,0,0.0,0.0,1,26362,0.0,0.0,0.0,0.0
"MWI","MW",3006.0,28967.0,28967.0,"malambwe school","",35.63120726,-15.50645215,3,"school","mapping",2017,10.0,14.0,28,0,0.0,0.0,28,0,0.0,0.0,28,0,0.0,0.0,1,27213,0.0,0.0,0.0,0.0
"MWI","MW",2986.0,28947.0,28947.0,"malavi","",35.1406293,-15.6759485,1,"school","mapping",2012,10.0,14.0,30,0,0.0,0.0,30,0,0.0,0.0,30,0,0.0,0.0,1,27085,0.0,0.0,0.0,0.0
"MWI","MW",2993.0,28954.0,28954.0,"malembe primary","",33.770445,-13.871085,3,"school","mapping",2012,10.0,15.0,30,0,0.0,0.0,30,0,0.0,0.0,30,0,0.0,0.0,1,26447,0.0,0.0,0.0,0.0
"MWI","MW",3004.0,28965.0,28965.0,"malenga","",34.7662697,-14.98891,3,"school","mapping",2018,10.0,14.0,29,0,0.0,0.0,29,1,0.0,0.0,29,0,0.0,0.0,1,26631,0.0,0.034482758620689655,0.0,0.03253090435914118
"MWI","MW",2988.0,28949.0,28949.0,"malimba school","",33.89330623,-14.34894462,3,"school","mapping",2017,10.0,14.0,30,0,0.0,0.0,30,0,0.0,0.0,30,0,0.0,0.0,1,26363,0.0,0.0,0.0,0.0
"MWI","MW",2993.0,28954.0,28954.0,"malimbe","",33.56014562,-13.93222062,3,"school","mapping",2018,10.0,14.0,28,0,0.0,0.0,28,0,0.0,0.0,28,1,0.0,0.0357,1,26529,0.0,0.0,0.03571428571428571,0.03369272237196765
"MWI","MW",2993.0,28954.0,28954.0,"malimbe f.p.","",33.560285,-13.932235,3,"school","mapping",2012,10.0,15.0,29,0,0.0,0.0,30,0,0.0,0.0,30,0,0.0,0.0,1,26448,0.0,0.0,0.0,0.0
"MWI","MW",2993.0,28954.0,28954.0,"malimbwe f.p. school","",33.806175,-14.20325,3,"school","mapping",2012,11.0,14.0,30,0,0.0,0.0,30,0,0.0,0.0,30,0,0.0,0.0,1,26449,0.0,0.0,0.0,0.0
"MWI","MW",2986.0,28947.0,28947.0,"malire","",35.3117778,-15.891505,3,"school","mapping",2018,10.0,13.0,30,0,0.0,0.0,30,0,0.0,0.0,30,0,0.0,0.0,1,27087,0.0,0.0,0.0,0.0
"MWI","MW",2986.0,28947.0,28947.0,"malire","",35.3117778,-15.891505,3,"school","mapping",2012,11.0,14.0,30,0,0.0,0.0,30,0,0.0,0.0,30,0,0.0,0.0,1,27086,0.0,0.0,0.0,0.0
"MWI","MW",2998.0,28959.0,28959.0,"malizakamba","",34.52479,-15.5997929,1,"school","mapping",2012,10.0,15.0,30,2,0.0,0.0,30,0,0.0,0.0,30,0,0.0,0.0,1,27160,0.06666666666666667,0.0,0.0,0.06289308176100628
"MWI","MW",3000.0,28961.0,28961.0,"malizakamba school","",34.8200202,-15.4585494,3,"","mapping",2018,10.0,14.0,30,4,0.0,0.0,30,4,0.0,0.0,30,0,0.0,0.0,1,27180,0.13333333333333333,0.13333333333333333,0.0,0.23480083857442344
"MWI","MW",2987.0,28948.0,28948.0,"malukwa school","",33.10127513,-9.660171126,3,"school","mapping",2017,10.0,14.0,30,0,0.0,0.0,30,4,0.0,0.0,30,0,0.0,0.0,1,26739,0.0,0.13333333333333333,0.0,0.12578616352201255
"MWI","MW",3009.0,28970.0,28970.0,"mandindi","",35.22346778,-16.154305,3,"school","mapping",2017,10.0,14.0,28,0,0.0,0.0,28,0,0.0,0.0,28,0,0.0,0.0,1,27232,0.0,0.0,0.0,0.0
"MWI","MW",3004.0,28965.0,28965.0,"mang'obwa","",34.58911,-14.52166,3,"school","mapping",2012,12.0,14.0,30,0,0.0,0.0,30,0,0.0,0.0,30,0,0.0,0.0,1,26632,0.0,0.0,0.0,0.0
"MWI","MW",2999.0,"",3710.0,"mangombera","",33.630318,-11.316915999999999,4,"","",2002,9.0,10.0,41,2,"","",41,0,"","",41,0,"","",2,29199,0.04878048780487805,0.0,0.0,0.046019328117809476
"MWI","MW","","","","mankhamba","","","",99,"","",2002,9.0,10.0,58,0,"","",58,0,"","",58,0,"","",2,29204,0.0,0.0,0.0,0.0
"MWI","MW",3009.0,28970.0,28970.0,"mankhamba 1 school","",34.99534413,-15.97583108,3,"school","mapping",2017,10.0,13.0,30,0,0.0,0.0,30,0,0.0,0.0,30,0,0.0,0.0,1,27233,0.0,0.0,0.0,0.0
"MWI","MW",2988.0,28949.0,28949.0,"mankhamba school","",34.51696888,-14.23483836,3,"school","mapping",2017,10.0,13.0,30,0,0.0,0.0,30,0,0.0,0.0,30,0,0.0,0.0,1,26364,0.0,0.0,0.0,0.0
"MWI","MW",3003.0,28964.0,28964.0,"mankhokwe school","",35.21554402,-17.05839057,3,"school","mapping",2017,10.0,14.0,30,0,0.0,0.0,30,5,0.0,0.0,30,0,0.0,0.0,1,27196,0.0,0.16666666666666666,0.0,0.1572327044025157
"MWI","MW",2996.0,28957.0,28957.0,"manthalu school","",33.19837045,-13.86686932,3,"school","mapping",2017,10.0,14.0,30,0,0.0,0.0,30,0,0.0,0.0,30,0,0.0,0.0,1,26587,0.0,0.0,0.0,0.0
"MWI","MW",2999.0,"",3710.0,"manyamula","",33.440517,-11.938,4,"","",2002,9.0,10.0,62,1,"","",62,0,"","",62,0,"","",2,29216,0.016129032258064516,0.0,0.0,0.01521606816798539
"MWI","MW",2999.0,28973.0,28973.0,"manyamula","",33.4402475,-11.9376299,3,"","mapping",2018,10.0,14.0,29,1,0.0,0.0,29,5,0.0,0.0,29,0,0.0,0.0,1,26870,0.034482758620689655,0.1724137931034483,0.0,0.18957664954120207
"MWI","MW",2999.0,28973.0,28973.0,"manyamula primary","",33.44038,-11.938355,3,"school","mapping",2012,10.0,14.0,30,0,0.0,0.0,30,0,0.0,0.0,30,0,0.0,0.0,1,26871,0.0,0.0,0.0,0.0
"MWI","MW",2984.0,28945.0,28945.0,"manyowe","",34.9833825,-15.81052084,3,"","mapping",2018,10.0,14.0,30,0,0.0,0.0,30,0,0.0,0.0,30,0,0.0,0.0,1,27020,0.0,0.0,0.0,0.0
"MWI","MW",2984.0,28945.0,28945.0,"manyowe f.p.","",34.98288,-15.81084,3,"school","mapping",2012,10.0,14.0,30,2,0.0,0.0,30,0,0.0,0.0,30,0,0.0,0.0,1,27021,0.06666666666666667,0.0,0.0,0.06289308176100628
"MWI","MW",3010.0,28971.0,28971.0,"mapalo","",35.4087,-15.2585,3,"school","mapping",2013,11.0,14.0,29,2,0.069,0.0,30,4,0.0,0.1333,30,0,0.0,0.0,1,27253,0.06896551724137931,0.13333333333333333,0.0,0.1821730644111906
"MWI","MW",3010.0,28971.0,28971.0,"mapalo",13328.0,35.4087,-15.2585,3,"","",2013,"","",30,0,"","",30,0,"","",30,0,"","",1,9994,0.0,0.0,0.0,0.0
"MWI","MW",2984.0,28945.0,28945.0,"mapazi","",35.0894728,-15.698259,3,"","mapping",2018,10.0,14.0,30,6,0.0,0.0,30,1,0.0,0.0,30,0,0.0,0.0,1,27023,0.2,0.03333333333333333,0.0,0.21383647798742136
