"iso3","iso2","admin1_id","admin2_id","iu_id","location","site_id","longitude","latitude","georeliability","location_type","survey_type","year","age_start","age_end","hk_examined","hk_positive","hk_perc_highinfection","hk_perc_moderateinfection","asc_examined","asc_positive","asc_perc_highinfection","asc_perc_moderateinfection","tt_examined","tt_positive","tt_perc_highinfection","tt_perc_moderateinfection","quality","sn","hk_prevalence","asc_prevalence","tt_prevalence","sth_prevalence"
"ZAF","ZA",4471.0,43314.0,43314.0,"aan de doorns",56802.0,19.5,-33.7,1,"","",2001.0,"","",0,0,"","",28,1,"","",28,7,"","",2,18243,"",0.03571428571428571,0.25,""
"ZAF","ZA",4463.0,43274.0,43274.0,"aberdeen primary school","",24.0611,-32.4743,3,"school","mapping",2017.0,5.0,15.0,37,0,0.0,0.0,37,12,0.0,0.0,37,0,0.0,0.0,1,36314,0.0,0.32432432432432434,0.0,0.3059663437021927
"ZAF","ZA",4465.0,43283.0,43283.0,"akasia primary school","",28.1291,-25.6679,3,"school","mapping",2017.0,5.0,16.0,50,4,0.0,0.0,50,7,0.0,0.0,50,0,0.0,0.0,1,36360,0.08,0.14,0.0,0.19698113207547172
"ZAF","ZA",4463.0,43274.0,43274.0,"alexandria primary school","",26.4155,-33.6501,3,"school","mapping",2017.0,5.0,15.0,27,4,0.0,0.0,27,2,0.0,0.0,27,0,0.0,0.0,1,36315,0.14814814814814814,0.07407407407407407,0.0,0.199290835209773
"ZAF","ZA",4465.0,43280.0,43280.0,"alrapark primary school","",28.5086,-26.4355,3,"school","mapping",2017.0,5.0,16.0,46,1,0.0,0.0,46,10,0.0,10.0,46,0,0.0,0.0,1,36321,0.021739130434782608,0.21739130434782608,0.0,0.22113635553019223
"ZAF","ZA","","",29375.0,"amahlongwa","",30.728901,-30.236099,4,"","","",5.0,13.0,155,18,"","",155,87,"","",155,121,"","",3,31163,0.11612903225806452,0.5612903225806452,0.7806451612903226,0.8631531746639955
"ZAF","ZA",4466.0,43287.0,43287.0,"amahlongwa",56840.0,30.7177509,-30.2360179,1,"","",0.0,"","",155,18,"","",155,87,"","",155,121,"","",3,18153,0.11612903225806452,0.5612903225806452,0.7806451612903226,0.8631531746639955
"ZAF","ZA","","",29343.0,"babazani","",32.3447,-28.1119,4,"","","",5.0,13.0,168,139,"","",168,121,"","",168,141,"","",3,31155,0.8273809523809523,0.7202380952380952,0.8392857142857143,0.9360742907338137
"ZAF","ZA",4466.0,43288.0,43288.0,"babazani",56849.0,32.3447,-28.1119,3,"","",0.0,"","",168,139,"","",168,121,"","",168,141,"","",3,18173,0.8273809523809523,0.7202380952380952,0.8392857142857143,0.9360742907338137
"ZAF","ZA",4469.0,43304.0,43304.0,"bakubung primary school","","","",99,"school","",2017.0,5.0,16.0,32,2,0.0,0.0,32,9,0.0,0.0,32,0,0.0,0.0,1,36628,0.0625,0.28125,0.0,0.3077093160377358
"ZAF","ZA",4469.0,43306.0,43306.0,"b.m mokitime primary shool","",25.5884,-25.8672,3,"school","mapping",2017.0,5.0,16.0,35,2,0.0,0.0,35,13,0.0,7.69,35,0,0.0,0.0,1,36655,0.05714285714285714,0.37142857142857144,0.0,0.38428956488255683
"ZAF","ZA",4463.0,43269.0,43269.0,"balasi primary school","",27.4429,-32.8306,3,"school","mapping",2017.0,5.0,15.0,48,0,0.0,0.0,48,8,12.5,0.0,48,0,0.0,0.0,1,36286,0.0,0.16666666666666666,0.0,0.1572327044025157
"ZAF","ZA",4465.0,43280.0,43280.0,"bapsfontein primary school","",28.428,-25.9999,3,"school","mapping",2017.0,5.0,16.0,47,1,0.0,0.0,47,0,0.0,0.0,47,0,0.0,0.0,1,36322,0.02127659574468085,0.0,0.0,0.020072260136491365
"ZAF","ZA",4466.0,43289.0,43289.0,"barnhill",56871.0,30.526699,-28.7833,3,"","",0.0,"","",81,0,"","",81,7,"","",81,2,"","",3,18184,0.0,0.08641975308641975,0.024691358024691357,0.10280876419551781
"ZAF","ZA",4469.0,43304.0,43304.0,"barseba primary school","",27.5345,-25.5482,3,"school","mapping",2017.0,5.0,16.0,50,7,14.29,0.0,50,11,0.0,0.0,50,0,0.0,0.0,1,36629,0.14,0.22,0.0,0.310566037735849
"ZAF","ZA","","",29371.0,"bashise","",30.314699,-30.888901,4,"","","",5.0,13.0,164,70,"","",164,116,"","",164,159,"","",3,31161,0.4268292682926829,0.7073170731707317,0.9695121951219512,0.9385711778840033
"ZAF","ZA",4466.0,43287.0,43287.0,"bashise",56841.0,30.31467,-30.88883,1,"","",0.0,"","",164,70,"","",164,116,"","",164,159,"","",3,18156,0.4268292682926829,0.7073170731707317,0.9695121951219512,0.9385711778840033
"ZAF","ZA",4469.0,43306.0,43306.0,"bathobatho primary school","",25.4744,-26.2016,3,"school","mapping",2017.0,5.0,16.0,34,0,0.0,0.0,34,11,0.0,0.0,34,0,0.0,0.0,1,36656,0.0,0.3235294117647059,0.0,0.30521642619311873
"ZAF","ZA",4469.0,43305.0,43305.0,"baviaanskraans primary school","",26.4417,-27.3437,3,"school","mapping",2017.0,5.0,16.0,24,0,0.0,0.0,24,3,0.0,0.0,24,0,0.0,0.0,1,36643,0.0,0.125,0.0,0.11792452830188678
"ZAF","ZA",4466.0,43294.0,43294.0,"bhidakona",56896.0,31.0727729,-29.3275883,1,"","",0.0,"","",140,7,"","",140,84,"","",140,78,"","",3,18205,0.05,0.6,0.5571428571428572,0.7846361185983826
"ZAF","ZA",4466.0,"",29350.0,"bhidakona","",31.4067,-29.301701,4,"","","",5.0,16.0,140,7,"","",140,84,"","",140,78,"","",3,29864,0.05,0.6,0.5571428571428572,0.7846361185983826
"ZAF","ZA",4469.0,43304.0,43304.0,"bogatsu primary school","",26.618,-25.4923,3,"school","mapping",2017.0,5.0,16.0,50,11,27.27,0.0,50,23,0.0,0.0,50,0,0.0,0.0,1,36630,0.22,0.46,0.0,0.5460377358490567
"ZAF","ZA",4469.0,43304.0,43304.0,"bogosi primary school","",26.9575,-26.419,3,"school","mapping",2017.0,5.0,16.0,50,1,0.0,0.0,50,5,0.0,0.0,50,0,0.0,0.0,1,36631,0.02,0.1,0.0,0.11132075471698112
"ZAF","ZA",4465.0,43282.0,43282.0,"boiketlong christian school","",27.9462,-26.6504,3,"school","mapping",2017.0,5.0,16.0,30,1,0.0,0.0,30,2,0.0,0.0,30,0,0.0,0.0,1,36346,0.03333333333333333,0.06666666666666667,0.0,0.09224318658280922
"ZAF","ZA",4469.0,43307.0,43307.0,"boitumelong primary school","",26.6077,-26.897,3,"school","mapping",2017.0,5.0,16.0,47,8,0.0,12.5,47,12,0.0,0.0,47,0,0.0,0.0,1,36669,0.1702127659574468,0.2553191489361702,0.0,0.3604465437276322
"ZAF","ZA",4469.0,43305.0,43305.0,"bojapelo primary school","","","",99,"school","",2017.0,5.0,16.0,42,4,0.0,0.0,42,15,0.0,0.0,42,0,0.0,0.0,1,36644,0.09523809523809523,0.35714285714285715,0.0,0.3946861763573354
"ZAF","ZA",4463.0,43267.0,43267.0,"bokamoso primary school","",28.803,-30.3409,3,"school","mapping",2017.0,5.0,15.0,35,0,0.0,0.0,35,8,0.0,0.0,35,0,0.0,0.0,1,36276,0.0,0.22857142857142856,0.0,0.21563342318059298
"ZAF","ZA",4465.0,43282.0,43282.0,"boneha primary school","",28.328,-26.552,3,"school","mapping",2017.0,5.0,16.0,33,1,0.0,0.0,33,11,0.0,0.0,33,0,0.0,0.0,1,36347,0.030303030303030304,0.3333333333333333,0.0,0.3335239184295788
"ZAF","ZA",4465.0,43281.0,43281.0,"bonwelong primary school","",28.2001,-25.999,3,"school","mapping",2017.0,5.0,16.0,44,2,0.0,0.0,44,7,0.0,0.0,44,0,0.0,0.0,1,36336,0.045454545454545456,0.1590909090909091,0.0,0.18614532979884604
"ZAF","ZA",4469.0,43304.0,43304.0,"borite primary school","",27.1967,-25.2889,3,"school","mapping",2017.0,5.0,16.0,43,1,0.0,0.0,43,15,0.0,0.0,43,0,0.0,0.0,1,36632,0.023255813953488372,0.3488372093023256,0.0,0.3433778585058726
"ZAF","ZA",4465.0,43283.0,43283.0,"boschkop primary school","",28.5008,-25.8582,3,"school","mapping",2017.0,5.0,16.0,49,6,16.67,33.33,49,6,0.0,0.0,49,0,0.0,0.0,1,36361,0.12244897959183673,0.12244897959183673,0.0,0.21689076092508622
"ZAF","ZA",4466.0,"",29369.0,"bottlebrush","",30.88,-29.9,4,"","",1998.0,2.0,10.0,200,0,"","",200,165,"","",200,145,"","",3,29910,0.0,0.825,0.725,0.8979952830188678
"ZAF","ZA",4465.0,43281.0,43281.0,"bottom mine primary school","",27.7645,-26.2189,3,"school","mapping",2017.0,5.0,16.0,50,1,100.0,0.0,50,20,0.0,0.0,50,0,0.0,0.0,1,36337,0.02,0.4,0.0,0.38867924528301884
"ZAF","ZA",4465.0,43284.0,43284.0,"brandvlei primary farm school","",27.5948,-26.134900000000002,3,"school","mapping",2017.0,5.0,16.0,49,2,50.0,0.0,49,20,0.0,0.0,49,1,0.0,0.0,1,36375,0.04081632653061224,0.40816326530612246,0.02040816326530612,0.41877846751377656
"ZAF","ZA",4471.0,43314.0,43314.0,"brandwacht",56803.0,18.8692596,-33.9554117,1,"","",2001.0,"","",0,0,"","",25,2,"","",25,5,"","",2,18246,"",0.08,0.2,""
"ZAF","ZA",4463.0,43269.0,43269.0,"breidbach primary school","",27.4429,-32.8865,3,"school","mapping",2017.0,5.0,15.0,26,0,0.0,0.0,26,4,0.0,0.0,26,0,0.0,0.0,1,36287,0.0,0.15384615384615385,0.0,0.14513788098693758
"ZAF","ZA",4466.0,"",29344.0,"briardene","",31.0,-29.8,4,"","",1998.0,2.0,10.0,112,0,"","",112,98,"","",112,89,"","",3,29918,0.0,0.875,0.7946428571428571,0.9191795822102425
"ZAF","ZA",4463.0,43267.0,43267.0,"buffalonek jr primary school","",28.8575,-30.8261,3,"school","mapping",2017.0,5.0,15.0,24,1,0.0,0.0,24,7,0.0,0.0,24,0,0.0,0.0,1,36277,0.041666666666666664,0.2916666666666667,0.0,0.3030005241090147
"ZAF","ZA",4465.0,43284.0,43284.0,"bulelani primary school","",27.6981,-26.2297,3,"school","mapping",2017.0,5.0,16.0,50,3,0.0,0.0,50,17,0.0,0.0,50,1,0.0,100.0,1,36376,0.06,0.34,0.02,0.3698188679245283
"ZAF","ZA",4463.0,43270.0,43270.0,"cala river sr primary school","",27.6164,-31.5034,3,"school","mapping",2017.0,5.0,15.0,12,0,0.0,0.0,12,3,0.0,0.0,12,0,0.0,0.0,1,36291,0.0,0.25,0.0,0.23584905660377356
"ZAF","ZA",4466.0,"",29369.0,"canaan","",30.97,-29.81,4,"","",1998.0,2.0,10.0,122,2,"","",122,115,"","",122,81,"","",3,29919,0.01639344262295082,0.9426229508196722,0.6639344262295082,0.9255034479238682
"ZAF","ZA",4471.0,"",29514.0,"cape town","",18.438,-33.922001,4,"","",2003.0,6.0,14.0,0,0,"","",359,53,"","",359,144,"","",2,29416,"",0.14763231197771587,0.4011142061281337,""
"ZAF","ZA",4468.0,43302.0,43302.0,"carolina combined","",30.117,-26.0674,3,"school","mapping",2018.0,5.0,15.0,46,0,0.0,0.0,46,24,0.0,0.0,46,0,0.0,0.0,1,36608,0.0,0.5217391304347826,0.0,0.49220672682526656
"ZAF","ZA","","","","carrington heights junior primary school","","","",99,"","",1999.0,5.0,16.0,299,6,"","",299,145,"","",299,133,"","",3,31164,0.020066889632107024,0.48494983277591974,0.44481605351170567,0.6790476359805522
"ZAF","ZA",4463.0,43268.0,43268.0,"cilo primary school","",28.3336,-32.3438,3,"school","mapping",2017.0,5.0,15.0,50,0,0.0,0.0,50,22,40.9,0.0,50,1,0.0,0.0,1,36281,0.0,0.44,0.02,0.42566037735849055
"ZAF","ZA",4463.0,43267.0,43267.0,"dabulamanzi sr.p. school","","","",99,"school","",2017.0,5.0,15.0,9,0,0.0,0.0,9,3,0.0,0.0,9,0,0.0,0.0,1,36278,0.0,0.3333333333333333,0.0,0.3144654088050314
"ZAF","ZA",4463.0,43273.0,43273.0,"dalindyebo sps primary school","",29.0397,-31.7337,3,"school","mapping",2017.0,5.0,15.0,42,0,0.0,0.0,42,8,50.0,0.0,42,0,0.0,0.0,1,36309,0.0,0.19047619047619047,0.0,0.1796945193171608
"ZAF","ZA",4465.0,43280.0,43280.0,"dalpark primary school","",28.3291,-26.2537,3,"school","mapping",2017.0,5.0,16.0,47,5,0.0,0.0,47,15,0.0,0.0,47,0,0.0,0.0,1,36323,0.10638297872340426,0.3191489361702128,0.0,0.3694150003843624
"ZAF","ZA",4471.0,43316.0,43316.0,"de rust",56817.0,22.5304693,-33.4907417,1,"","",2001.0,"","",0,0,"","",30,1,"","",30,19,"","",2,18252,"",0.03333333333333333,0.6333333333333333,""
"ZAF","ZA",4468.0,43303.0,43303.0,"delpark primary school","","","",99,"school","",2018.0,5.0,15.0,49,0,0.0,0.0,49,22,0.0,0.0,49,0,0.0,0.0,1,36618,0.0,0.4489795918367347,0.0,0.42356565267616475
"ZAF","ZA",4465.0,43284.0,43284.0,"die poort primary farm school","",27.6493,-25.8726,3,"school","mapping",2017.0,5.0,16.0,49,5,20.0,0.0,49,18,0.0,0.0,49,0,0.0,0.0,1,36377,0.10204081632653061,0.3673469387755102,0.0,0.407456012824845
"ZAF","ZA",4465.0,43283.0,43283.0,"dikago dintle primary school","",28.0068,-25.4373,3,"school","mapping",2017.0,5.0,16.0,50,7,28.57,0.0,50,14,0.0,0.0,50,0,0.0,0.0,1,36362,0.14,0.28,0.0,0.35924528301886793
"ZAF","ZA",4469.0,43306.0,43306.0,"dikhudu primary school","",25.7649,-25.3295,3,"school","mapping",2017.0,5.0,16.0,25,0,0.0,0.0,25,9,0.0,0.0,25,0,0.0,0.0,1,36657,0.0,0.36,0.0,0.3396226415094339
"ZAF","ZA",4468.0,43303.0,43303.0,"dikotelo primary school","","","",99,"school","",2018.0,5.0,15.0,49,0,0.0,0.0,49,14,0.0,0.0,49,0,0.0,0.0,1,36619,0.0,0.2857142857142857,0.0,0.2695417789757412
"ZAF","ZA",4465.0,43282.0,43282.0,"dinokeng primary farm school","",27.8072,-26.636,3,"school","mapping",2017.0,5.0,16.0,42,2,0.0,0.0,42,3,0.0,0.0,42,0,0.0,0.0,1,36348,0.047619047619047616,0.07142857142857142,0.0,0.10910024387113333
"ZAF","ZA",4469.0,43306.0,43306.0,"diteko primary school","","","",99,"school","",2017.0,5.0,16.0,39,0,0.0,0.0,39,19,0.0,0.0,39,0,0.0,0.0,1,36658,0.0,0.48717948717948717,0.0,0.45960328979196896
"ZAF","ZA",4465.0,43281.0,43281.0,"donaldson primary school","",27.8743,-26.2538,3,"school","mapping",2017.0,5.0,16.0,50,2,50.0,0.0,50,12,0.0,0.0,50,0,0.0,0.0,1,36338,0.04,0.24,0.0,0.25509433962264144
"ZAF","ZA","","",29349.0,"dormers","",30.165001,-29.4133,4,"","","",5.0,16.0,75,2,"","",75,34,"","",75,4,"","",3,29862,0.02666666666666667,0.4533333333333333,0.05333333333333334,0.4681973445143255
"ZAF","ZA",4466.0,43295.0,43295.0,"dormers",56899.0,30.165001,-29.4133,3,"","",0.0,"","",75,2,"","",75,34,"","",75,4,"","",3,18209,0.02666666666666667,0.4533333333333333,0.05333333333333334,0.4681973445143255
"ZAF","ZA",4465.0,43281.0,43281.0,"dr knak primary school","",28.0971,-26.1066,3,"school","mapping",2017.0,5.0,16.0,45,0,0.0,0.0,45,8,0.0,0.0,45,0,0.0,0.0,1,36339,0.0,0.17777777777777778,0.0,0.16771488469601675
"ZAF","ZA",4465.0,43282.0,43282.0,"dr nhlapo intermediate school","",27.8487,-26.668,3,"school","mapping",2017.0,5.0,16.0,37,1,0.0,0.0,37,3,0.0,0.0,37,0,0.0,0.0,1,36349,0.02702702702702703,0.08108108108108109,0.0,0.09992144107391429
"ZAF","ZA",4469.0,43306.0,43306.0,"duikerbos primary school","",25.348,-26.5392,3,"school","mapping",2017.0,5.0,16.0,41,2,0.0,0.0,41,12,0.0,0.0,41,0,0.0,0.0,1,36659,0.04878048780487805,0.2926829268292683,0.0,0.3086662251804294
"ZAF","ZA",4468.0,43303.0,43303.0,"dumezizweni","",30.25,-25.6951,3,"school","mapping",2018.0,5.0,15.0,48,0,0.0,0.0,48,2,0.0,0.0,48,0,0.0,0.0,1,36620,0.0,0.041666666666666664,0.0,0.03930817610062892
"ZAF","ZA",4466.0,43287.0,43287.0,"ekhuza hp",56842.0,30.063299,-30.5783,3,"","",0.0,"","",90,0,"","",90,21,"","",90,51,"","",3,18160,0.0,0.23333333333333334,0.5666666666666667,0.6299790356394129
"ZAF","ZA",4465.0,43281.0,43281.0,"ekukhanyisweni primary school","",28.094,-26.1094,3,"school","mapping",2017.0,5.0,16.0,49,2,0.0,0.0,49,11,0.0,0.0,49,0,0.0,0.0,1,36340,0.04081632653061224,0.22448979591836735,0.0,0.2416445977697972
"ZAF","ZA","","","","emakeni","",30.875,-29.278299,4,"","","",5.0,16.0,145,4,"","",145,43,"","",145,23,"","",3,29866,0.027586206896551724,0.296551724137931,0.15862068965517243,0.40043446744085837
"ZAF","ZA",4466.0,43295.0,43295.0,"emakeni",56900.0,30.875,-29.2783,3,"","",0.0,"","",145,4,"","",145,43,"","",145,23,"","",3,18208,0.027586206896551724,0.296551724137931,0.15862068965517243,0.40043446744085837
"ZAF","ZA",4471.0,"",29546.0,"encotsheni","",18.637489,-34.005689,4,"","",1999.0,5.0,20.0,0,0,"","",82,54,"","",82,71,"","",3,31183,"",0.6585365853658537,0.8658536585365854,""
"ZAF","ZA",4466.0,43288.0,43288.0,"endikondlweni",56851.0,32.555,-27.185,3,"","",0.0,"","",88,25,"","",88,76,"","",88,73,"","",3,18174,0.2840909090909091,0.8636363636363636,0.8295454545454546,0.9276976897069873
"ZAF","ZA",4468.0,43301.0,43301.0,"entokozweni primary school","",31.1289,-25.3494,3,"school","mapping",2018.0,5.0,15.0,45,0,0.0,0.0,45,12,0.0,0.0,45,0,0.0,0.0,1,36595,0.0,0.26666666666666666,0.0,0.2515723270440251
"ZAF","ZA",4463.0,43270.0,43270.0,"esethu public primary school","",27.35,-31.4696,3,"school","mapping",2017.0,5.0,15.0,35,1,0.0,0.0,35,6,0.0,0.0,35,0,0.0,0.0,1,36292,0.02857142857142857,0.17142857142857143,0.0,0.18405852907200615
"ZAF","ZA",4466.0,43289.0,43289.0,"esibila",56872.0,30.65837,-28.8196,1,"","",0.0,"","",115,0,"","",115,7,"","",115,15,"","",3,18187,0.0,0.06086956521739131,0.13043478260869565,0.17298569747119877
"ZAF","ZA",4469.0,43304.0,43304.0,"ennis thabong primary school","",27.918,-25.7532,3,"school","mapping",2017.0,5.0,16.0,50,2,0.0,0.0,50,15,0.0,0.0,50,0,0.0,0.0,1,36633,0.04,0.3,0.0,0.3094339622641509
"ZAF","ZA",4466.0,43291.0,43291.0,"esihoshe",56876.0,30.8633,-28.7617,3,"","",0.0,"","",103,1,"","",103,8,"","",103,18,"","",3,18189,0.009708737864077669,0.07766990291262135,0.17475728155339806,0.23230525686204725
"ZAF","ZA",4463.0,43271.0,43271.0,"et tabane junior sec school","",28.2486,-31.1941,3,"school","mapping",2017.0,5.0,15.0,47,2,0.0,0.0,47,10,0.0,0.0,47,0,0.0,0.0,1,36297,0.0425531914893617,0.2127659574468085,0.0,0.2323257343457724
"ZAF","ZA",4466.0,43290.0,43290.0,"ezinyonya",56875.0,29.4167,-28.91,3,"","",0.0,"","",116,0,"","",116,5,"","",116,8,"","",3,18188,0.0,0.04310344827586207,0.06896551724137931,0.10292105086038632
"ZAF","ZA",4463.0,43274.0,43274.0,"fairview primary school","",26.6543,-33.4075,3,"school","mapping",2017.0,5.0,15.0,27,1,0.0,0.0,27,6,0.0,0.0,27,0,0.0,0.0,1,36316,0.037037037037037035,0.2222222222222222,0.0,0.2368196288531718
"ZAF","ZA",4463.0,43269.0,43269.0,"fikile benson primary school","",27.7312,-32.9303,3,"school","mapping",2017.0,5.0,15.0,34,0,0.0,0.0,34,5,0.0,0.0,34,0,0.0,0.0,1,36288,0.0,0.14705882352941177,0.0,0.13873473917869034
"ZAF","ZA",4465.0,43284.0,43284.0,"fjl wells primary school","",27.7276,-26.1661,3,"school","mapping",2017.0,5.0,16.0,50,5,20.0,0.0,50,13,0.0,7.69,50,0,0.0,0.0,1,36378,0.1,0.26,0.0,0.31509433962264144
"ZAF","ZA",4465.0,43283.0,43283.0,"foxtrot primary school","",27.702,-26.2854,3,"school","mapping",2017.0,5.0,16.0,49,11,36.36,9.09,49,6,0.0,0.0,49,0,0.0,0.0,1,36363,0.22448979591836735,0.12244897959183673,0.0,0.3013681406332267
"ZAF","ZA",4469.0,43306.0,43306.0,"ga iseraele primary school","",25.5508,-25.8694,3,"school","mapping",2017.0,5.0,16.0,35,0,0.0,0.0,35,11,0.0,0.0,35,0,0.0,0.0,1,36660,0.0,0.3142857142857143,0.0,0.2964959568733153
"ZAF","ZA",4469.0,43306.0,43306.0,"gaetsalwe primary school","",25.0834,-25.7428,3,"school","mapping",2017.0,5.0,16.0,27,0,0.0,0.0,27,18,0.0,0.0,27,0,0.0,0.0,1,36661,0.0,0.6666666666666666,0.0,0.6289308176100628
"ZAF","ZA",4471.0,43314.0,43314.0,"gelukshoop",56804.0,20.1361021,-33.9652213,1,"","",2001.0,"","",0,0,"","",27,0,"","",27,8,"","",2,18251,"",0.0,0.2962962962962963,""
"ZAF","ZA",4469.0,43306.0,43306.0,"george madoda primary school","",25.4444,-26.6847,3,"school","mapping",2017.0,5.0,16.0,49,4,25.0,0.0,49,10,0.0,0.0,49,0,0.0,0.0,1,36662,0.08163265306122448,0.20408163265306123,0.0,0.25382505716957554
"ZAF","ZA",4466.0,"",43287.0,"ghobela combined primary school","",30.587417,-30.54025,4,"","",1995.0,6.0,16.0,154,57,"","",154,129,"","",154,154,"","",3,31177,0.37012987012987014,0.8376623376623377,1.0,0.9433962264150945
"ZAF","ZA",4465.0,43283.0,43283.0,"glenstatia primary school","",28.285,-25.7897,3,"school","mapping",2017.0,5.0,16.0,25,1,100.0,0.0,25,0,0.0,0.0,25,0,0.0,0.0,1,36364,0.04,0.0,0.0,0.03773584905660377
"ZAF","ZA",4469.0,43304.0,43304.0,"goakganya primary school","",27.9787,-25.441,3,"school","mapping",2017.0,5.0,16.0,50,2,100.0,0.0,50,15,0.0,0.0,50,0,0.0,0.0,1,36634,0.04,0.3,0.0,0.3094339622641509
"ZAF","ZA","","","","gobhela","",30.5856,-30.5403,4,"","","",5.0,13.0,166,80,"","",166,103,"","",166,158,"","",3,31158,0.4819277108433735,0.6204819277108434,0.9518072289156626,0.9344570222101769
"ZAF","ZA",4466.0,43287.0,43287.0,"gobhela",56844.0,30.58557,-30.54033,1,"","",0.0,"","",166,80,"","",166,103,"","",166,158,"","",3,18158,0.4819277108433735,0.6204819277108434,0.9518072289156626,0.9344570222101769
"ZAF","ZA",4469.0,43305.0,43305.0,"goedgevonden primary school","",26.9,-26.1572,3,"school","mapping",2017.0,5.0,16.0,49,4,25.0,0.0,49,11,0.0,0.0,49,0,0.0,0.0,1,36645,0.08163265306122448,0.22448979591836735,0.0,0.27150636920151194
"ZAF","ZA",4463.0,43267.0,43267.0,"gogela primary school","",29.2348,-30.6397,3,"school","mapping",2017.0,5.0,15.0,37,0,0.0,0.0,37,6,0.0,0.0,37,0,0.0,0.0,1,36279,0.0,0.16216216216216217,0.0,0.15298317185109636
"ZAF","ZA",4469.0,43305.0,43305.0,"gontse primary school","",25.9673,-27.223,3,"school","mapping",2017.0,5.0,16.0,49,2,0.0,0.0,49,14,14.29,0.0,49,0,0.0,0.0,1,36646,0.04081632653061224,0.2857142857142857,0.0,0.2970460421365311
"ZAF","ZA",4465.0,43280.0,43280.0,"greenfields primary school","",28.1322,-26.392,3,"school","mapping",2017.0,5.0,16.0,49,1,0.0,0.0,49,3,0.0,0.0,49,0,0.0,0.0,1,36324,0.02040816326530612,0.061224489795918366,0.0,0.07583318271474934
"ZAF","ZA",4465.0,43284.0,43284.0,"greenspark primary school","",27.3046,-26.2935,3,"school","mapping",2017.0,5.0,16.0,48,1,0.0,0.0,48,11,0.0,0.0,48,0,0.0,0.0,1,36379,0.020833333333333332,0.22916666666666666,0.0,0.23134499475890982
"ZAF","ZA",4463.0,43268.0,43268.0,"gubevu primary school","",27.4281,-32.2797,3,"school","mapping",2017.0,5.0,15.0,48,0,0.0,0.0,48,22,4.54,0.0,48,1,0.0,0.0,1,36282,0.0,0.4583333333333333,0.020833333333333332,0.44303590146750516
"ZAF","ZA",4468.0,43301.0,43301.0,"hambanathi primary school","",30.1712,-25.3425,3,"school","mapping",2018.0,5.0,15.0,45,2,0.0,0.0,45,19,5.26,0.0,45,0,0.0,0.0,1,36596,0.044444444444444446,0.4222222222222222,0.0,0.42254833449802004
"ZAF","ZA",4465.0,43284.0,43284.0,"hartzstraat primary school","",27.7173,-26.2053,3,"school","mapping",2017.0,5.0,16.0,50,2,0.0,0.0,50,14,0.0,0.0,50,0,0.0,0.0,1,36380,0.04,0.28,0.0,0.2913207547169811
"ZAF","ZA",4465.0,"",29497.0,"hekpoort","",27.615999,-25.882,4,"","","",10.0,12.0,0,0,"","",144,7,"","",144,4,"","",3,31175,"",0.04861111111111111,0.027777777777777776,""
"ZAF","ZA",4465.0,43284.0,43284.0,"hekpoort",56884.0,27.616667,-25.883333,1,"","",0.0,"","",0,0,"","",144,7,"","",144,4,"","",3,18150,"",0.04861111111111111,0.027777777777777776,""
"ZAF","ZA",4463.0,43270.0,43270.0,"hillview primary school","",27.8267,-31.3306,3,"school","mapping",2017.0,5.0,15.0,28,0,0.0,0.0,28,2,100.0,0.0,28,0,0.0,0.0,1,36293,0.0,0.07142857142857142,0.0,0.0673854447439353
"ZAF","ZA",4465.0,43284.0,43284.0,"hlangabeza primary school","",27.1926,-26.1937,4,"school","mapping",2017.0,5.0,16.0,50,0,0.0,0.0,50,6,0.0,0.0,50,0,0.0,0.0,1,36381,0.0,0.12,0.0,0.11320754716981131
"ZAF","ZA",4466.0,43291.0,43291.0,"holwane",56877.0,30.645,-28.6983,3,"","",0.0,"","",114,1,"","",114,7,"","",114,6,"","",3,18191,0.008771929824561403,0.06140350877192982,0.05263157894736842,0.11188990088769195
"ZAF","ZA",4469.0,43304.0,43304.0,"i.b dammons combined school","",27.8492,-25.626,3,"school","mapping",2017.0,5.0,16.0,46,6,33.33,33.33,46,17,0.0,0.0,46,0,0.0,0.0,1,36635,0.13043478260869565,0.3695652173913043,0.0,0.42622249170738663
"ZAF","ZA",4471.0,"",29546.0,"ikhusi","",18.655611,-34.024239,4,"","",1999.0,5.0,20.0,0,0,"","",91,59,"","",91,75,"","",3,31187,"",0.6483516483516484,0.8241758241758241,""
"ZAF","ZA",4469.0,43305.0,43305.0,"ikhutseng primary school","","","",99,"school","",2017.0,5.0,16.0,47,6,33.33,0.0,47,19,0.0,0.0,47,0,0.0,0.0,1,36647,0.1276595744680851,0.40425531914893614,0.0,0.45312059584717745
"ZAF","ZA",4466.0,43287.0,43287.0,"imbalencane",56845.0,30.368299,-30.6667,3,"","",0.0,"","",157,31,"","",157,118,"","",157,149,"","",3,18154,0.19745222929936307,0.7515923566878981,0.9490445859872612,0.933812810942669
"ZAF","ZA",4468.0,43302.0,43302.0,"inkaba primary school","","","",99,"school","",2018.0,5.0,15.0,34,0,0.0,0.0,34,6,0.0,0.0,34,0,0.0,0.0,1,36609,0.0,0.17647058823529413,0.0,0.16648168701442842
"ZAF","ZA",4466.0,43291.0,43291.0,"inyathi",56878.0,31.623301,-28.85,3,"","",0.0,"","",111,2,"","",111,6,"","",111,34,"","",3,18190,0.018018018018018018,0.05405405405405406,0.3063063063063063,0.3354968182620924
"ZAF","ZA",4465.0,43284.0,43284.0,"ipeleng primary school","",25.618,-25.8412,4,"school","mapping",2017.0,5.0,16.0,50,1,0.0,0.0,50,18,0.0,0.0,50,0,0.0,0.0,1,36382,0.02,0.36,0.0,0.3516981132075471
"ZAF","ZA",4468.0,43302.0,43302.0,"isabella dale primary school","",30.5794,-26.2191,3,"school","mapping",2018.0,5.0,15.0,31,0,0.0,0.0,31,11,0.0,0.0,31,0,0.0,0.0,1,36610,0.0,0.3548387096774194,0.0,0.33475349969567864
"ZAF","ZA",4471.0,"",29546.0,"isikhokela","",18.652911,-34.013711,4,"","",1997.0,5.0,20.0,0,0,"","",49,46,"","",49,46,"","",3,29440,"",0.9387755102040817,0.9387755102040817,""
"ZAF","ZA",4471.0,"",29546.0,"isikhokela","",18.652911,-34.013711,4,"","",1999.0,5.0,20.0,0,0,"","",92,68,"","",92,75,"","",3,31181,"",0.7391304347826086,0.8152173913043478,""
"ZAF","ZA",4465.0,43284.0,43284.0,"isiqalo primary school","",27.708,-26.2882,3,"school","mapping",2017.0,5.0,16.0,50,1,0.0,0.0,50,17,0.0,0.0,50,1,0.0,0.0,1,36383,0.02,0.34,0.02,0.34541132075471703
"ZAF","ZA",4469.0,43304.0,43304.0,"itumeleng primary school","",27.8337,-25.4804,3,"school","mapping",2017.0,5.0,16.0,50,5,40.0,0.0,50,16,0.0,0.0,50,0,0.0,0.0,1,36636,0.1,0.32,0.0,0.3660377358490566
"ZAF","ZA",4465.0,43280.0,43280.0,"izibuko primary school","",28.1508,-26.3141,3,"school","mapping",2017.0,5.0,16.0,47,4,0.0,0.0,47,24,0.0,4.17,47,0,0.0,0.0,1,36325,0.0851063829787234,0.5106382978723404,0.0,0.5210246248195631
"ZAF","ZA",4469.0,43306.0,43306.0,"j.s masisi primary school","",25.3683,-26.5081,3,"school","mapping",2017.0,5.0,16.0,40,3,0.0,0.0,40,12,0.0,0.0,40,0,0.0,0.0,1,36663,0.075,0.3,0.0,0.3325471698113207
"ZAF","ZA",4466.0,43289.0,43289.0,"jangeni",56873.0,30.5357,-28.87105,1,"","",0.0,"","",114,0,"","",114,6,"","",114,10,"","",3,18185,0.0,0.05263157894736842,0.08771929824561403,0.12805101134166097
"ZAF","ZA",4468.0,43303.0,43303.0,"jeremiah mdaka primary school","",29.1316,-25.872,3,"school","mapping",2018.0,5.0,15.0,46,1,0.0,0.0,46,14,0.0,7.14,46,0,0.0,0.0,1,36621,0.021739130434782608,0.30434782608695654,0.0,0.3013874522951813
"ZAF","ZA",4468.0,43303.0,43303.0,"kabenziwa primary school","","","",99,"school","",2018.0,5.0,15.0,47,0,0.0,0.0,47,17,0.0,0.0,47,0,0.0,0.0,1,36622,0.0,0.3617021276595745,0.0,0.3412284223203533
"ZAF","ZA",4465.0,43284.0,43284.0,"kagiso",56885.0,27.7871774,-26.1629979,1,"","",0.0,"","",0,0,"","",76,10,"","",76,2,"","",3,18149,"",0.13157894736842105,0.02631578947368421,""
"ZAF","ZA",4465.0,"",29497.0,"kagiso","",27.782,-26.132,4,"","","",10.0,12.0,0,0,"","",76,10,"","",76,2,"","",3,31176,"",0.13157894736842105,0.02631578947368421,""
"ZAF","ZA",4466.0,"",29369.0,"kennedy lower","",30.98,-29.81,4,"","",1998.0,2.0,10.0,122,1,"","",122,112,"","",122,66,"","",3,29911,0.00819672131147541,0.9180327868852459,0.5409836065573771,0.9081925484079665
"ZAF","ZA",4463.0,43267.0,43267.0,"kennersley",56787.0,29.1067,-30.3567,3,"","",0.0,"","",35,0,"","",35,3,"","",35,2,"","",3,18145,0.0,0.08571428571428572,0.05714285714285714,0.13015017327685788
"ZAF","ZA",4469.0,43304.0,43304.0,"kgale primary school","",27.1677,-25.6018,3,"school","mapping",2017.0,5.0,16.0,50,2,100.0,0.0,50,17,0.0,0.0,50,0,0.0,0.0,1,36637,0.04,0.34,0.0,0.34566037735849053
"ZAF","ZA",4469.0,43307.0,43307.0,"kgatontle primary school","","","",99,"school","",2017.0,5.0,16.0,41,3,66.67,0.0,41,13,0.0,0.0,41,0,0.0,0.0,1,36670,0.07317073170731707,0.3170731707317073,0.0,0.34626738352059083
"ZAF","ZA",4468.0,43301.0,43301.0,"khanyisile primary school","",30.9565,-25.8028,3,"school","mapping",2018.0,5.0,15.0,49,6,0.0,16.66,49,12,0.0,0.0,49,0,0.0,0.0,1,36597,0.12244897959183673,0.24489795918367346,0.0,0.31826361657485475
"ZAF","ZA",4469.0,43304.0,43304.0,"khayakhulu primary school","",26.6552,-25.107,3,"school","mapping",2017.0,5.0,16.0,50,0,0.0,0.0,50,17,0.0,0.0,50,0,0.0,0.0,1,36638,0.0,0.34,0.0,0.32075471698113206
"ZAF","ZA",4463.0,43270.0,43270.0,"khayalethu j. primary school","",27.6444,-32.9782,3,"school","mapping",2017.0,5.0,15.0,11,0,0.0,0.0,11,0,0.0,0.0,11,0,0.0,0.0,1,36294,0.0,0.0,0.0,0.0
"ZAF","ZA",4471.0,43314.0,43314.0,"klaasvoogds",56805.0,19.9994692,-33.8008559,1,"","",0.0,"","",0,0,"","",30,2,"","",30,8,"","",3,18244,"",0.06666666666666667,0.26666666666666666,""
"ZAF","ZA",4471.0,43314.0,43314.0,"klapmuts",56806.0,18.8625753,-33.8105624,1,"","",0.0,"","",0,0,"","",583,122,"","",583,157,"","",3,18240,"",0.20926243567753003,0.2692967409948542,""
"ZAF","ZA",4471.0,43317.0,43317.0,"klipdal",56833.0,19.9720161,-34.3040917,1,"","",0.0,"","",0,0,"","",30,2,"","",30,8,"","",3,18254,"",0.06666666666666667,0.26666666666666666,""
"ZAF","ZA",4468.0,43303.0,43303.0,"klipfontein laerskool","",29.2425,-25.9034,3,"school","mapping",2018.0,5.0,15.0,23,2,100.0,0.0,23,5,0.0,0.0,23,0,0.0,0.0,1,36623,0.08695652173913043,0.21739130434782608,0.0,0.2692870135891857
"ZAF","ZA",4471.0,43318.0,43318.0,"koelfontein",56882.0,17.865,-31.167,3,"","",0.0,"","",0,0,"","",30,2,"","",30,9,"","",3,18258,"",0.06666666666666667,0.3,""
"ZAF","ZA",4469.0,43306.0,43306.0,"koikoi primary school","",25.5934,-25.9359,3,"school","mapping",2017.0,5.0,16.0,36,8,0.0,0.0,36,18,0.0,0.0,36,0,0.0,0.0,1,36664,0.2222222222222222,0.5,0.0,0.5765199161425576
"ZAF","ZA",4469.0,43305.0,43305.0,"koketso primary school","","","",99,"school","",2017.0,5.0,16.0,32,1,0.0,0.0,32,12,8.33,0.0,32,0,0.0,0.0,1,36648,0.03125,0.375,0.0,0.3721992924528302
"ZAF","ZA",4469.0,43307.0,43307.0,"kokomeng primary school","",25.0486,-27.6256,3,"school","mapping",2017.0,5.0,16.0,50,0,0.0,0.0,50,12,0.0,0.0,50,0,0.0,0.0,1,36671,0.0,0.24,0.0,0.22641509433962262
"ZAF","ZA",4463.0,43267.0,43267.0,"kopana senior primary school","",29.8513,-30.9403,3,"school","mapping",2017.0,5.0,15.0,41,0,0.0,0.0,41,4,75.0,0.0,41,0,0.0,0.0,1,36280,0.0,0.0975609756097561,0.0,0.09203865623561895
"ZAF","ZA",4469.0,43307.0,43307.0,"kromelmboog primary school","",25.2265,-27.8139,3,"school","mapping",2017.0,5.0,16.0,23,0,0.0,0.0,23,14,0.0,0.0,23,0,0.0,0.0,1,36672,0.0,0.6086956521739131,0.0,0.5742411812961443
"ZAF","ZA",4471.0,43314.0,43314.0,"kromfontein",56807.0,19.2479999,-32.9536699,1,"","",0.0,"","",0,0,"","",30,0,"","",30,5,"","",3,18249,"",0.0,0.16666666666666666,""
"ZAF","ZA",4469.0,43307.0,43307.0,"kwalo kitso primary school","",25.1224,-27.8922,3,"school","mapping",2017.0,5.0,16.0,40,2,0.0,0.0,40,20,0.0,0.0,40,0,0.0,0.0,1,36673,0.05,0.5,0.0,0.4952830188679245
"ZAF","ZA",4466.0,43287.0,43287.0,"kwandabenzinhle",56846.0,30.38,-30.7583,3,"","",0.0,"","",118,13,"","",118,76,"","",118,116,"","",3,18161,0.11016949152542373,0.6440677966101694,0.9830508474576272,0.9383319582103479
"ZAF","ZA","","",29531.0,"kylemore","",18.948,-33.916,4,"","",1991.0,1.0,6.0,0,0,"","",34,16,"","",34,23,"","",3,29414,"",0.47058823529411764,0.6764705882352942,""
"ZAF","ZA",4471.0,43314.0,43314.0,"kylemore",56808.0,18.9524518,-33.9193671,1,"","",1991.0,"","",0,0,"","",34,16,"","",34,23,"","",3,18250,"",0.47058823529411764,0.6764705882352942,""
"ZAF","ZA",4465.0,43284.0,43284.0,"laerskool millenium","",27.7885,-26.1083,3,"school","mapping",2017.0,5.0,16.0,26,2,0.0,0.0,26,0,0.0,0.0,26,0,0.0,0.0,1,36384,0.07692307692307693,0.0,0.0,0.07256894049346879
"ZAF","ZA",4465.0,43283.0,43283.0,"laerskool uniefees","",28.2483,-25.5487,3,"school","mapping",2017.0,5.0,16.0,5,0,0.0,0.0,5,2,0.0,50.0,5,0,0.0,0.0,1,36365,0.0,0.4,0.0,0.3773584905660377
"ZAF","ZA",4471.0,43318.0,43318.0,"langebaan",56883.0,18.0657939,-33.0547004,1,"","",2000.0,"","",0,0,"","",235,169,"","",235,169,"","",3,18257,"",0.7191489361702128,0.7191489361702128,""
"ZAF","ZA",4465.0,43281.0,43281.0,"lawley primary school","",27.8147,-26.3843,3,"school","mapping",2017.0,5.0,16.0,48,0,0.0,0.0,48,13,0.0,0.0,48,0,0.0,0.0,1,36341,0.0,0.2708333333333333,0.0,0.255503144654088
"ZAF","ZA",4465.0,43280.0,43280.0,"leeuwpoort primary school","",28.2061,-26.1869,3,"school","mapping",2017.0,5.0,16.0,48,4,75.0,0.0,48,16,0.0,0.0,48,0,0.0,0.0,1,36326,0.08333333333333333,0.3333333333333333,0.0,0.3668763102725366
"ZAF","ZA",4469.0,43306.0,43306.0,"legae thuto primary school","",26.139,-26.1775,3,"school","mapping",2017.0,5.0,16.0,39,1,0.0,100.0,39,21,28.57,0.0,39,0,0.0,0.0,1,36665,0.02564102564102564,0.5384615384615384,0.0,0.5191470358378921
"ZAF","ZA",4469.0,43307.0,43307.0,"lelispruit primary school","",24.9863,-27.0554,3,"school","mapping",2017.0,5.0,16.0,20,0,0.0,0.0,20,4,0.0,0.0,20,0,0.0,0.0,1,36674,0.0,0.2,0.0,0.18867924528301885
"ZAF","ZA",4471.0,43314.0,43314.0,"lemoenpoort",56809.0,19.4883299,-33.8363299,1,"","",0.0,"","",0,0,"","",30,2,"","",30,5,"","",3,18241,"",0.06666666666666667,0.16666666666666666,""
"ZAF","ZA",4465.0,43281.0,43281.0,"leresche primary school","",27.9228,-26.2401,3,"school","mapping",2017.0,5.0,16.0,49,0,0.0,0.0,49,15,0.0,0.0,49,0,0.0,0.0,1,36342,0.0,0.30612244897959184,0.0,0.28879476318829417
"ZAF","ZA","","","","letlotlo","","","",99,"","",1994.0,5.0,16.0,129,0,"","",129,11,"","",129,2,"","",3,31170,0.0,0.08527131782945736,0.015503875968992248,0.09382373383312186
"ZAF","ZA",4465.0,43281.0,43281.0,"lufherng primary school","",28.0135,-26.293,3,"school","mapping",2017.0,5.0,16.0,49,1,0.0,100.0,49,9,0.0,0.0,49,0,0.0,0.0,1,36343,0.02040816326530612,0.1836734693877551,0.0,0.18899357971914219
"ZAF","ZA",4463.0,43268.0,43268.0,"lukhanyiso junior.p. school","","","",99,"school","",2017.0,5.0,15.0,49,0,0.0,0.0,49,11,0.0,0.0,49,0,0.0,0.0,1,36283,0.0,0.22448979591836735,0.0,0.21178282633808238
"ZAF","ZA",4466.0,"",29369.0,"lusaka","",30.86,-29.91,4,"","",1998.0,2.0,10.0,70,3,"","",70,62,"","",70,53,"","",3,29912,0.04285714285714286,0.8857142857142857,0.7571428571428571,0.9183343418229825
"ZAF","ZA",4469.0,43306.0,43306.0,"lobatla primary school","",25.8411,-25.178,3,"school","mapping",2017.0,5.0,16.0,32,2,0.0,0.0,32,12,0.0,0.0,32,0,0.0,0.0,1,36666,0.0625,0.375,0.0,0.39062499999999994
"ZAF","ZA",4463.0,43273.0,43273.0,"mabhetshe primary school","",29.0461,-31.7284,3,"school","mapping",2017.0,5.0,15.0,43,0,0.0,0.0,43,16,0.0,0.0,43,0,0.0,0.0,1,36310,0.0,0.37209302325581395,0.0,0.3510311540149188
"ZAF","ZA",4468.0,43302.0,43302.0,"mabola primary school","",30.3848,-27.2534,3,"school","mapping",2018.0,5.0,15.0,47,6,50.0,0.0,47,7,0.0,0.0,47,0,0.0,0.0,1,36611,0.1276595744680851,0.14893617021276595,0.0,0.24300246846092738
"ZAF","ZA",4466.0,43288.0,43288.0,"madeya",56852.0,32.1767,-27.05,3,"","",0.0,"","",88,12,"","",88,13,"","",88,28,"","",3,18182,0.13636363636363635,0.14772727272727273,0.3181818181818182,0.4699482939483719
"ZAF","ZA",4465.0,43280.0,43280.0,"madibatlou primary school","",28.2526,"",99,"school","",2017.0,5.0,16.0,46,4,25.0,0.0,46,7,0.0,0.0,46,0,0.0,0.0,1,36327,0.08695652173913043,0.15217391304347827,0.0,0.21311124585369334
"ZAF","ZA",4469.0,43307.0,43307.0,"madipelesa primary school","",24.3995,-27.8996,3,"school","mapping",2017.0,5.0,16.0,48,1,0.0,0.0,48,15,0.0,0.0,48,0,0.0,0.0,1,36675,0.020833333333333332,0.3125,0.0,0.3083235062893081
"ZAF","ZA","","","","mafika ditshiu","","","",99,"","",1994.0,5.0,16.0,97,0,"","",97,2,"","",97,1,"","",3,31168,0.0,0.020618556701030927,0.010309278350515464,0.028976672274839223
"ZAF","ZA",4468.0,43303.0,43303.0,"magaduzela primary school","","","",99,"school","",2018.0,5.0,15.0,49,0,0.0,0.0,49,10,0.0,0.0,49,0,0.0,0.0,1,36624,0.0,0.20408163265306123,0.0,0.19252984212552945
"ZAF","ZA",4463.0,43273.0,43273.0,"magubungela primary school","",29.1002,-31.126,3,"school","mapping",2017.0,5.0,15.0,40,1,0.0,0.0,40,3,0.0,0.0,40,0,0.0,0.0,1,36311,0.025,0.075,0.0,0.09257075471698113
"ZAF","ZA","","","","makaneng","","","",99,"","",1994.0,5.0,16.0,138,0,"","",138,7,"","",138,1,"","",3,31171,0.0,0.050724637681159424,0.007246376811594203,0.05434287231555127
"ZAF","ZA","","","","makhabane","","","",99,"","",1994.0,5.0,16.0,83,0,"","",83,1,"","",83,0,"","",3,31173,0.0,0.012048192771084338,0.0,0.011366219595362582
"ZAF","ZA",4466.0,43288.0,43288.0,"makhanis",56853.0,32.2742,-26.9961,3,"","",1998.0,"","",196,140,"","",196,25,"","",196,93,"","",3,18163,0.7142857142857143,0.12755102040816327,0.4744897959183674,0.8198164848204533
"ZAF","ZA","","","","makhetheng","","","",99,"","",1994.0,5.0,16.0,97,0,"","",97,0,"","",97,0,"","",3,31172,0.0,0.0,0.0,0.0
"ZAF","ZA",4463.0,43274.0,43274.0,"makukhanye primary school","",24.915399999999998,-34.0092,3,"school","mapping",2017.0,5.0,15.0,39,1,0.0,0.0,39,12,0.0,0.0,39,0,0.0,0.0,1,36317,0.02564102564102564,0.3076923076923077,0.0,0.30702244054929106
"ZAF","ZA",4469.0,43307.0,43307.0,"manthe primary school","",24.8884,-27.5485,3,"school","mapping",2017.0,5.0,16.0,50,2,0.0,0.0,50,22,0.0,0.0,50,0,0.0,0.0,1,36676,0.04,0.44,0.0,0.43622641509433957
"ZAF","ZA",4466.0,43291.0,43291.0,"mantshan",56879.0,31.865,-28.915,3,"","",0.0,"","",110,52,"","",110,93,"","",110,108,"","",3,18194,0.4727272727272727,0.8454545454545455,0.9818181818181818,0.941998497370398
"ZAF","ZA",4466.0,43288.0,43288.0,"maqhawe",56854.0,32.2369,-27.0369,3,"","",1998.0,"","",35,28,"","",35,4,"","",35,15,"","",3,18168,0.8,0.11428571428571428,0.42857142857142855,0.8479014247208319
"ZAF","ZA",4468.0,43301.0,43301.0,"maqhekeza primary school","",31.8543,-25.6705,3,"school","mapping",2018.0,5.0,15.0,44,0,0.0,0.0,44,21,4.76,0.0,44,0,0.0,0.0,1,36598,0.0,0.4772727272727273,0.0,0.45025728987993135
"ZAF","ZA",4465.0,43283.0,43283.0,"molokotwa dube primary school","",28.0409,-25.2633,4,"school","mapping",2017.0,5.0,16.0,50,5,40.0,0.0,50,8,0.0,0.0,50,0,0.0,0.0,1,36367,0.1,0.16,0.0,0.230188679245283
"ZAF","ZA",4465.0,43280.0,43280.0,"montic primary factory school","",28.2114,-26.422,3,"school","mapping",2017.0,5.0,16.0,49,0,0.0,0.0,49,10,0.0,10.0,49,0,0.0,0.0,1,36329,0.0,0.20408163265306123,0.0,0.19252984212552945
"ZAF","ZA","","",29343.0,"monzilloa","",32.2911,-28.4522,4,"","","",5.0,13.0,161,129,"","",161,119,"","",161,158,"","",3,31154,0.8012422360248447,0.7391304347826086,0.9813664596273292,0.9424847676408337
"ZAF","ZA",4469.0,43304.0,43304.0,"mashilomatsho primary school","",27.9305,-25.0859,3,"school","mapping",2017.0,5.0,16.0,50,1,0.0,0.0,50,10,0.0,0.0,50,0,0.0,0.0,1,36639,0.02,0.2,0.0,0.20377358490566036
"ZAF","ZA",4463.0,43267.0,43267.0,"matshemula",56788.0,28.89117,-30.33217,1,"","",0.0,"","",52,0,"","",52,3,"","",52,3,"","",3,18143,0.0,0.057692307692307696,0.057692307692307696,0.10571340850731271
"ZAF","ZA",4463.0,43268.0,43268.0,"mavatha junior s school","",28.2824,-32.2095,3,"school","mapping",2017.0,5.0,15.0,51,0,0.0,0.0,51,5,0.0,0.0,51,0,0.0,0.0,1,36284,0.0,0.09803921568627451,0.0,0.09248982611912689
"ZAF","ZA",4466.0,43288.0,43288.0,"mbodla",56855.0,32.2086579,-27.0736955,1,"","",0.0,"","",88,41,"","",88,10,"","",88,13,"","",3,18171,0.4659090909090909,0.11363636363636363,0.14772727272727273,0.5627690070240846
"ZAF","ZA",4466.0,43288.0,43288.0,"mbodla",56856.0,32.2086579,-27.0736955,1,"","",1998.0,"","",94,75,"","",94,6,"","",94,28,"","",3,18166,0.7978723404255319,0.06382978723404255,0.2978723404255319,0.8180559111942876
"ZAF","ZA",4468.0,43301.0,43301.0,"mdzimba primary school","",31.5363,-25.7038,3,"school","mapping",2018.0,5.0,15.0,50,1,100.0,0.0,50,15,0.0,0.0,50,0,0.0,0.0,1,36599,0.02,0.3,0.0,0.2962264150943396
"ZAF","ZA",4463.0,43267.0,43267.0,"meadowbrook",56789.0,29.065001,-30.3283,3,"","",0.0,"","",37,0,"","",37,1,"","",37,0,"","",3,18144,0.0,0.02702702702702703,0.0,0.025497195308516064
"ZAF","ZA",4465.0,43280.0,43280.0,"mehlareng combined farm school","",28.2916,-26.6091,3,"school","mapping",2017.0,5.0,16.0,48,1,0.0,100.0,48,4,0.0,0.0,48,0,0.0,0.0,1,36328,0.020833333333333332,0.08333333333333333,0.0,0.09663259958071277
"ZAF","ZA",4463.0,43272.0,43272.0,"melumuzi primary school","",25.4026,-33.8254,3,"school","mapping",2017.0,5.0,15.0,31,0,0.0,0.0,31,7,0.0,0.0,31,0,0.0,0.0,1,36302,0.0,0.22580645161290322,0.0,0.21302495435179547
"ZAF","ZA",4466.0,43288.0,43288.0,"mengu",56857.0,32.2710602,-27.1049356,1,"","",1998.0,"","",81,80,"","",81,47,"","",81,68,"","",3,18179,0.9876543209876543,0.5802469135802469,0.8395061728395061,0.9426116028499658
"ZAF","ZA",4469.0,43306.0,43306.0,"methusele primary school","",25.2648,-25.8077,3,"school","mapping",2017.0,5.0,16.0,29,2,100.0,0.0,29,6,0.0,0.0,29,0,0.0,0.0,1,36667,0.06896551724137931,0.20689655172413793,0.0,0.2467861710003814
"ZAF","ZA",4465.0,43282.0,43282.0,"meyerton primary school","",28.0204,-26.5533,3,"school","mapping",2017.0,5.0,16.0,24,0,0.0,0.0,24,7,0.0,0.0,24,0,0.0,0.0,1,36350,0.0,0.2916666666666667,0.0,0.2751572327044025
"ZAF","ZA",4471.0,43313.0,43313.0,"mfuleni",56795.0,18.6858533,-34.006485,1,"","",2000.0,"","",0,0,"","",94,13,"","",94,13,"","",3,18234,"",0.13829787234042554,0.13829787234042554,""
"ZAF","ZA",4468.0,43301.0,43301.0,"mhlaba primary school","",31.6374,-25.7496,3,"school","mapping",2018.0,5.0,15.0,40,0,0.0,0.0,40,11,0.0,0.0,40,0,0.0,0.0,1,36600,0.0,0.275,0.0,0.25943396226415094
"ZAF","ZA",4468.0,43303.0,43303.0,"middleburg combined school","","","",99,"school","",2018.0,5.0,15.0,44,0,0.0,0.0,44,18,0.0,0.0,44,0,0.0,0.0,1,36625,0.0,0.4090909090909091,0.0,0.38593481989708406
"ZAF","ZA",4463.0,43272.0,43272.0,"mjuleni primary school","",25.3759,-33.8129,3,"school","mapping",2017.0,5.0,15.0,44,0,0.0,0.0,44,16,0.0,0.0,44,0,0.0,0.0,1,36303,0.0,0.36363636363636365,0.0,0.34305317324185247
"ZAF","ZA",4465.0,43283.0,43283.0,"mkhambi primary school","",28.8794,"",99,"school","",2017.0,5.0,16.0,40,0,0.0,0.0,40,0,0.0,0.0,40,0,0.0,0.0,1,36366,0.0,0.0,0.0,0.0
"ZAF","ZA",4468.0,43302.0,43302.0,"mlamlankunzi primary school","",28.7727,-26.7582,3,"school","mapping",2018.0,5.0,15.0,48,0,0.0,0.0,48,4,0.0,0.0,48,0,0.0,0.0,1,36612,0.0,0.08333333333333333,0.0,0.07861635220125784
"ZAF","ZA","","","","mnamatha","","","",99,"","","",6.0,16.0,276,14,"","",276,82,"","",276,130,"","",3,29415,0.050724637681159424,0.2971014492753623,0.47101449275362317,0.610412686778002
"ZAF","ZA",4463.0,43273.0,43273.0,"mneliswa sr primary school","",29.5656,-30.0954,4,"school","mapping",2017.0,5.0,15.0,43,0,0.0,0.0,43,12,33.33,0.0,43,0,0.0,0.0,1,36312,0.0,0.27906976744186046,0.0,0.2632733655111891
"ZAF","ZA","","","","mohlakaneng","","","",99,"","",1994.0,5.0,16.0,117,0,"","",117,3,"","",117,2,"","",3,31169,0.0,0.02564102564102564,0.017094017094017096,0.03990257981549709
"ZAF","ZA",4469.0,43307.0,43307.0,"modisakoma primary school","",24.5357,-27.0785,3,"school","mapping",2017.0,5.0,16.0,46,2,50.0,0.0,46,17,0.0,0.0,46,0,0.0,0.0,1,36677,0.043478260869565216,0.3695652173913043,0.0,0.3745051182366158
"ZAF","ZA",4469.0,43307.0,43307.0,"moeti primary school","",24.7367,-26.7441,3,"school","mapping",2017.0,5.0,16.0,35,7,14.29,0.0,35,1,0.0,0.0,35,0,0.0,0.0,1,36678,0.2,0.02857142857142857,0.0,0.21024258760107814
"ZAF","ZA",4469.0,43307.0,43307.0,"molale primary school","",24.6829,-27.4081,3,"school","mapping",2017.0,5.0,16.0,48,7,0.0,14.29,48,7,0.0,0.0,48,0,0.0,0.0,1,36679,0.14583333333333334,0.14583333333333334,0.0,0.25509368448637315
"ZAF","ZA",4466.0,43288.0,43288.0,"monzilloa",56858.0,32.2911,-28.4522,3,"","",0.0,"","",161,129,"","",161,119,"","",161,158,"","",3,18178,0.8012422360248447,0.7391304347826086,0.9813664596273292,0.9424847676408337
"ZAF","ZA",4463.0,43271.0,43271.0,"morulane primary school","",28.562,-30.5082,3,"school","mapping",2017.0,5.0,15.0,44,1,0.0,0.0,44,9,0.0,0.0,44,0,0.0,0.0,1,36298,0.022727272727272728,0.20454545454545456,0.0,0.21002261032278186
"ZAF","ZA",4468.0,43301.0,43301.0,"mphithi primary school","",31.2098,-25.7192,3,"school","mapping",2018.0,5.0,15.0,47,0,0.0,0.0,47,2,0.0,0.0,47,0,0.0,0.0,1,36601,0.0,0.0425531914893617,0.0,0.04014452027298273
"ZAF","ZA",4469.0,43305.0,43305.0,"mponeng primary school","",27.3593,-26.8255,3,"school","mapping",2017.0,5.0,16.0,36,3,0.0,0.0,36,1,0.0,0.0,36,0,0.0,0.0,1,36649,0.08333333333333333,0.027777777777777776,0.0,0.10263801537386441
"ZAF","ZA",4466.0,43288.0,43288.0,"mseleni",56860.0,32.53931,-27.36706,1,"","",0.0,"","",101,90,"","",101,74,"","",101,84,"","",3,18162,0.8910891089108911,0.7326732673267327,0.8316831683168316,0.9387731040972767
"ZAF","ZA",4466.0,43288.0,43288.0,"mseleni",56859.0,32.53931,-27.36706,1,"","",0.0,"","",358,223,"","",358,171,"","",358,204,"","",3,18165,0.6229050279329609,0.4776536312849162,0.5698324022346368,0.8634604586400606
"ZAF","ZA","","",29373.0,"mseleni","",32.546101,-27.330601,4,"","","",5.0,13.0,101,90,"","",101,74,"","",101,84,"","",3,31157,0.8910891089108911,0.7326732673267327,0.8316831683168316,0.9387731040972767
"ZAF","ZA","","",29373.0,"mseleni","",32.546101,-27.330601,4,"","","",6.0,70.0,358,223,"","",358,171,"","",358,204,"","",3,31165,0.6229050279329609,0.4776536312849162,0.5698324022346368,0.8634604586400606
"ZAF","ZA",4465.0,43283.0,43283.0,"mshuluzani primary school","",28.7196,-25.7752,3,"school","mapping",2017.0,5.0,16.0,50,5,0.0,0.0,50,7,0.0,0.0,50,0,0.0,0.0,1,36368,0.1,0.14,0.0,0.2132075471698113
"ZAF","ZA",4463.0,"",43273.0,"mthatha","",28.782243,-31.594461,4,"","",2009.0,4.0,11.0,0,0,"","",162,47,"","",162,6,"","",1,29920,"",0.29012345679012347,0.037037037037037035,""
"ZAF","ZA",4466.0,43291.0,43291.0,"mthwana",56880.0,29.7266776,-30.4577027,1,"","",0.0,"","",113,37,"","",113,53,"","",113,106,"","",3,18192,0.3274336283185841,0.4690265486725664,0.9380530973451328,0.9225262630378263
"ZAF","ZA",4468.0,43301.0,43301.0,"muchuchi primary school","",31.1492,-25.1262,3,"school","mapping",2018.0,5.0,15.0,49,0,0.0,0.0,49,4,0.0,0.0,49,0,0.0,0.0,1,36602,0.0,0.08163265306122448,0.0,0.07701193685021177
"ZAF","ZA",4468.0,43303.0,43303.0,"musi primary school","",29.2435,-25.9034,3,"school","mapping",2018.0,5.0,15.0,50,0,0.0,0.0,50,20,0.0,0.0,50,0,0.0,0.0,1,36626,0.0,0.4,0.0,0.3773584905660377
"ZAF","ZA","","","","musia","",31.897499,-28.8589,4,"","","",5.0,13.0,157,94,"","",157,124,"","",157,141,"","",3,31160,0.5987261146496815,0.7898089171974523,0.8980891719745223,0.9352871825538115
"ZAF","ZA",4466.0,43291.0,43291.0,"musia",56881.0,31.897499,-28.8589,3,"","",0.0,"","",157,94,"","",157,124,"","",157,141,"","",3,18193,0.5987261146496815,0.7898089171974523,0.8980891719745223,0.9352871825538115
"ZAF","ZA",4466.0,43288.0,43288.0,"mziki",56861.0,30.1381012,-30.4260804,1,"","",1998.0,"","",70,54,"","",70,9,"","",70,40,"","",3,18176,0.7714285714285715,0.12857142857142856,0.5714285714285714,0.8628637438803014
"ZAF","ZA",4463.0,43271.0,43271.0,"ncembu primary school","",28.4029,-31.3943,3,"school","mapping",2017.0,5.0,15.0,47,1,0.0,0.0,47,4,0.0,0.0,47,0,0.0,0.0,1,36299,0.02127659574468085,0.0851063829787234,0.0,0.09865302322403205
"ZAF","ZA",4468.0,43302.0,43302.0,"ndawonye primary school","",30.7817,-27.0225,3,"school","mapping",2018.0,5.0,15.0,46,0,0.0,0.0,46,20,0.0,0.0,46,0,0.0,0.0,1,36613,0.0,0.43478260869565216,0.0,0.4101722723543888
"ZAF","ZA",4468.0,43301.0,43301.0,"nelsville primary school","",31.1289,-25.3494,3,"school","mapping",2018.0,5.0,15.0,42,3,33.3,0.0,42,12,0.0,0.0,42,0,0.0,0.0,1,36603,0.07142857142857142,0.2857142857142857,0.0,0.3176742395071235
"ZAF","ZA",4463.0,43270.0,43270.0,"new horizon s.p.s","",27.6978,-31.5322,3,"school","mapping",2017.0,5.0,15.0,39,0,0.0,0.0,39,9,0.0,0.0,39,0,0.0,0.0,1,36295,0.0,0.23076923076923078,0.0,0.21770682148040638
"ZAF","ZA",4466.0,43289.0,43289.0,"ngongolo",56874.0,30.3833,-28.7867,3,"","",0.0,"","",61,1,"","",61,0,"","",61,5,"","",3,18186,0.01639344262295082,0.0,0.08196721311475409,0.0915254065401368
"ZAF","ZA",4465.0,43280.0,43280.0,"nigel secondary school","","","",99,"school","",2017.0,5.0,16.0,48,1,0.0,0.0,48,10,0.0,0.0,48,0,0.0,0.0,1,36330,0.020833333333333332,0.20833333333333334,0.0,0.21210036687631026
"ZAF","ZA",4468.0,43301.0,43301.0,"njanji primary school","",31.2375,-24.986,3,"school","mapping",2018.0,5.0,15.0,42,0,0.0,0.0,42,6,0.0,0.0,42,0,0.0,0.0,1,36604,0.0,0.14285714285714285,0.0,0.1347708894878706
"ZAF","ZA",4466.0,43288.0,43288.0,"nkungwini",56862.0,32.004179,-27.020654,1,"","",0.0,"","",88,3,"","",88,9,"","",88,38,"","",3,18180,0.03409090909090909,0.10227272727272728,0.4318181818181818,0.4786004856966671
"ZAF","ZA",4463.0,43272.0,43272.0,"nokhwezi primary school","",25.377,-33.8291,3,"school","mapping",2017.0,5.0,15.0,47,1,100.0,0.0,47,7,0.0,0.0,47,0,0.0,0.0,1,36304,0.02127659574468085,0.14893617021276595,0.0,0.15758859553968754
"ZAF","ZA",4471.0,"",29546.0,"nolungile","",18.649025,-34.016881,4,"","",1997.0,5.0,20.0,0,0,"","",316,231,"","",316,265,"","",3,29438,"",0.7310126582278481,0.8386075949367089,""
"ZAF","ZA",4471.0,"",29546.0,"nolungile","",18.649025,-34.016881,4,"","",1999.0,5.0,20.0,0,0,"","",76,56,"","",76,59,"","",3,31180,"",0.7368421052631579,0.7763157894736842,""
"ZAF","ZA",4465.0,43282.0,43282.0,"nomnekane primary school","",28.7701,-26.3489,3,"school","mapping",2017.0,5.0,16.0,36,6,0.0,0.0,36,16,0.0,0.0,36,1,0.0,0.0,1,36351,0.16666666666666666,0.4444444444444444,0.027777777777777776,0.5187708673033621
"ZAF","ZA",4463.0,43269.0,43269.0,"nompumelelo primary school","","","",99,"school","",2017.0,5.0,15.0,41,0,0.0,0.0,41,21,0.0,0.0,41,1,0.0,0.0,1,36289,0.0,0.5121951219512195,0.024390243902439025,0.49442717160719696
"ZAF","ZA",4465.0,43282.0,43282.0,"nonediba primary school","",27.6996,-26.6695,3,"school","mapping",2017.0,5.0,16.0,28,3,0.0,0.0,28,11,0.0,0.0,28,0,0.0,0.0,1,36352,0.10714285714285714,0.39285714285714285,0.0,0.4319888332691567
"ZAF","ZA",4463.0,43272.0,43272.0,"noninzi primary school","",25.3686,-33.8111,3,"school","mapping",2017.0,5.0,15.0,43,3,0.0,0.0,43,8,0.0,0.0,43,0,0.0,0.0,1,36305,0.06976744186046512,0.18604651162790697,0.0,0.22908864557078276
"ZAF","ZA",4463.0,43272.0,43272.0,"nosipho primary school","",25.4004,-33.8187,3,"school","mapping",2017.0,5.0,15.0,33,0,0.0,0.0,33,20,0.0,0.0,33,0,0.0,0.0,1,36306,0.0,0.6060606060606061,0.0,0.5717552887364208
"ZAF","ZA",4463.0,43268.0,43268.0,"nqayiya junior s school","",28.853,-32.0209,3,"school","mapping",2017.0,5.0,15.0,44,1,100.0,0.0,44,12,8.33,0.0,44,0,0.0,0.0,1,36285,0.022727272727272728,0.2727272727272727,0.0,0.27288320598783716
"ZAF","ZA",4466.0,43288.0,43288.0,"ntokozweni",56863.0,32.271801,-27.0392,3,"","",1998.0,"","",95,90,"","",95,21,"","",95,66,"","",3,18169,0.9473684210526315,0.22105263157894736,0.6947368421052632,0.931589675594935
"ZAF","ZA","","","","ntwashahlobo","","","",99,"","",1999.0,5.0,20.0,0,0,"","",59,42,"","",59,48,"","",3,31185,"",0.711864406779661,0.8135593220338984,""
"ZAF","ZA",4463.0,43271.0,43271.0,"ntywenka j.s.s primary school","",28.5934,-31.1941,3,"school","mapping",2017.0,5.0,15.0,37,0,0.0,0.0,37,8,12.5,0.0,37,0,0.0,0.0,1,36300,0.0,0.21621621621621623,0.0,0.2039775624681285
"ZAF","ZA",4466.0,43286.0,43286.0,"oatsland",56824.0,29.3,-30.55,1,"","",0.0,"","",30,0,"","",30,8,"","",30,1,"","",3,18151,0.0,0.26666666666666666,0.03333333333333333,0.2746331236897274
"ZAF","ZA",4465.0,43281.0,43281.0,"olifantsvlei primary school","",27.910800000000002,-26.3413,3,"school","mapping",2017.0,5.0,16.0,50,3,0.0,0.0,50,26,0.0,0.0,50,1,0.0,0.0,1,36344,0.06,0.52,0.02,0.5262490566037736
"ZAF","ZA",4465.0,43283.0,43283.0,"onderstepoort primary school","",28.1794,-25.6386,3,"school","mapping",2017.0,5.0,16.0,50,1,0.0,0.0,50,10,0.0,30.0,50,0,0.0,0.0,1,36369,0.02,0.2,0.0,0.20377358490566036
"ZAF","ZA",4469.0,43307.0,43307.0,"olebile primary school","",24.8149,-27.6354,3,"school","mapping",2017.0,5.0,16.0,48,1,0.0,0.0,48,13,0.0,0.0,48,0,0.0,0.0,1,36680,0.020833333333333332,0.2708333333333333,0.0,0.269834250524109
"ZAF","ZA",4465.0,43282.0,43282.0,"oospark primary school","",27.8444,-26.6907,3,"school","mapping",2017.0,5.0,16.0,25,1,0.0,0.0,25,6,0.0,0.0,25,0,0.0,0.0,1,36353,0.04,0.24,0.0,0.25509433962264144
"ZAF","ZA",4465.0,43283.0,43283.0,"orefile primary school","",28.1108,-25.9121,3,"school","mapping",2017.0,5.0,16.0,50,8,25.0,12.5,50,11,0.0,0.0,50,0,0.0,0.0,1,36370,0.16,0.22,0.0,0.3252830188679245
"ZAF","ZA",4471.0,43317.0,43317.0,"ouplaas",56834.0,20.433333,-34.366667,1,"","",0.0,"","",0,0,"","",25,1,"","",25,7,"","",3,18255,"",0.04,0.28,""
"ZAF","ZA",4463.0,43274.0,43274.0,"palmietvier primary school","",25.2448,-33.55,3,"school","mapping",2017.0,5.0,15.0,13,3,66.67,0.0,13,3,0.0,0.0,13,0,0.0,0.0,1,36318,0.23076923076923078,0.23076923076923078,0.0,0.3851736072345651
"ZAF","ZA",4466.0,"",29337.0,"parkstation","",31.01,-29.79,4,"","",1998.0,2.0,10.0,71,6,"","",71,58,"","",71,51,"","",3,29915,0.08450704225352113,0.8169014084507042,0.7183098591549296,0.898850525873856
"ZAF","ZA",4466.0,"",43293.0,"pemary ridge","",30.94,-29.79,4,"","",1998.0,2.0,10.0,65,2,"","",65,61,"","",65,48,"","",3,29913,0.03076923076923077,0.9384615384615385,0.7384615384615385,0.9286797605654366
"ZAF","ZA",4465.0,43280.0,43280.0,"pheasant folly primary school","",28.1622,-26.4217,3,"school","mapping",2017.0,5.0,16.0,47,2,0.0,0.0,47,6,0.0,0.0,47,0,0.0,0.0,1,36331,0.0425531914893617,0.1276595744680851,0.0,0.15545324871665653
"ZAF","ZA",4463.0,43272.0,43272.0,"phindubuye primary school","",25.3984,-33.8309,3,"school","mapping",2017.0,5.0,15.0,20,0,0.0,0.0,20,5,0.0,0.0,20,0,0.0,0.0,1,36307,0.0,0.25,0.0,0.23584905660377356
"ZAF","ZA",4469.0,43305.0,43305.0,"phogole primary school","",25.98,-27.3249,3,"school","mapping",2017.0,5.0,16.0,49,3,0.0,0.0,49,20,0.0,0.0,49,0,0.0,0.0,1,36650,0.061224489795918366,0.40816326530612246,0.0,0.41924355417946924
"ZAF","ZA",4465.0,43280.0,43280.0,"phumula primary school","",28.1967,-26.3204,3,"school","mapping",2017.0,5.0,16.0,48,2,0.0,0.0,48,16,0.0,0.0,48,0,0.0,0.0,1,36332,0.041666666666666664,0.3333333333333333,0.0,0.340670859538784
"ZAF","ZA",4469.0,43305.0,43305.0,"promosa primary school","",27.0265,-26.7022,3,"school","mapping",2017.0,5.0,16.0,49,4,25.0,0.0,49,12,0.0,0.0,49,0,0.0,0.0,1,36651,0.08163265306122448,0.24489795918367346,0.0,0.2891876812334483
"ZAF","ZA",4471.0,43317.0,43317.0,"protem",56835.0,20.083333,-34.266667,1,"","",0.0,"","",0,0,"","",29,3,"","",29,10,"","",3,18253,"",0.10344827586206896,0.3448275862068966,""
"ZAF","ZA",4469.0,43305.0,43305.0,"pudulogo primary school","","","",99,"school","",2017.0,5.0,16.0,48,4,50.0,25.0,48,24,0.0,0.0,48,0,0.0,0.0,1,36652,0.08333333333333333,0.5,0.0,0.5110062893081762
"ZAF","ZA",4465.0,43282.0,43282.0,"qhaqholla primary school","",28.3256,-26.5506,3,"school","mapping",2017.0,5.0,16.0,39,3,66.67,0.0,39,7,0.0,0.0,39,0,0.0,0.0,1,36354,0.07692307692307693,0.1794871794871795,0.0,0.2288712738640169
"ZAF","ZA",4463.0,43269.0,43269.0,"qhuru junior primary school","",27.5161,-33.0242,3,"school","mapping",2017.0,5.0,15.0,40,0,0.0,0.0,40,12,0.0,0.0,40,1,0.0,0.0,1,36290,0.0,0.3,0.025,0.2995283018867924
"ZAF","ZA",4466.0,"",29369.0,"quarry road west","",30.97,-29.8,4,"","",1998.0,2.0,10.0,82,5,"","",82,79,"","",82,60,"","",3,29916,0.06097560975609756,0.9634146341463414,0.7317073170731707,0.934700872998426
"ZAF","ZA",4465.0,43282.0,43282.0,"radipeu primary farm school","",27.7964,-26.5839,3,"school","mapping",2017.0,5.0,16.0,45,8,12.5,12.5,45,0,0.0,0.0,45,0,0.0,0.0,1,36355,0.17777777777777778,0.0,0.0,0.16771488469601675
"ZAF","ZA",4469.0,43305.0,43305.0,"selang thuto primary school","","","",99,"school","",2017.0,5.0,16.0,39,3,33.33,0.0,39,11,0.0,0.0,39,0,0.0,0.0,1,36653,0.07692307692307693,0.28205128205128205,0.0,0.3181868929329016
"ZAF","ZA","","","","sentinel","","","",99,"","",1994.0,5.0,16.0,400,0,"","",400,5,"","",400,4,"","",3,31166,0.0,0.0125,0.01,0.02110849056603773
"ZAF","ZA","","",29345.0,"star of the sea","",32.3447,-26.9464,4,"","","",5.0,13.0,153,136,"","",153,111,"","",153,135,"","",3,31156,0.8888888888888888,0.7254901960784313,0.8823529411764706,0.9400109778774008
"ZAF","ZA",4469.0,43306.0,43306.0,"ramosadi primary school","",25.6242,-25.854,3,"school","mapping",2017.0,5.0,16.0,31,6,0.0,0.0,31,4,0.0,0.0,31,0,0.0,0.0,1,36668,0.1935483870967742,0.12903225806451613,0.0,0.2807609997447627
"ZAF","ZA",4471.0,"",29547.0,"rawsonville","",19.316667,-33.683333,4,"","",1997.0,5.0,20.0,0,0,"","",462,159,"","",462,319,"","",3,29871,"",0.34415584415584416,0.6904761904761905,""
"ZAF","ZA",4471.0,43314.0,43314.0,"rawsonville",56810.0,19.3143778,-33.681831,1,"","",0.0,"","",0,0,"","",30,5,"","",30,13,"","",3,18242,"",0.16666666666666666,0.43333333333333335,""
"ZAF","ZA",4465.0,43283.0,43283.0,"refano primary school","",28.9688,-25.6558,3,"school","mapping",2017.0,5.0,16.0,51,7,42.86,0.0,51,0,0.0,0.0,51,0,0.0,0.0,1,36371,0.13725490196078433,0.0,0.0,0.12948575656677766
"ZAF","ZA",4469.0,43304.0,43304.0,"retief primary school","",27.4769,-25.7391,3,"school","mapping",2017.0,5.0,16.0,50,4,50.0,25.0,50,15,0.0,0.0,50,0,0.0,0.0,1,36640,0.08,0.3,0.0,0.3358490566037735
"ZAF","ZA",4470.0,"",29409.0,"riverton","",24.716,-28.499001,4,"","",1991.0,1.0,6.0,0,0,"","",36,11,"","",36,9,"","",3,29413,"",0.3055555555555556,0.25,""
"ZAF","ZA",4465.0,43283.0,43283.0,"robert hicks primary school","",28.2091,-25.7257,3,"school","mapping",2017.0,5.0,16.0,49,12,8.33,8.33,49,10,0.0,0.0,49,0,0.0,0.0,1,36372,0.24489795918367346,0.20408163265306123,0.0,0.3764154872576677
"ZAF","ZA",4465.0,43284.0,43284.0,"rockland primary school","",27.3821,-26.4029,3,"school","mapping",2017.0,5.0,16.0,50,1,100.0,0.0,50,15,0.0,6.67,50,0,0.0,0.0,1,36385,0.02,0.3,0.0,0.2962264150943396
"ZAF","ZA",4465.0,43280.0,43280.0,"rondebult primary school","",28.2298,-26.2957,3,"school","mapping",2017.0,5.0,16.0,46,1,0.0,0.0,46,6,0.0,0.0,46,0,0.0,0.0,1,36333,0.021739130434782608,0.13043478260869565,0.0,0.1408852587652031
"ZAF","ZA",4465.0,43284.0,43284.0,"rooipoort primary farm school","",27.3793,-26.3136,3,"school","mapping",2017.0,5.0,16.0,49,0,0.0,0.0,49,14,0.0,0.0,49,0,0.0,0.0,1,36386,0.0,0.2857142857142857,0.0,0.2695417789757412
"ZAF","ZA",4469.0,43307.0,43307.0,"roshanville primary school","",25.3158,-27.1947,3,"school","mapping",2017.0,5.0,16.0,42,3,33.33,0.0,42,15,0.0,0.0,42,0,0.0,0.0,1,36681,0.07142857142857142,0.35714285714285715,0.0,0.3802464381979207
"ZAF","ZA",4471.0,43314.0,43314.0,"rwasonville",56812.0,19.3143778,-33.681831,1,"","",0.0,"","",0,0,"","",462,162,"","",462,199,"","",3,18245,"",0.35064935064935066,0.43073593073593075,""
"ZAF","ZA",4466.0,43287.0,43287.0,"sakhayedwa",56848.0,30.0117,-30.6033,3,"","",0.0,"","",57,0,"","",57,7,"","",57,24,"","",3,18159,0.0,0.12280701754385964,0.42105263157894735,0.46429380302792717
"ZAF","ZA","","","","sakhesetu","",31.4972,-29.1917,4,"","","",5.0,13.0,168,112,"","",168,121,"","",168,156,"","",3,31159,0.6666666666666666,0.7202380952380952,0.9285714285714286,0.9371122662901634
"ZAF","ZA",4466.0,43294.0,43294.0,"sakhesetu",56897.0,31.4972,-29.1917,3,"","",0.0,"","",168,112,"","",168,121,"","",168,156,"","",3,18206,0.6666666666666666,0.7202380952380952,0.9285714285714286,0.9371122662901634
"ZAF","ZA","","","","sakumlandela","","","",99,"","",1999.0,5.0,20.0,0,0,"","",84,66,"","",84,68,"","",3,31184,"",0.7857142857142857,0.8095238095238095,""
"ZAF","ZA",4463.0,43274.0,43274.0,"sandwater farm primary school","",24.6643,-34.1659,3,"school","mapping",2017.0,5.0,15.0,25,2,50.0,0.0,25,17,52.94,0.0,25,0,0.0,0.0,1,36319,0.08,0.68,0.0,0.6656603773584905
"ZAF","ZA",4471.0,43314.0,43314.0,"saron",56813.0,19.0096562,-33.1866915,1,"","",0.0,"","",0,0,"","",29,1,"","",29,13,"","",3,18237,"",0.034482758620689655,0.4482758620689655,""
"ZAF","ZA",4468.0,43302.0,43302.0,"sasolia primary school","",29.1133,-26.4727,3,"school","mapping",2018.0,5.0,15.0,43,0,0.0,0.0,43,10,0.0,0.0,43,0,0.0,0.0,1,36614,0.0,0.23255813953488372,0.0,0.21939447125932424
"ZAF","ZA",4465.0,43284.0,43284.0,"sedimosang primary school","",27.4119,-26.1354,3,"school","mapping",2017.0,5.0,16.0,21,0,0.0,0.0,21,2,0.0,0.0,21,0,0.0,0.0,1,36387,0.0,0.09523809523809523,0.0,0.0898472596585804
"ZAF","ZA","","","","sehlajaneng","","","",99,"","",1994.0,5.0,16.0,128,0,"","",128,3,"","",128,0,"","",3,31167,0.0,0.0234375,0.0,0.022110849056603772
"ZAF","ZA",4469.0,43304.0,43304.0,"setumo sephethe primary school","",27.9613,-25.1538,3,"school","mapping",2017.0,5.0,16.0,50,1,100.0,0.0,50,18,0.0,0.0,50,0,0.0,0.0,1,36641,0.02,0.36,0.0,0.3516981132075471
"ZAF","ZA",4468.0,43301.0,43301.0,"shalamuka primary school","",31.3688,-24.9522,3,"school","mapping",2018.0,5.0,15.0,38,0,0.0,0.0,38,9,11.11,0.0,38,0,0.0,0.0,1,36605,0.0,0.23684210526315788,0.0,0.22343594836146968
"ZAF","ZA",4465.0,43282.0,43282.0,"shalimar ridge primary school","",28.3536,-26.5136,3,"school","mapping",2017.0,5.0,16.0,37,0,0.0,0.0,37,10,0.0,0.0,37,0,0.0,0.0,1,36356,0.0,0.2702702702702703,0.0,0.25497195308516063
"ZAF","ZA",4466.0,43288.0,43288.0,"shemula",56864.0,32.2313539,-27.1098544,1,"","",1998.0,"","",99,85,"","",99,8,"","",99,40,"","",3,18177,0.8585858585858586,0.08080808080808081,0.40404040404040403,0.870314299344452
"ZAF","ZA",4468.0,43302.0,43302.0,"shukuma primary school","",29.1863,-27.0022,3,"school","mapping",2018.0,5.0,15.0,44,0,0.0,0.0,44,10,0.0,0.0,44,0,0.0,0.0,1,36615,0.0,0.22727272727272727,0.0,0.21440823327615777
"ZAF","ZA",4465.0,43282.0,43282.0,"sicelo primary school","",27.9834,-26.5533,3,"school","mapping",2017.0,5.0,16.0,54,0,0.0,0.0,54,11,0.0,0.0,54,0,0.0,0.0,1,36357,0.0,0.2037037037037037,0.0,0.19217330538085253
"ZAF","ZA",4466.0,43288.0,43288.0,"sihangwane",56865.0,32.4166669,-27.033333,1,"","",1998.0,"","",58,55,"","",58,21,"","",58,41,"","",3,18183,0.9482758620689655,0.3620689655172414,0.7068965517241379,0.9342722941134146
"ZAF","ZA",4463.0,43272.0,43272.0,"sikhothina primary school","",25.3873,-33.8246,3,"school","mapping",2017.0,5.0,15.0,49,0,0.0,0.0,49,19,52.63,0.0,49,0,0.0,0.0,1,36308,0.0,0.3877551020408163,0.0,0.3658067000385059
"ZAF","ZA",4466.0,"",29337.0,"simplace","",31.01,-29.77,4,"","",1998.0,2.0,10.0,123,22,"","",123,113,"","",123,95,"","",3,29917,0.17886178861788618,0.9186991869918699,0.7723577235772358,0.9290592290461157
"ZAF","ZA",4471.0,"",29546.0,"sivile","",18.63455,-34.010911,4,"","",1999.0,5.0,20.0,0,0,"","",94,46,"","",94,55,"","",3,31188,"",0.48936170212765956,0.5851063829787234,""
"ZAF","ZA",4466.0,"",29350.0,"sizani","",31.2278,-29.486099,4,"","","",5.0,13.0,168,98,"","",168,113,"","",168,148,"","",3,31162,0.5833333333333334,0.6726190476190477,0.8809523809523809,0.9280762881672581
"ZAF","ZA",4466.0,43294.0,43294.0,"sizani",56898.0,31.2278,-29.4861,3,"","",0.0,"","",168,98,"","",168,113,"","",168,148,"","",3,18207,0.5833333333333334,0.6726190476190477,0.8809523809523809,0.9280762881672581
"ZAF","ZA",4465.0,43282.0,43282.0,"skansdam primary farm school","",28.0732,-26.459600000000002,3,"school","mapping",2017.0,5.0,16.0,50,0,0.0,0.0,50,12,0.0,0.0,50,0,0.0,0.0,1,36358,0.0,0.24,0.0,0.22641509433962262
"ZAF","ZA",4466.0,"",29344.0,"smithfield","",31.0,-29.79,4,"","",1998.0,2.0,10.0,29,6,"","",29,25,"","",29,25,"","",3,29914,0.20689655172413793,0.8620689655172413,0.8620689655172413,0.9291615381818433
"ZAF","ZA","","","","sobambisana","","","",99,"","",1999.0,5.0,20.0,0,0,"","",67,54,"","",67,54,"","",3,31179,"",0.8059701492537313,0.8059701492537313,""
"ZAF","ZA",4468.0,43303.0,43303.0,"somtshongweni primary school","","","",99,"school","",2018.0,5.0,15.0,49,0,0.0,0.0,49,8,0.0,0.0,49,0,0.0,0.0,1,36627,0.0,0.16326530612244897,0.0,0.15402387370042353
"ZAF","ZA","","","","soyisile","","","",99,"","",1999.0,5.0,20.0,0,0,"","",91,63,"","",91,60,"","",3,31189,"",0.6923076923076923,0.6593406593406593,""
"ZAF","ZA",4465.0,43283.0,43283.0,"st camillus primary school","",28.3012,-25.3906,3,"school","mapping",2017.0,5.0,16.0,50,4,75.0,0.0,50,0,0.0,0.0,50,0,0.0,0.0,1,36373,0.08,0.0,0.0,0.07547169811320754
"ZAF","ZA",4466.0,43288.0,43288.0,"st phillips",56866.0,32.258301,-26.9228,3,"","",1998.0,"","",162,124,"","",162,28,"","",162,88,"","",3,18175,0.7654320987654321,0.1728395061728395,0.5432098765432098,0.8597841120686713
"ZAF","ZA",4463.0,43271.0,43271.0,"st thomas j.s.s primary school","",28.5199,-30.6736,3,"school","mapping",2017.0,5.0,15.0,47,0,0.0,0.0,47,11,0.0,0.0,47,0,0.0,0.0,1,36301,0.0,0.23404255319148937,0.0,0.22079486150140504
"ZAF","ZA",4466.0,43288.0,43288.0,"star of the sea",56867.0,30.8737737,-30.058407,1,"","",0.0,"","",153,136,"","",153,111,"","",153,135,"","",3,18172,0.8888888888888888,0.7254901960784313,0.8823529411764706,0.9400109778774008
"ZAF","ZA",4469.0,43304.0,43304.0,"swartregens primary school","",26.683,-25.6367,3,"school","mapping",2017.0,5.0,16.0,50,3,33.33,0.0,50,13,0.0,0.0,50,0,0.0,0.0,1,36642,0.06,0.26,0.0,0.2871698113207547
"ZAF","ZA",4465.0,43280.0,43280.0,"tamaho primary school","",28.1475,-26.3048,3,"school","mapping",2017.0,5.0,16.0,49,1,0.0,0.0,49,22,0.0,13.64,49,1,0.0,0.0,1,36334,0.02040816326530612,0.4489795918367347,0.02040816326530612,0.4445667212528729
"ZAF","ZA",4471.0,43314.0,43314.0,"tandfontein",56814.0,19.2500586,-32.7672767,1,"","",0.0,"","",0,0,"","",29,0,"","",29,3,"","",3,18248,"",0.0,0.10344827586206896,""
"ZAF","ZA","","","","teboho","","","",99,"","",1994.0,5.0,16.0,191,0,"","",191,25,"","",191,0,"","",3,31174,0.0,0.13089005235602094,0.0,0.12348118146794428
"ZAF","ZA","","",29349.0,"tendela","",29.758301,-29.411699,4,"","","",5.0,16.0,136,0,"","",136,17,"","",136,8,"","",3,29865,0.0,0.125,0.058823529411764705,0.16648168701442842
"ZAF","ZA",4466.0,43295.0,43295.0,"tendela",56901.0,29.7583,-29.4117,3,"","",0.0,"","",136,0,"","",136,17,"","",136,8,"","",3,18211,0.0,0.125,0.058823529411764705,0.16648168701442842
"ZAF","ZA",4468.0,43302.0,43302.0,"thandanani primary school","",28.933,-25.3185,3,"school","mapping",2018.0,5.0,15.0,48,0,0.0,0.0,48,15,0.0,0.0,48,0,0.0,0.0,1,36616,0.0,0.3125,0.0,0.29481132075471694
"ZAF","ZA",4469.0,43307.0,43307.0,"thuto lesedi primary school","","","",99,"school","",2017.0,5.0,16.0,46,2,0.0,0.0,46,8,0.0,0.0,46,0,0.0,0.0,1,36682,0.043478260869565216,0.17391304347826086,0.0,0.19795270535363982
"ZAF","ZA",4465.0,43284.0,43284.0,"thuto bokamoso primary school","","","",99,"school","",2017.0,5.0,16.0,52,1,0.0,0.0,52,0,0.0,0.0,52,0,0.0,0.0,1,36388,0.019230769230769232,0.0,0.0,0.018142235123367198
"ZAF","ZA",4466.0,43286.0,43286.0,"tigervlei",56825.0,29.3617,-30.3767,3,"","",0.0,"","",105,0,"","",105,46,"","",105,18,"","",3,18152,0.0,0.4380952380952381,0.17142857142857143,0.5041714799127198
"ZAF","ZA",4465.0,43282.0,43282.0,"tikelo primary farm school","","","",99,"school","",2017.0,5.0,16.0,34,0,0.0,0.0,34,13,0.0,0.0,34,0,0.0,0.0,1,36359,0.0,0.38235294117647056,0.0,0.36071032186459484
"ZAF","ZA",4463.0,43273.0,43273.0,"transkei primary school","",28.7824,-31.5918,3,"school","mapping",2017.0,5.0,15.0,31,0,0.0,0.0,31,8,0.0,0.0,31,0,0.0,0.0,1,36313,0.0,0.25806451612903225,0.0,0.24345709068776625
"ZAF","ZA",4468.0,43301.0,43301.0,"tsandzanani primary school","",31.3548,-25.5217,3,"school","mapping",2018.0,5.0,15.0,49,3,33.3,33.33,49,19,0.0,0.0,49,0,0.0,0.0,1,36606,0.061224489795918366,0.3877551020408163,0.0,0.40116932410237865
"ZAF","ZA",4469.0,43307.0,43307.0,"tshwaraganelo primary school","",25.307,-27.2003,3,"school","mapping",2017.0,5.0,16.0,26,1,0.0,0.0,26,13,0.0,0.0,26,0,0.0,0.0,1,36683,0.038461538461538464,0.5,0.0,0.4898403483309143
"ZAF","ZA",4465.0,43284.0,43284.0,"tsitsiboga primary school","",27.326,-26.3161,3,"school","mapping",2017.0,5.0,16.0,50,1,0.0,0.0,50,18,0.0,0.0,50,0,0.0,0.0,1,36389,0.02,0.36,0.0,0.3516981132075471
"ZAF","ZA",4471.0,43314.0,43314.0,"uitnood",56815.0,19.8756029,-33.80225,1,"","",0.0,"","",0,0,"","",23,0,"","",23,8,"","",3,18247,"",0.0,0.34782608695652173,""
"ZAF","ZA","","","","umangaliso","","","",99,"","",1999.0,5.0,20.0,0,0,"","",100,78,"","",100,81,"","",3,31186,"",0.78,0.81,""
"ZAF","ZA",4465.0,43280.0,43280.0,"umnyezane primary school","",28.4302,-26.0971,3,"school","mapping",2017.0,5.0,16.0,49,7,14.29,0.0,49,16,0.0,0.0,49,0,0.0,0.0,1,36335,0.14285714285714285,0.32653061224489793,0.0,0.3988118158314538
"ZAF","ZA","","",29368.0,"umsilinga","",30.5233,-29.5483,4,"","","",5.0,16.0,90,0,"","",90,60,"","",90,34,"","",3,29863,0.0,0.6666666666666666,0.37777777777777777,0.747728860936408
"ZAF","ZA",4466.0,43295.0,43295.0,"umsilinga",56902.0,30.5233,-29.5483,3,"","",0.0,"","",90,0,"","",90,60,"","",90,34,"","",3,18210,0.0,0.6666666666666666,0.37777777777777777,0.747728860936408
"ZAF","ZA",4465.0,43284.0,43284.0,"unity primary school","",27.6674,-26.0931,3,"school","mapping",2017.0,5.0,16.0,50,3,0.0,0.0,50,17,0.0,5.88,50,0,0.0,0.0,1,36390,0.06,0.34,0.0,0.3581132075471698
"ZAF","ZA",4463.0,43270.0,43270.0,"upper langana senior primary","",27.5886,-31.6676,3,"school","mapping",2017.0,5.0,15.0,23,1,0.0,0.0,23,3,33.33,0.0,23,0,0.0,0.0,1,36296,0.043478260869565216,0.13043478260869565,0.0,0.15871883582408958
"ZAF","ZA",4465.0,43283.0,43283.0,"valhalla primary school","","","",99,"school","",2017.0,5.0,16.0,50,5,20.0,0.0,50,8,0.0,0.0,50,0,0.0,0.0,1,36374,0.1,0.16,0.0,0.230188679245283
"ZAF","ZA",4466.0,43288.0,43288.0,"velabusha",56868.0,32.72678,-27.1341,1,"","",0.0,"","",88,36,"","",88,66,"","",88,69,"","",3,18181,0.4090909090909091,0.75,0.7840909090909091,0.9133059800405428
"ZAF","ZA",4471.0,43317.0,43317.0,"viljoenshof",56836.0,19.7011308,-34.6690732,1,"","",0.0,"","",0,0,"","",30,5,"","",30,13,"","",3,18256,"",0.16666666666666666,0.43333333333333335,""
"ZAF","ZA",4468.0,43302.0,43302.0,"volskrust primary school","",29.8855,-27.3588,3,"school","mapping",2018.0,5.0,15.0,43,0,0.0,0.0,43,12,0.0,0.0,43,0,0.0,0.0,1,36617,0.0,0.27906976744186046,0.0,0.2632733655111891
"ZAF","ZA","","","","vusulela","","","",99,"","",1997.0,5.0,20.0,0,0,"","",50,35,"","",50,45,"","",3,29439,"",0.7,0.9,""
"ZAF","ZA","","","","vusulela","","","",99,"","",1999.0,5.0,20.0,0,0,"","",90,60,"","",90,78,"","",3,31178,"",0.6666666666666666,0.8666666666666667,""
"ZAF","ZA",4471.0,"",29546.0,"vuzamanzi","",18.648989,-34.013739,4,"","",1997.0,5.0,20.0,0,0,"","",50,46,"","",50,49,"","",3,29437,"",0.92,0.98,""
"ZAF","ZA",4471.0,"",29546.0,"vuzamanzi","",18.648989,-34.013739,4,"","",1999.0,5.0,20.0,0,0,"","",99,74,"","",99,80,"","",3,31182,"",0.7474747474747475,0.8080808080808081,""
"ZAF","ZA",4471.0,43313.0,43313.0,"welgemoed",56801.0,18.6145938,-33.8723559,1,"","",0.0,"","",0,0,"","",30,0,"","",30,2,"","",3,18229,"",0.0,0.06666666666666667,""
"ZAF","ZA",4463.0,43274.0,43274.0,"willowmore primary school","",23.1601,-32.8911,3,"school","mapping",2017.0,5.0,15.0,21,3,0.0,0.0,21,8,0.0,0.0,21,0,0.0,0.0,1,36320,0.14285714285714285,0.38095238095238093,0.0,0.44281863688871764
"ZAF","ZA",4469.0,43305.0,43305.0,"witpoort primary school","",27.3412,-26.6423,3,"school","mapping",2017.0,5.0,16.0,10,1,0.0,0.0,10,7,0.0,0.0,10,0,0.0,0.0,1,36654,0.1,0.7,0.0,0.6886792452830188
"ZAF","ZA",4471.0,43314.0,43314.0,"worcester",56816.0,19.4616074,-33.65389,1,"","",0.0,"","",0,0,"","",30,1,"","",30,5,"","",3,18238,"",0.03333333333333333,0.16666666666666666,""
"ZAF","ZA",4466.0,43288.0,43288.0,"zama zama",56869.0,30.9586882,-29.8563945,1,"","",0.0,"","",88,45,"","",88,74,"","",88,61,"","",3,18167,0.5113636363636364,0.8409090909090909,0.6931818181818182,0.9208949904668072
"ZAF","ZA",4466.0,43288.0,43288.0,"zama zama",56870.0,30.9586882,-29.8563945,1,"","",1998.0,"","",127,115,"","",127,28,"","",127,103,"","",3,18170,0.905511811023622,0.2204724409448819,0.8110236220472441,0.9302648377990262
"ZAF","ZA",4465.0,43281.0,43281.0,"zandspruit primary school","","","",99,"school","",2017.0,5.0,16.0,49,0,0.0,0.0,49,8,0.0,0.0,49,0,0.0,0.0,1,36345,0.0,0.16326530612244897,0.0,0.15402387370042353
"ZAF","ZA",4468.0,43301.0,43301.0,"zwide primary school","",31.6254,-25.7446,3,"school","mapping",2018.0,5.0,15.0,48,1,0.0,0.0,48,7,0.0,0.0,48,1,0.0,0.0,1,36607,0.020833333333333332,0.14583333333333334,0.020833333333333332,0.17080460287823201
