iso3,iso2,admin1_id,admin2_id,iu_id,location,site_id,longitude,latitude,georeliability,location_type,survey_type,year,age_start,age_end,hk_examined,hk_positive,hk_perc_highinfection,hk_perc_moderateinfection,asc_examined,asc_positive,asc_perc_highinfection,asc_perc_moderateinfection,tt_examined,tt_positive,tt_perc_highinfection,tt_perc_moderateinfection,quality,sn,hk_prevalence,asc_prevalence,tt_prevalence,sth_prevalence
CMR,CM,819.0,7432.0,7432.0,bafia,,11.23,4.752,3,,,1980.0,0.0,99.0,689,411,,,689.0,476,,,689.0,483,,,3,29141,0.5965166908563135,0.690856313497823,0.7010159651669086,0.9082136136156582
CMR,CM,827.0,7602.0,7602.0,bai foe,50438.0,9.2124004,4.4748001,3,,,1998.0,,,48,12,,,48.0,34,,,48.0,30,,,3,2578,0.25,0.7083333333333334,0.625,0.8660082547169812
CMR,CM,827.0,7604.0,7604.0,bai panya,50483.0,9.3274282,4.5345138,1,,,1998.0,,,28,6,,,28.0,19,,,28.0,6,,,3,2583,0.21428571428571427,0.6785714285714286,0.21428571428571427,0.7561953352769679
CMR,CM,827.0,7599.0,7599.0,barombi kang,,9.4575,4.607222,3,,,2010.0,5.0,15.0,162,12,,,162.0,28,,,162.0,18,,,1,31296,0.07407407407407407,0.1728395061728395,0.1111111111111111,0.301141009529342
CMR,CM,827.0,7599.0,7599.0,barombi kang,50386.0,9.4576998,4.6073999,3,,,1998.0,,,40,4,,,40.0,20,,,40.0,13,,,3,2573,0.1,0.5,0.325,0.6568396226415093
CMR,CM,827.0,7600.0,7600.0,bolifamba,50394.0,9.3048959,4.1715071,1,,,0.0,,,425,14,,,425.0,115,,,425.0,104,,,3,2576,0.03294117647058824,0.27058823529411763,0.2447058823529412,0.44078070886250953
CMR,CM,827.0,7600.0,7600.0,buea,50395.0,9.2632243,4.1559658,1,,,0.0,,,85,5,,,85.0,50,,,85.0,45,,,3,2577,0.058823529411764705,0.5882352941176471,0.5294117647058824,0.7713459477934935
CMR,CM,822.0,7512.0,7512.0,cebec loum b,50399.0,9.75,4.7305999,3,,,2000.0,,,142,1,,,142.0,69,,,142.0,103,,,3,2567,0.007042253521126761,0.4859154929577465,0.7253521126760564,0.8111340449715468
CMR,CM,818.0,7422.0,7422.0,djohong,,14.691,6.834,3,,,1985.0,0.0,99.0,763,352,,,763.0,34,,,763.0,60,,,3,29126,0.4613368283093054,0.04456094364351245,0.07863695937090433,0.49604853950979566
CMR,CM,821.0,7477.0,7477.0,e pri cath djougoumta,10441.0,15.26857,10.09638,3,,,2012.0,,,50,4,,,50.0,0,,,50.0,0,,,1,2614,0.08,0.0,0.0,0.07547169811320754
CMR,CM,821.0,7495.0,7495.0,e an gr 1a mora,10545.0,14.1407948,11.0465171,1,,,2012.0,,,50,1,,,50.0,0,,,50.0,0,,,1,19008,0.02,0.0,0.0,0.018867924528301886
CMR,CM,821.0,7473.0,7473.0,e djiddel,10394.0,14.7533198,10.81632,3,,,2012.0,,,50,0,,,50.0,0,,,50.0,0,,,1,2604,0.0,0.0,0.0,0.0
CMR,CM,821.0,7477.0,7477.0,e gr 1 ardaf,10440.0,15.27195,10.03109,3,,,2012.0,,,50,0,,,50.0,0,,,50.0,0,,,1,2613,0.0,0.0,0.0,0.0
CMR,CM,821.0,7474.0,7474.0,e pri cath djimi,10399.0,13.55076,10.27468,1,,,2012.0,,,50,0,,,50.0,0,,,50.0,0,,,1,18912,0.0,0.0,0.0,0.0
CMR,CM,821.0,7494.0,7494.0,e priv cath ouro tada,10540.0,13.77587,10.736,3,,,2012.0,,,50,2,,,50.0,0,,,50.0,0,,,1,19002,0.04,0.0,0.0,0.03773584905660377
CMR,CM,823.0,7536.0,7536.0,e sanguere djalingo,10573.0,13.4612924,9.2780215,1,,,2012.0,,,50,0,,,50.0,0,,,50.0,0,,,1,19092,0.0,0.0,0.0,0.0
CMR,CM,823.0,7530.0,7530.0,ea bibemire ii,10420.0,13.4090842,9.316294,3,,,2012.0,,,50,0,,,50.0,0,,,50.0,0,,,1,2680,0.0,0.0,0.0,0.0
CMR,CM,821.0,7480.0,7480.0,ea gr 3a kaele,10460.0,14.4432179,10.1111834,1,,,2012.0,,,50,0,,,50.0,0,,,50.0,0,,,1,2624,0.0,0.0,0.0,0.0
CMR,CM,823.0,7537.0,7537.0,eap gr 1 pitoa,10583.0,13.5060994,9.3860529,1,,,2012.0,,,50,0,,,50.0,0,,,50.0,0,,,1,2702,0.0,0.0,0.0,0.0
CMR,CM,827.0,7604.0,7604.0,ediki,50484.0,9.4499998,4.5339998999999995,3,,,1998.0,,,70,22,,,70.0,20,,,70.0,24,,,3,2581,0.3142857142857143,0.2857142857142857,0.34285714285714286,0.6397491611199735
CMR,CM,821.0,7495.0,7495.0,ep aissa harde,10546.0,14.3333712,10.5912728,2,,,2012.0,,,50,4,,,50.0,0,,,50.0,0,,,1,19007,0.08,0.0,0.0,0.07547169811320754
CMR,CM,821.0,7498.0,7498.0,ep alagarno,10578.0,14.7022,11.01361,1,,,2012.0,,,50,2,,,50.0,0,,,50.0,0,,,1,19024,0.04,0.0,0.0,0.03773584905660377
CMR,CM,818.0,7428.0,7428.0,ep alme,10613.0,12.48333,7.81667,3,,,2012.0,,,50,8,,,50.0,0,,,50.0,0,,,1,18901,0.16,0.0,0.0,0.1509433962264151
CMR,CM,821.0,7476.0,7476.0,ep ardebe,10435.0,14.23345,12.50374,1,,,2012.0,,,50,0,,,50.0,0,,,50.0,0,,,1,18917,0.0,0.0,0.0,0.0
CMR,CM,821.0,7483.0,7483.0,ep ardebe kousseri,10475.0,15.0148322,12.087083,1,,,2012.0,,,50,1,,,50.0,0,,,50.0,0,,,1,2632,0.02,0.0,0.0,0.018867924528301886
CMR,CM,823.0,7532.0,7532.0,ep babouri,10430.0,13.77741,9.79017,3,,,2012.0,,,50,0,,,50.0,0,,,50.0,0,,,1,2686,0.0,0.0,0.0,0.0
CMR,CM,821.0,7497.0,7497.0,ep badjava,10555.0,14.19125,10.21279,3,,,2012.0,,,50,2,,,50.0,0,,,50.0,0,,,1,19015,0.04,0.0,0.0,0.03773584905660377
CMR,CM,821.0,7479.0,7479.0,ep bamguel,10455.0,13.83287,10.29302,3,,,2012.0,,,50,0,,,50.0,0,,,50.0,0,,,1,2618,0.0,0.0,0.0,0.0
CMR,CM,818.0,7420.0,7420.0,ep bandam,10379.0,11.45199,6.154317,1,,,2012.0,,,50,8,,,50.0,5,,,50.0,7,,,1,18863,0.16,0.1,0.14,0.33003773584905655
CMR,CM,821.0,7478.0,7478.0,ep barlang,10450.0,14.85232,10.05986,1,,,2012.0,,,50,3,,,50.0,0,,,50.0,0,,,1,18925,0.06,0.0,0.0,0.056603773584905655
CMR,CM,823.0,7531.0,7531.0,ep bascheo,10426.0,13.37222,9.67222,3,,,2012.0,,,50,0,,,50.0,0,,,50.0,0,,,1,2682,0.0,0.0,0.0,0.0
CMR,CM,821.0,7486.0,7486.0,ep begue palam,10495.0,15.12974,10.68885,3,,,2012.0,,,50,1,,,50.0,0,,,50.0,0,,,1,2642,0.02,0.0,0.0,0.018867924528301886
CMR,CM,818.0,7427.0,7427.0,ep beka gotto,10608.0,13.116667,6.75,1,,,2012.0,,,50,5,,,50.0,0,,,50.0,0,,,1,18895,0.1,0.0,0.0,0.09433962264150943
CMR,CM,823.0,7530.0,7530.0,ep benoue i,10421.0,13.7289167,9.1042257,1,,,2012.0,,,50,0,,,50.0,0,,,50.0,0,,,1,2677,0.0,0.0,0.0,0.0
CMR,CM,823.0,7539.0,7539.0,ep bere,10593.0,14.2283,9.0155,3,,,2012.0,,,50,0,,,50.0,0,,,50.0,0,,,1,19109,0.0,0.0,0.0,0.0
CMR,CM,823.0,7534.0,7534.0,ep bessoum,10485.0,13.71521,9.13561,1,,,2012.0,,,50,0,,,50.0,0,,,50.0,0,,,1,19082,0.0,0.0,0.0,0.0
CMR,CM,821.0,7481.0,7481.0,ep bilingue doukoula,10465.0,14.9710123,10.117194,1,,,2012.0,,,50,0,,,50.0,0,,,50.0,0,,,1,2626,0.0,0.0,0.0,0.0
CMR,CM,821.0,7487.0,7487.0,ep bodo,10500.0,14.47197,12.35991,3,,,2012.0,,,50,0,,,50.0,0,,,50.0,0,,,1,18970,0.0,0.0,0.0,0.0
CMR,CM,821.0,7473.0,7473.0,ep bogo founanguedje,10395.0,14.6004911,10.7330518,2,,,2012.0,,,50,2,,,50.0,0,,,50.0,1,,,1,18906,0.04,0.0,0.02,0.055849056603773574
CMR,CM,823.0,7535.0,7535.0,ep bossoum,10515.0,13.69687,9.94563,3,,,2012.0,,,50,1,,,50.0,0,,,50.0,0,,,1,2693,0.02,0.0,0.0,0.018867924528301886
CMR,CM,821.0,7473.0,7473.0,ep boudou,10396.0,14.66202,10.68708,3,,,2012.0,,,50,0,,,50.0,0,,,50.0,0,,,1,2606,0.0,0.0,0.0,0.0
CMR,CM,821.0,7474.0,7474.0,ep boukoula,10400.0,13.45504,10.14096,3,,,2012.0,,,50,0,,,50.0,0,,,50.0,0,,,1,2607,0.0,0.0,0.0,0.0
CMR,CM,823.0,7537.0,7537.0,ep boula ibi,10584.0,13.76317,9.55885,3,,,2012.0,,,50,0,,,50.0,0,,,50.0,0,,,1,2699,0.0,0.0,0.0,0.0
CMR,CM,823.0,7538.0,7538.0,ep boumba,10588.0,15.1035404,2.8877518,2,,,2012.0,,,50,9,,,50.0,0,,,50.0,0,,,1,2703,0.18,0.0,0.0,0.16981132075471694
CMR,CM,821.0,7474.0,7474.0,ep bourha,10401.0,13.5624914,10.339584200000001,2,,,2012.0,,,50,1,,,50.0,0,,,50.0,0,,,1,18914,0.02,0.0,0.0,0.018867924528301886
CMR,CM,821.0,7483.0,7483.0,ep dabanga,10476.0,14.64306,11.91793,3,,,2012.0,,,50,0,,,50.0,0,,,50.0,0,,,1,2635,0.0,0.0,0.0,0.0
CMR,CM,821.0,7488.0,7488.0,ep dalewawo,10505.0,14.03291,10.18785,1,,,2012.0,,,50,0,,,50.0,0,,,50.0,0,,,1,18976,0.0,0.0,0.0,0.0
CMR,CM,821.0,7497.0,7497.0,ep damai,10556.0,14.07955,10.30287,3,,,2012.0,,,50,1,,,50.0,0,,,50.0,0,,,1,19019,0.02,0.0,0.0,0.018867924528301886
CMR,CM,821.0,7485.0,7485.0,ep darak,10491.0,14.429966,12.771213,3,,,2012.0,,,50,0,,,50.0,0,,,50.0,0,,,1,2640,0.0,0.0,0.0,0.0
CMR,CM,821.0,7496.0,7496.0,ep daram i,10550.0,14.76439,10.36138,3,,,2012.0,,,50,1,,,50.0,0,,,50.0,0,,,1,19011,0.02,0.0,0.0,0.018867924528301886
CMR,CM,823.0,7531.0,7531.0,ep dembo,10427.0,13.5523679,9.7102437,1,,,2012.0,,,50,0,,,50.0,0,,,50.0,0,,,1,2681,0.0,0.0,0.0,0.0
CMR,CM,823.0,7531.0,7531.0,ep demsa,10428.0,13.22596,9.54617,3,,,2012.0,,,50,1,,,50.0,0,,,50.0,0,,,1,2683,0.02,0.0,0.0,0.018867924528301886
CMR,CM,821.0,7487.0,7487.0,ep digam,10501.0,14.63773,12.37703,1,,,2012.0,,,50,0,,,50.0,0,,,50.0,0,,,1,18971,0.0,0.0,0.0,0.0
CMR,CM,823.0,7532.0,7532.0,ep djabi golombe,10432.0,13.863308,9.647377,2,,,2012.0,,,50,0,,,50.0,0,,,50.0,0,,,1,2687,0.0,0.0,0.0,0.0
CMR,CM,818.0,7426.0,7426.0,ep djackbol ii,10569.0,13.5889127,7.3167864,3,,,2012.0,,,50,1,,,50.0,0,,,50.0,1,,,1,18891,0.02,0.0,0.02,0.03735849056603773
CMR,CM,821.0,7486.0,7486.0,ep djafga,10496.0,15.13957,10.61059,3,,,2012.0,,,50,2,,,50.0,0,,,50.0,0,,,1,2643,0.04,0.0,0.0,0.03773584905660377
CMR,CM,821.0,7502.0,7502.0,ep djengreng,10635.0,15.22675,10.05917,1,,,2012.0,,,50,1,,,50.0,0,,,50.0,0,,,1,2668,0.02,0.0,0.0,0.018867924528301886
CMR,CM,818.0,7425.0,7425.0,ep djett & karna petel,10561.0,13.581369,7.820425,3,,,2012.0,,,50,3,,,50.0,0,,,50.0,0,,,1,18885,0.06,0.0,0.0,0.056603773584905655
CMR,CM,821.0,7480.0,7480.0,ep djidoma i,10461.0,14.433333,10.083333,2,,,2012.0,,,50,0,,,50.0,0,,,50.0,0,,,1,2621,0.0,0.0,0.0,0.0
CMR,CM,823.0,7536.0,7536.0,ep djola,10575.0,13.4887529,9.2133633,2,,,2012.0,,,50,1,,,50.0,0,,,50.0,0,,,1,19094,0.02,0.0,0.0,0.018867924528301886
CMR,CM,823.0,7528.0,7528.0,ep djougui,10410.0,14.116667,10.016667,2,,,2012.0,,,50,0,,,50.0,0,,,50.0,0,,,1,2674,0.0,0.0,0.0,0.0
CMR,CM,821.0,7488.0,7488.0,ep djoulgouf,10507.0,14.46944,10.6238,1,,,2012.0,,,50,0,,,50.0,0,,,50.0,0,,,1,18979,0.0,0.0,0.0,0.0
CMR,CM,823.0,7539.0,7539.0,ep dobinga,10594.0,13.90268,8.98052,3,,,2012.0,,,50,1,,,50.0,0,,,50.0,0,,,1,19107,0.02,0.0,0.0,0.018867924528301886
CMR,CM,821.0,7486.0,7486.0,ep doreissou,10497.0,15.133333,10.55,1,,,2012.0,,,50,0,,,50.0,0,,,50.0,0,,,1,2641,0.0,0.0,0.0,0.0
CMR,CM,823.0,7535.0,7535.0,ep dourbeye,10516.0,13.52088,9.98484,3,,,2012.0,,,50,0,,,50.0,0,,,50.0,0,,,1,2694,0.0,0.0,0.0,0.0
CMR,CM,821.0,7498.0,7498.0,ep fadare,10580.0,14.60241,10.91999,3,,,2012.0,,,50,1,,,50.0,0,,,50.0,0,,,1,19022,0.02,0.0,0.0,0.018867924528301886
CMR,CM,821.0,7487.0,7487.0,ep fotokol,10502.0,14.22774,12.37308,3,,,2012.0,,,50,0,,,50.0,0,,,50.0,0,,,1,18972,0.0,0.0,0.0,0.0
CMR,CM,821.0,7480.0,7480.0,ep gaban,10462.0,14.55,10.233333,1,,,2012.0,,,50,0,,,50.0,0,,,50.0,0,,,1,2623,0.0,0.0,0.0,0.0
CMR,CM,823.0,7540.0,7540.0,ep gamba,10603.0,13.5957892,8.0933921,3,,,2012.0,,,50,0,,,50.0,0,,,50.0,0,,,1,2711,0.0,0.0,0.0,0.0
CMR,CM,823.0,7529.0,7529.0,ep garoua winde,10415.0,13.393388999999999,9.3226016,2,,,2012.0,,,50,0,,,50.0,0,,,50.0,0,,,1,19057,0.0,0.0,0.0,0.0
CMR,CM,821.0,7478.0,7478.0,ep gazawa bizili,10451.0,14.8658936,10.2310015,1,,,2012.0,,,50,1,,,50.0,0,,,50.0,0,,,1,2615,0.02,0.0,0.0,0.018867924528301886
CMR,CM,821.0,7491.0,7491.0,ep godola,10525.0,14.30114,10.70236,1,,,2012.0,,,50,3,,,50.0,0,,,50.0,0,,,1,18986,0.06,0.0,0.0,0.056603773584905655
CMR,CM,821.0,7484.0,7484.0,ep goldavi,10480.0,13.94299,11.03364,1,,,2012.0,,,50,1,,,50.0,0,,,50.0,0,,,1,18957,0.02,0.0,0.0,0.018867924528301886
CMR,CM,823.0,7532.0,7532.0,ep golombe,10433.0,13.863308,9.647377,1,,,2012.0,,,50,0,,,50.0,0,,,50.0,0,,,1,2685,0.0,0.0,0.0,0.0
CMR,CM,821.0,7496.0,7496.0,ep goudoum goudoum,10551.0,14.766667,10.616667,1,,,2012.0,,,50,0,,,50.0,0,,,50.0,0,,,1,19012,0.0,0.0,0.0,0.0
CMR,CM,821.0,7476.0,7476.0,ep goulfey gana,10436.0,14.85,12.533333,1,,,2012.0,,,50,0,,,50.0,0,,,50.0,0,,,1,2608,0.0,0.0,0.0,0.0
CMR,CM,823.0,7534.0,7534.0,ep gounougou,10488.0,13.38668,9.4249,1,,,2012.0,,,50,0,,,50.0,0,,,50.0,0,,,1,19086,0.0,0.0,0.0,0.0
CMR,CM,821.0,7482.0,7482.0,ep gouzoudou,10471.0,14.0389,11.1106,3,,,2012.0,,,50,0,,,50.0,0,,,50.0,0,,,1,2630,0.0,0.0,0.0,0.0
CMR,CM,823.0,7537.0,7537.0,ep gr 1 2 badjengo,10587.0,13.68354,9.4937,3,,,2012.0,,,50,0,,,50.0,0,,,50.0,0,,,1,2700,0.0,0.0,0.0,0.0
CMR,CM,823.0,7528.0,7528.0,ep gr 1 2 bidzar,10412.0,14.1132013,9.8953316,1,,,2012.0,,,50,0,,,50.0,0,,,50.0,0,,,1,2675,0.0,0.0,0.0,0.0
CMR,CM,823.0,7537.0,7537.0,ep gr 1 badjouma centre,10586.0,13.666667,9.4,2,,,2012.0,,,50,1,,,50.0,0,,,50.0,0,,,1,2701,0.02,0.0,0.0,0.018867924528301886
CMR,CM,818.0,7425.0,7425.0,ep gr 1 belel,10562.0,14.4344853,7.0513571,1,,,2012.0,,,50,3,,,50.0,0,,,50.0,0,,,1,18886,0.06,0.0,0.0,0.056603773584905655
CMR,CM,818.0,7422.0,7422.0,ep gr 1 djohong,10407.0,14.6966832,6.8344176999999995,2,,,2012.0,,,50,0,,,50.0,0,,,50.0,1,,,1,2588,0.0,0.0,0.02,0.018867924528301886
CMR,CM,823.0,7528.0,7528.0,ep gr 1 figuil,10411.0,13.957908,9.7589994,1,,,2012.0,,,50,0,,,50.0,0,,,50.0,0,,,1,2673,0.0,0.0,0.0,0.0
CMR,CM,821.0,7477.0,7477.0,ep gr 1 gobo,10442.0,15.4155939,10.0040518,1,,,2012.0,,,50,3,,,50.0,0,,,50.0,0,,,1,2612,0.06,0.0,0.0,0.056603773584905655
CMR,CM,823.0,7540.0,7540.0,ep gr 1 gor,10605.0,14.9972,8.6417,1,,,2012.0,,,50,0,,,50.0,0,,,50.0,0,,,1,19112,0.0,0.0,0.0,0.0
CMR,CM,823.0,7533.0,7533.0,ep gr 1 guider,10445.0,13.9434035,9.9256779,1,,,2012.0,,,50,0,,,50.0,0,,,50.0,0,,,1,2689,0.0,0.0,0.0,0.0
CMR,CM,821.0,7487.0,7487.0,ep gr 1 makary,10503.0,14.46663,12.5717,3,,,2012.0,,,50,0,,,50.0,0,,,50.0,0,,,1,18973,0.0,0.0,0.0,0.0
CMR,CM,818.0,7421.0,7421.0,ep gr 1 mayo darle,10384.0,11.5461198,6.4659785,1,,,2012.0,,,50,0,,,50.0,0,,,50.0,1,,,1,18869,0.0,0.0,0.02,0.018867924528301886
CMR,CM,823.0,7535.0,7535.0,ep gr 1 mayo oulo,10518.0,13.7347976,9.7608296,1,,,2012.0,,,50,0,,,50.0,0,,,50.0,0,,,1,2695,0.0,0.0,0.0,0.0
CMR,CM,818.0,7425.0,7425.0,ep gr 1 mbe,10563.0,13.5937621,7.8587066,3,,,2012.0,,,50,6,,,50.0,0,,,50.0,0,,,1,18883,0.12,0.0,0.0,0.11320754716981131
CMR,CM,821.0,7491.0,7491.0,ep gr 1 meri,10527.0,14.12153,10.77352,1,,,2012.0,,,50,1,,,50.0,0,,,50.0,0,,,1,18987,0.02,0.0,0.0,0.018867924528301886
CMR,CM,822.0,7518.0,7518.0,ep gr 1 nyanon,10560.0,10.95323,4.261951,1,,,2012.0,,,50,0,,,50.0,0,,,50.0,4,,,1,19046,0.0,0.0,0.08,0.07547169811320754
CMR,CM,823.0,7527.0,7527.0,ep gr 1 padarme,10389.0,14.0617,9.5304,1,,,2012.0,,,50,0,,,50.0,0,,,50.0,0,,,1,19047,0.0,0.0,0.0,0.0
CMR,CM,823.0,7538.0,7538.0,ep gr 1 poli,10589.0,13.2403779,8.473425,1,,,2012.0,,,50,1,,,50.0,0,,,50.0,0,,,1,2704,0.02,0.0,0.0,0.018867924528301886
CMR,CM,821.0,7486.0,7486.0,ep gr 1 pouss,10498.0,15.052819,10.850949,1,,,2012.0,,,50,0,,,50.0,0,,,50.0,0,,,1,2645,0.0,0.0,0.0,0.0
CMR,CM,818.0,7420.0,7420.0,ep gr 1 songkolong,10380.0,12.8054753,6.9181954,2,,,2012.0,,,50,4,,,50.0,7,,,50.0,0,,,1,2584,0.08,0.14,0.0,0.19698113207547172
CMR,CM,823.0,7536.0,7536.0,ep gr 1 touroua,10576.0,12.975219,9.0807873,1,,,2012.0,,,50,3,,,50.0,0,,,50.0,0,,,1,2697,0.06,0.0,0.0,0.056603773584905655
CMR,CM,823.0,7527.0,7527.0,ep gr 1a adoumri,10390.0,13.7723663,9.2511636,1,,,2012.0,,,50,1,,,50.0,0,,,50.0,0,,,1,2670,0.02,0.0,0.0,0.018867924528301886
CMR,CM,818.0,7420.0,7420.0,ep gr 1a bankim,10381.0,11.4878714,6.0849674,1,,,2012.0,,,50,8,,,50.0,4,,,50.0,0,,,1,2585,0.16,0.08,0.0,0.2143396226415094
CMR,CM,818.0,7423.0,7423.0,ep gr 1a meiganga,10520.0,14.2919273,6.5163966,1,,,2012.0,,,50,1,,,50.0,0,,,50.0,0,,,1,2590,0.02,0.0,0.0,0.018867924528301886
CMR,CM,818.0,7421.0,7421.0,ep gr 2 banyo,10385.0,11.8036596,6.7496639,1,,,2012.0,,,50,0,,,50.0,1,,,50.0,1,,,1,2587,0.0,0.02,0.02,0.03735849056603773
CMR,CM,821.0,7476.0,7476.0,ep gr 2 goulfey,10437.0,14.9009254,12.3855803,1,,,2012.0,,,50,0,,,50.0,0,,,50.0,0,,,1,18918,0.0,0.0,0.0,0.0
CMR,CM,821.0,7481.0,7481.0,ep gr 2 tchatibali ii,10467.0,14.9199043,10.0528978,1,,,2012.0,,,50,2,,,50.0,0,,,50.0,0,,,1,2628,0.04,0.0,0.0,0.03773584905660377
CMR,CM,823.0,7541.0,7541.0,ep gr 2 touboro,10623.0,15.3541013,7.7681541,1,,,2012.0,,,50,2,,,50.0,0,,,50.0,1,,,1,2715,0.04,0.0,0.02,0.055849056603773574
CMR,CM,821.0,7495.0,7495.0,ep gr 2 waza,10547.0,14.5684406,11.3983642,1,,,2012.0,,,50,1,,,50.0,0,,,50.0,0,,,1,19009,0.02,0.0,0.0,0.018867924528301886
CMR,CM,823.0,7529.0,7529.0,ep gr 2a djamboutou,10416.0,13.5162192,8.5831748,1,,,2012.0,,,50,2,,,50.0,0,,,50.0,0,,,1,19058,0.04,0.0,0.0,0.03773584905660377
CMR,CM,818.0,7427.0,7427.0,ep gr 3 tibati,10610.0,12.6187506,6.470326,1,,,2012.0,,,50,8,,,50.0,0,,,50.0,0,,,1,2599,0.16,0.0,0.0,0.1509433962264151
CMR,CM,821.0,7478.0,7478.0,ep gr 4 guidiguis,10452.0,14.708347,10.1346844,1,,,2012.0,,,50,2,,,50.0,0,,,50.0,0,,,1,2617,0.04,0.0,0.0,0.03773584905660377
CMR,CM,821.0,7478.0,7478.0,ep guereme,10453.0,14.52925,10.04679,1,,,2012.0,,,50,0,,,50.0,0,,,50.0,0,,,1,18929,0.0,0.0,0.0,0.0
CMR,CM,821.0,7474.0,7474.0,ep guili,10402.0,13.54974,10.34142,1,,,2012.0,,,50,2,,,50.0,0,,,50.0,0,,,1,18911,0.04,0.0,0.0,0.03773584905660377
CMR,CM,821.0,7486.0,7486.0,ep guirvidig i,10499.0,14.8367063,10.8890787,1,,,2012.0,,,50,0,,,50.0,0,,,50.0,0,,,1,2644,0.0,0.0,0.0,0.0
CMR,CM,823.0,7531.0,7531.0,ep hamakoussou,10429.0,13.45675,9.6105,3,,,2012.0,,,50,0,,,50.0,0,,,50.0,0,,,1,2684,0.0,0.0,0.0,0.0
CMR,CM,821.0,7479.0,7479.0,ep hina marbak,10457.0,13.8520603,10.362735,1,,,2012.0,,,50,0,,,50.0,0,,,50.0,0,,,1,2619,0.0,0.0,0.0,0.0
CMR,CM,821.0,7492.0,7492.0,ep hoppo,10530.0,14.35,10.383333,1,,,2012.0,,,50,2,,,50.0,0,,,50.0,0,,,1,2650,0.04,0.0,0.0,0.03773584905660377
CMR,CM,821.0,7496.0,7496.0,ep horlong i,10552.0,14.66042,10.2142,1,,,2012.0,,,50,0,,,50.0,0,,,50.0,0,,,1,19014,0.0,0.0,0.0,0.0
CMR,CM,823.0,7527.0,7527.0,ep houla,10391.0,13.70771,9.28901,3,,,2012.0,,,50,6,,,50.0,0,,,50.0,1,,,1,2672,0.12,0.0,0.02,0.12981132075471694
CMR,CM,818.0,7428.0,7428.0,ep ii mayo baleo,10615.0,12.3320708,7.6581413,1,,,2012.0,,,50,10,,,50.0,0,,,50.0,0,,,1,18900,0.2,0.0,0.0,0.18867924528301885
CMR,CM,821.0,7501.0,7501.0,ep keleo,10629.0,14.966667,10.733333,1,,,2012.0,,,50,0,,,50.0,0,,,50.0,0,,,1,19037,0.0,0.0,0.0,0.0
CMR,CM,821.0,7484.0,7484.0,ep kilda,10481.0,13.89912,10.83225,3,,,2012.0,,,50,1,,,50.0,0,,,50.0,0,,,1,2638,0.02,0.0,0.0,0.018867924528301886
CMR,CM,821.0,7493.0,7493.0,ep kinguing,10535.0,13.7337,10.52535,1,,,2012.0,,,50,2,,,50.0,0,,,50.0,0,,,1,18995,0.04,0.0,0.0,0.03773584905660377
CMR,CM,821.0,7478.0,7478.0,ep kofide,10454.0,14.766667,10.216667,1,,,2012.0,,,50,1,,,50.0,0,,,50.0,0,,,1,2616,0.02,0.0,0.0,0.018867924528301886
CMR,CM,821.0,7496.0,7496.0,ep kolara,10553.0,14.65,10.266667,1,,,2012.0,,,50,0,,,50.0,0,,,50.0,0,,,1,19010,0.0,0.0,0.0,0.0
CMR,CM,823.0,7528.0,7528.0,ep kong kong,10413.0,14.183333,10.05,1,,,2012.0,,,50,0,,,50.0,0,,,50.0,0,,,1,19053,0.0,0.0,0.0,0.0
CMR,CM,821.0,7495.0,7495.0,ep kourgui ii,10548.0,14.1102971,11.0852062,1,,,2012.0,,,50,0,,,50.0,0,,,50.0,0,,,1,19005,0.0,0.0,0.0,0.0
CMR,CM,821.0,7482.0,7482.0,ep kouyape,10473.0,13.96664,11.02101,3,,,2012.0,,,50,0,,,50.0,0,,,50.0,0,,,1,2631,0.0,0.0,0.0,0.0
CMR,CM,821.0,7484.0,7484.0,ep koza i,10482.0,13.8825012,10.8683349,1,,,2012.0,,,50,1,,,50.0,0,,,50.0,0,,,1,2637,0.02,0.0,0.0,0.018867924528301886
CMR,CM,823.0,7528.0,7528.0,ep lam,10414.0,14.13471,10.07163,1,,,2012.0,,,50,0,,,50.0,0,,,50.0,0,,,1,19054,0.0,0.0,0.0,0.0
CMR,CM,821.0,7480.0,7480.0,ep lara,10463.0,14.51007,10.17815,3,,,2012.0,,,50,0,,,50.0,0,,,50.0,0,,,1,2622,0.0,0.0,0.0,0.0
CMR,CM,823.0,7533.0,7533.0,ep libe,10446.0,13.79655,10.01164,3,,,2012.0,,,50,0,,,50.0,0,,,50.0,0,,,1,2692,0.0,0.0,0.0,0.0
CMR,CM,821.0,7482.0,7482.0,ep limani,10474.0,14.1436996,11.2424019,1,,,2012.0,,,50,2,,,50.0,0,,,50.0,0,,,1,18949,0.04,0.0,0.0,0.03773584905660377
CMR,CM,818.0,7423.0,7423.0,ep lokoti,10522.0,14.323918,6.3781338,1,,,2012.0,,,50,8,,,50.0,0,,,50.0,1,,,1,2593,0.16,0.0,0.02,0.16679245283018865
CMR,CM,821.0,7492.0,7492.0,ep loubour,10531.0,14.35093,10.44012,3,,,2012.0,,,50,0,,,50.0,0,,,50.0,0,,,1,2651,0.0,0.0,0.0,0.0
CMR,CM,823.0,7533.0,7533.0,ep lougguere,10447.0,13.81667,9.93333,3,,,2012.0,,,50,0,,,50.0,0,,,50.0,0,,,1,2690,0.0,0.0,0.0,0.0
CMR,CM,821.0,7473.0,7473.0,ep madaka,10397.0,14.5406498,10.73889,3,,,2012.0,,,50,0,,,50.0,0,,,50.0,0,,,1,2605,0.0,0.0,0.0,0.0
CMR,CM,821.0,7484.0,7484.0,ep madakar,10483.0,13.86725,10.98943,3,,,2012.0,,,50,2,,,50.0,0,,,50.0,0,,,1,2636,0.04,0.0,0.0,0.03773584905660377
CMR,CM,821.0,7498.0,7498.0,ep malam petel,10581.0,14.44707,10.81445,3,,,2012.0,,,50,1,,,50.0,0,,,50.0,0,,,1,19023,0.02,0.0,0.0,0.018867924528301886
CMR,CM,823.0,7535.0,7535.0,ep mandama,10519.0,13.707,10.1349999,3,,,2012.0,,,50,0,,,50.0,0,,,50.0,0,,,1,2696,0.0,0.0,0.0,0.0
CMR,CM,823.0,7527.0,7527.0,ep mandjola,10392.0,13.89605,9.4175199,3,,,2012.0,,,50,0,,,50.0,0,,,50.0,3,,,1,2671,0.0,0.0,0.06,0.056603773584905655
CMR,CM,821.0,7496.0,7496.0,ep manga,10554.0,14.84514,10.63813,1,,,2012.0,,,50,1,,,50.0,0,,,50.0,0,,,1,19013,0.02,0.0,0.0,0.018867924528301886
CMR,CM,821.0,7476.0,7476.0,ep mara,10438.0,14.783333,12.533333,1,,,2012.0,,,50,0,,,50.0,0,,,50.0,0,,,1,2610,0.0,0.0,0.0,0.0
CMR,CM,823.0,7533.0,7533.0,ep matafal,10448.0,14.0290022,10.0952314,1,,,2012.0,,,50,0,,,50.0,0,,,50.0,0,,,1,2691,0.0,0.0,0.0,0.0
CMR,CM,818.0,7427.0,7427.0,ep mbakaou,10612.0,12.81151,6.307685,1,,,2012.0,,,50,8,,,50.0,0,,,50.0,0,,,1,18899,0.16,0.0,0.0,0.1509433962264151
CMR,CM,823.0,7541.0,7541.0,ep mbalainde,10624.0,15.4489201,7.7930199,3,,,2012.0,,,50,1,,,50.0,0,,,50.0,2,,,1,2713,0.02,0.0,0.04,0.055849056603773574
CMR,CM,818.0,7423.0,7423.0,ep mboula,10523.0,13.98382,6.677018,1,,,2012.0,,,50,4,,,50.0,0,,,50.0,1,,,1,2591,0.08,0.0,0.02,0.09283018867924528
CMR,CM,818.0,7423.0,7423.0,ep meidougou i ii,10524.0,14.222154,6.4250318,1,,,2012.0,,,50,7,,,50.0,0,,,50.0,1,,,1,2592,0.14,0.0,0.02,0.14830188679245282
CMR,CM,821.0,7492.0,7492.0,ep mindif 3,10532.0,14.4315746,10.4066634,2,,,2012.0,,,50,0,,,50.0,0,,,50.0,0,,,1,2652,0.0,0.0,0.0,0.0
CMR,CM,821.0,7480.0,7480.0,ep mindjil,10464.0,14.27096,10.04925,3,,,2012.0,,,50,0,,,50.0,0,,,50.0,0,,,1,2625,0.0,0.0,0.0,0.0
CMR,CM,821.0,7493.0,7493.0,ep modele,10536.0,13.6579,10.41403,1,,,2012.0,,,50,0,,,50.0,0,,,50.0,0,,,1,18997,0.0,0.0,0.0,0.0
CMR,CM,821.0,7494.0,7494.0,ep mokola,10542.0,13.8042382,10.742458899999999,1,,,2012.0,,,50,0,,,50.0,0,,,50.0,0,,,1,19001,0.0,0.0,0.0,0.0
CMR,CM,821.0,7484.0,7484.0,ep moskota,10484.0,13.87093,10.96924,3,,,2012.0,,,50,1,,,50.0,0,,,50.0,0,,,1,2639,0.02,0.0,0.0,0.018867924528301886
CMR,CM,821.0,7497.0,7497.0,ep mouda,10557.0,14.2295,10.37023,1,,,2012.0,,,50,1,,,50.0,0,,,50.0,0,,,1,19016,0.02,0.0,0.0,0.018867924528301886
CMR,CM,823.0,7533.0,7533.0,ep mousgoy,10449.0,13.8919248,10.1646434,1,,,2012.0,,,50,0,,,50.0,0,,,50.0,0,,,1,2688,0.0,0.0,0.0,0.0
CMR,CM,823.0,7530.0,7530.0,ep nassarao,10422.0,13.183333,9.333333,1,,,2012.0,,,50,0,,,50.0,0,,,50.0,0,,,1,2678,0.0,0.0,0.0,0.0
CMR,CM,823.0,7527.0,7527.0,ep ndiam badi,10393.0,13.85,9.133333,1,,,2012.0,,,50,0,,,50.0,0,,,50.0,0,,,1,2669,0.0,0.0,0.0,0.0
CMR,CM,821.0,7495.0,7495.0,ep ndiguina,10549.0,14.6769,11.48202,1,,,2012.0,,,50,1,,,50.0,0,,,50.0,0,,,1,19006,0.02,0.0,0.0,0.018867924528301886
CMR,CM,818.0,7422.0,7422.0,ep ngam,10408.0,14.56667,6.7333300000000005,3,,,2012.0,,,50,6,,,50.0,0,,,50.0,1,,,1,2589,0.12,0.0,0.02,0.12981132075471694
CMR,CM,821.0,7489.0,7489.0,ep ngassa,10513.0,14.54642,10.5702,1,,,2012.0,,,50,0,,,50.0,0,,,50.0,0,,,1,18983,0.0,0.0,0.0,0.0
CMR,CM,821.0,7487.0,7487.0,ep ngouma,10504.0,14.30825,12.62634,3,,,2012.0,,,50,0,,,50.0,0,,,50.0,0,,,1,18974,0.0,0.0,0.0,0.0
CMR,CM,821.0,7497.0,7497.0,ep noubou,10558.0,14.116667,10.316667,1,,,2012.0,,,50,0,,,50.0,0,,,50.0,0,,,1,19017,0.0,0.0,0.0,0.0
CMR,CM,818.0,7420.0,7420.0,ep nyamboya,10383.0,11.5773888,6.2849425,1,,,2012.0,,,50,10,,,50.0,2,,,50.0,3,,,1,2586,0.2,0.04,0.06,0.26233962264150945
CMR,CM,821.0,7492.0,7492.0,ep ouro bounne,10534.0,14.44224,10.5418,1,,,2012.0,,,50,1,,,50.0,0,,,50.0,0,,,1,18994,0.02,0.0,0.0,0.018867924528301886
CMR,CM,823.0,7534.0,7534.0,ep ouro doukoudje,10489.0,13.72432,9.09765,1,,,2012.0,,,50,0,,,50.0,0,,,50.0,0,,,1,19085,0.0,0.0,0.0,0.0
CMR,CM,821.0,7498.0,7498.0,ep pette,10582.0,14.50083,10.96778,3,,,2012.0,,,50,1,,,50.0,0,,,50.0,0,,,1,19020,0.02,0.0,0.0,0.018867924528301886
CMR,CM,823.0,7530.0,7530.0,ep poumpoumre petit paris,10423.0,13.4050306,9.338702,3,,,2012.0,,,50,0,,,50.0,0,,,50.0,0,,,1,2676,0.0,0.0,0.0,0.0
CMR,CM,823.0,7539.0,7539.0,ep rey bouba,10597.0,14.1786,8.6724,3,,,2012.0,,,50,2,,,50.0,0,,,50.0,0,,,1,19108,0.04,0.0,0.0,0.03773584905660377
CMR,CM,823.0,7541.0,7541.0,ep ribao,10625.0,13.916667,9.716667,1,,,2012.0,,,50,2,,,50.0,0,,,50.0,0,,,1,2714,0.04,0.0,0.0,0.03773584905660377
CMR,CM,821.0,7499.0,7499.0,ep roua,10601.0,13.991530000000001,10.77895,1,,,2012.0,,,50,0,,,50.0,0,,,50.0,0,,,1,19028,0.0,0.0,0.0,0.0
CMR,CM,823.0,7530.0,7530.0,ep roumde adjia i,10424.0,13.4107226,9.3490484,1,,,2012.0,,,50,0,,,50.0,1,,,50.0,0,,,1,2679,0.0,0.02,0.0,0.018867924528301886
CMR,CM,823.0,7529.0,7529.0,ep sabon gari,10418.0,13.5957596,7.3425339,1,,,2012.0,,,50,0,,,50.0,0,,,50.0,0,,,1,19059,0.0,0.0,0.0,0.0
CMR,CM,818.0,7421.0,7421.0,ep sambolabo,10388.0,11.98387,7.083073,1,,,2012.0,,,50,1,,,50.0,0,,,50.0,0,,,1,18871,0.02,0.0,0.0,0.018867924528301886
CMR,CM,821.0,7493.0,7493.0,ep sir,10538.0,13.67627,10.55841,1,,,2012.0,,,50,3,,,50.0,0,,,50.0,0,,,1,18999,0.06,0.0,0.0,0.056603773584905655
CMR,CM,821.0,7493.0,7493.0,ep sirakouti,10539.0,13.67024,10.53867,1,,,2012.0,,,50,4,,,50.0,0,,,50.0,0,,,1,18998,0.08,0.0,0.0,0.07547169811320754
CMR,CM,823.0,7541.0,7541.0,ep sora mboum,10626.0,15.0034,7.7925,3,,,2012.0,,,50,1,,,50.0,0,,,50.0,1,,,1,2716,0.02,0.0,0.02,0.03735849056603773
CMR,CM,823.0,7532.0,7532.0,ep sorawel,10434.0,13.86242,9.78435,1,,,2012.0,,,50,0,,,50.0,0,,,50.0,0,,,1,19076,0.0,0.0,0.0,0.0
CMR,CM,821.0,7481.0,7481.0,ep takreo,10468.0,14.8956599,10.1378799,3,,,2012.0,,,50,9,,,50.0,0,,,50.0,0,,,1,2629,0.18,0.0,0.0,0.16981132075471694
CMR,CM,818.0,7428.0,7428.0,ep tapare gadjiwan,10616.0,12.3936459,7.6497129,1,,,2012.0,,,50,8,,,50.0,0,,,50.0,0,,,1,18904,0.16,0.0,0.0,0.1509433962264151
CMR,CM,823.0,7536.0,7536.0,ep tcheboa,10577.0,13.1884542,9.029821,1,,,2012.0,,,50,0,,,50.0,0,,,50.0,0,,,1,2698,0.0,0.0,0.0,0.0
CMR,CM,823.0,7538.0,7538.0,ep tete,10590.0,13.0599,8.6133,3,,,2012.0,,,50,4,,,50.0,0,,,50.0,0,,,1,2706,0.08,0.0,0.0,0.07547169811320754
CMR,CM,821.0,7497.0,7497.0,ep titing,10559.0,14.06045,10.17018,3,,,2012.0,,,50,4,,,50.0,0,,,50.0,0,,,1,19018,0.08,0.0,0.0,0.07547169811320754
CMR,CM,821.0,7500.0,7500.0,ep tokombere i,10622.0,14.1451521,10.8685891,1,,,2012.0,,,50,6,,,50.0,0,,,50.0,0,,,1,19034,0.12,0.0,0.0,0.11320754716981131
CMR,CM,823.0,7538.0,7538.0,ep voko (gormaya),10591.0,12.96269,8.401352,1,,,2012.0,,,50,0,,,50.0,0,,,50.0,0,,,1,2707,0.0,0.0,0.0,0.0
CMR,CM,823.0,7538.0,7538.0,ep wangai,10592.0,12.68483,8.595632,2,,,2012.0,,,50,5,,,50.0,0,,,50.0,0,,,1,2705,0.1,0.0,0.0,0.09433962264150943
CMR,CM,821.0,7477.0,7477.0,ep warkalak,10444.0,15.2412998,9.9992301,3,,,2012.0,,,50,9,,,50.0,0,,,50.0,0,,,1,2611,0.18,0.0,0.0,0.16981132075471694
CMR,CM,818.0,7428.0,7428.0,ep woulde,10617.0,12.4651939,7.4456788,3,,,2012.0,,,50,12,,,50.0,0,,,50.0,0,,,1,18903,0.24,0.0,0.0,0.22641509433962262
CMR,CM,821.0,7479.0,7479.0,ep zidim,10459.0,13.9613889,10.4672222,1,,,2012.0,,,50,0,,,50.0,0,,,50.0,0,,,1,2620,0.0,0.0,0.0,0.0
CMR,CM,821.0,7483.0,7483.0,ep zimado,10478.0,15.0481823,11.6738014,1,,,2012.0,,,50,1,,,50.0,0,,,50.0,0,,,1,2633,0.02,0.0,0.0,0.018867924528301886
CMR,CM,821.0,7483.0,7483.0,ep zina,10479.0,14.96529,11.26235,3,,,2012.0,,,50,0,,,50.0,0,,,50.0,0,,,1,2634,0.0,0.0,0.0,0.0
CMR,CM,821.0,7481.0,7481.0,ep zouaye,10469.0,15.0271898,10.00539,3,,,2012.0,,,50,0,,,50.0,0,,,50.0,0,,,1,2627,0.0,0.0,0.0,0.0
CMR,CM,823.0,7540.0,7540.0,epa gr 2 tchollire,10607.0,14.1727518,8.3976116,1,,,2012.0,,,50,0,,,50.0,0,,,50.0,0,,,1,2712,0.0,0.0,0.0,0.0
CMR,CM,821.0,7494.0,7494.0,epa ii mokolo,10543.0,13.8042382,10.742458899999999,1,,,2012.0,,,50,0,,,50.0,0,,,50.0,0,,,1,19003,0.0,0.0,0.0,0.0
CMR,CM,818.0,7425.0,7425.0,epc charles lwanga berem,10565.0,13.91667,7.55,3,,,2012.0,,,50,3,,,50.0,0,,,50.0,0,,,1,18887,0.06,0.0,0.0,0.056603773584905655
CMR,CM,821.0,7499.0,7499.0,epc gagala,10602.0,13.98871,10.69131,3,,,2012.0,,,50,1,,,50.0,0,,,50.0,0,,,1,2667,0.02,0.0,0.0,0.018867924528301886
CMR,CM,827.0,7602.0,7602.0,foe bakundu,50439.0,9.2,4.483333,1,,,1998.0,,,36,10,,,36.0,24,,,36.0,5,,,3,2579,0.2777777777777778,0.6666666666666666,0.1388888888888889,0.747825918161348
CMR,CM,827.0,7591.0,7591.0,gs akwaya town,10378.0,9.510588,6.381088,1,,,2012.0,,,50,23,,,50.0,2,,,50.0,2,,,1,2717,0.46,0.04,0.04,0.47390188679245276
CMR,CM,827.0,7608.0,7608.0,gs bechati,10633.0,9.90798,5.66517,3,,,2012.0,,,50,30,,,50.0,20,,,50.0,36,,,1,2718,0.6,0.4,0.72,0.8800000000000001
CMR,CM,827.0,7599.0,7599.0,kake ii,,9.4089433,4.6108545,1,,,2010.0,5.0,15.0,208,8,,,208.0,50,,,208.0,47,,,1,31295,0.038461538461538464,0.2403846153846154,0.22596153846153846,0.4100403450030487
CMR,CM,822.0,7505.0,7505.0,kotto,50279.0,9.6330004,4.184,3,,,1998.0,,,66,9,,,66.0,40,,,66.0,34,,,3,2566,0.13636363636363635,0.6060606060606061,0.5151515151515151,0.7877779825386247
CMR,CM,827.0,7602.0,7602.0,kuke mbomo,50440.0,9.2333326,4.458333,3,,,1998.0,,,27,5,,,27.0,19,,,27.0,4,,,3,2580,0.18518518518518517,0.7037037037037037,0.14814814814814814,0.7493776355230402
CMR,CM,827.0,7599.0,7599.0,kumba station,50389.0,9.4450439,4.6333268,1,,,1998.0,,,34,6,,,34.0,19,,,34.0,15,,,3,2571,0.17647058823529413,0.5588235294117647,0.4411764705882353,0.7518558771683903
CMR,CM,827.0,7604.0,7604.0,mbalangi,50485.0,9.4613886,4.5036111,3,,,1998.0,,,50,25,,,50.0,11,,,50.0,22,,,3,2582,0.5,0.22,0.44,0.7373584905660379
CMR,CM,827.0,7599.0,7599.0,"saker cameroon baptist convention school, kumba",50391.0,9.4450439,4.6333268,1,,,1998.0,,,87,20,,,87.0,60,,,87.0,19,,,3,2569,0.22988505747126436,0.6896551724137931,0.21839080459770116,0.7671645970925649
CMR,CM,827.0,7599.0,7599.0,st. anthony catholic school kumba,50392.0,9.4429998,4.638,3,,,1998.0,,,41,5,,,41.0,25,,,41.0,10,,,3,2575,0.12195121951219512,0.6097560975609756,0.24390243902439024,0.6989818531635755
CMR,CM,827.0,7599.0,7599.0,st. john practising school kumba,50393.0,9.4450439,4.6333268,1,,,1998.0,,,39,3,,,39.0,13,,,39.0,8,,,3,2570,0.07692307692307693,0.3333333333333333,0.20512820512820512,0.48193219455919023
CMR,CM,821.0,7476.0,7476.0,village mougda,10439.0,14.82759,12.49427,3,,,2012.0,,,50,2,,,50.0,0,,,50.0,0,,,1,2609,0.04,0.0,0.0,0.03773584905660377
CMR,CM,819.0,7452.0,7452.0,yaounde,50565.0,11.5020752,3.8480325,1,,,0.0,,,312,121,,,312.0,183,,,312.0,281,,,3,2563,0.38782051282051283,0.5865384615384616,0.9006410256410257,0.9196707400517092
