iso3,iso2,admin1_id,admin2_id,iu_id,location,site_id,longitude,latitude,georeliability,location_type,survey_type,year,age_start,age_end,hk_examined,hk_positive,hk_perc_highinfection,hk_perc_moderateinfection,asc_examined,asc_positive,asc_perc_highinfection,asc_perc_moderateinfection,tt_examined,tt_positive,tt_perc_highinfection,tt_perc_moderateinfection,quality,sn,hk_prevalence,asc_prevalence,tt_prevalence,sth_prevalence
ETH,ET,1949.0,3143.0,18889.0,abadir,52341.0,42.39694,9.3010169,1,,,2009.0,,,91.0,9,,,91.0,4,,,91.0,0,,,1,5166,0.0989010989010989,0.04395604395604396,0.0,0.13066966208164632
ETH,ET,1948.0,3135.0,18845.0,abdi boru,52290.0,38.267101,5.39575,3,,,2009.0,,,107.0,17,,,107.0,9,,,107.0,7,,,1,5147,0.1588785046728972,0.08411214953271028,0.06542056074766354,0.26417478545497025
ETH,ET,1948.0,3144.0,18747.0,abine germama,52147.0,38.681099,7.99264,3,,,2009.0,,,107.0,1,,,107.0,1,,,107.0,4,,,1,5103,0.009345794392523364,0.009345794392523364,0.037383177570093455,0.05216220442566213
ETH,ET,1943.0,3171.0,18602.0,achera,,38.415001,11.719,3,,,1995.0,5.0,16.0,63.0,11,,,63.0,37,,,63.0,12,,,3,30116,0.1746031746031746,0.5873015873015873,0.19047619047619047,0.6832489076959192
ETH,ET,1948.0,3155.0,18756.0,adare,52166.0,35.750702,8.5789204,3,,,2009.0,,,78.0,33,,,78.0,31,,,78.0,5,,,1,5107,0.4230769230769231,0.3974358974358974,0.0641025641025641,0.6364632446188769
ETH,ET,1943.0,3171.0,18602.0,adarkay,,38.063,13.451,3,,,1995.0,5.0,19.0,114.0,23,,,114.0,49,,,114.0,2,,,3,30114,0.20175438596491227,0.4298245614035088,0.017543859649122806,0.5215517641004604
ETH,ET,1943.0,3171.0,18602.0,addis zemen junior,,37.782002,12.116,3,,,1995.0,7.0,19.0,115.0,19,,,115.0,57,,,115.0,0,,,3,31533,0.16521739130434782,0.4956521739130435,0.0,0.5462067981595747
ETH,ET,1948.0,3155.0,18787.0,adis alem,52198.0,38.4060986,9.0465617,1,,,2009.0,,,101.0,55,,,101.0,36,,,101.0,4,,,1,5121,0.5445544554455446,0.3564356435643564,0.039603960396039604,0.6778299428269293
ETH,ET,1948.0,3132.0,18869.0,aebisa,52317.0,40.648998,7.16571,3,,,2009.0,,,98.0,1,,,98.0,0,,,98.0,0,,,1,5160,0.01020408163265306,0.0,0.0,0.00962649210627647
ETH,ET,1948.0,3689.0,19002.0,albula geta,52493.0,38.313598999999996,7.3650999,3,,,2009.0,,,105.0,10,,,105.0,12,,,105.0,5,,,1,5228,0.09523809523809523,0.11428571428571428,0.047619047619047616,0.22339573745041588
ETH,ET,1948.0,3164.0,18867.0,alchaya jilo,52316.0,34.6469,8.9694595,3,,,2009.0,,,99.0,5,,,99.0,38,,,99.0,7,,,1,5156,0.050505050505050504,0.3838383838383838,0.0707070707070707,0.43049461100757364
ETH,ET,1943.0,3171.0,18602.0,amed ber,,38.398998,11.384,3,,,1995.0,7.0,19.0,95.0,31,,,95.0,14,,,95.0,17,,,3,31529,0.3263157894736842,0.14736842105263157,0.17894736842105263,0.4984752164213387
ETH,ET,1943.0,3171.0,18602.0,amora gedel,,37.797001,11.984,3,,,1995.0,7.0,19.0,85.0,21,,,85.0,47,,,85.0,17,,,3,31541,0.24705882352941178,0.5529411764705883,0.2,0.6893517007246849
ETH,ET,1943.0,3178.0,18596.0,amora gedel,52304.0,39.4801007,12.1509721,1,,,1995.0,,,85.0,21,,,85.0,47,,,85.0,17,,,3,5013,0.24705882352941178,0.5529411764705883,0.2,0.6893517007246849
ETH,ET,1948.0,3155.0,18815.0,anayifa,52233.0,35.396301,8.6219397,3,,,2009.0,,,103.0,67,,,103.0,22,,,103.0,4,,,1,5130,0.6504854368932039,0.21359223300970873,0.038834951456310676,0.6941634388785778
ETH,ET,1943.0,3171.0,18602.0,anbesame,,37.633333,11.716667,3,,,1995.0,7.0,19.0,97.0,23,,,97.0,21,,,97.0,7,,,3,31526,0.23711340206185566,0.21649484536082475,0.07216494845360824,0.42019740935546374
ETH,ET,1948.0,3146.0,18866.0,andode dicho,52315.0,38.7388027,8.8292016,1,,,2009.0,,,110.0,22,,,110.0,6,,,110.0,0,,,1,5155,0.2,0.05454545454545454,0.0,0.22984562607204115
ETH,ET,1950.0,3148.0,19118.0,arba minch,52138.0,37.5641095,6.0206054,1,,,2015.0,,,345.0,3,,,345.0,31,,,345.0,4,,,1,5263,0.008695652173913044,0.08985507246376812,0.011594202898550725,0.10210379348614383
ETH,ET,1943.0,3171.0,18602.0,atkena,,38.166,11.934,3,,,1995.0,7.0,19.0,61.0,5,,,61.0,12,,,61.0,5,,,3,31534,0.08196721311475409,0.19672131147540983,0.08196721311475409,0.3047258630990059
ETH,ET,1943.0,3171.0,18602.0,awramba and neighboring communities,,37.58333,11.95,3,,,2010.0,,,392.0,44,,,392.0,37,,,392.0,11,,,1,29538,0.11224489795918367,0.09438775510204081,0.02806122448979592,0.20622477756829272
ETH,ET,1943.0,3171.0,18602.0,azezo,,37.4333,12.55,4,,,1995.0,8.0,18.0,117.0,1,,,117.0,51,,,117.0,0,,,3,30132,0.008547008547008548,0.4358974358974359,0.0,0.4157724767303867
ETH,ET,1943.0,3171.0,18602.0,azezo,52324.0,37.4307827,12.5586158,1,,,1995.0,,,117.0,1,,,117.0,51,,,117.0,0,,,3,5016,0.008547008547008548,0.4358974358974359,0.0,0.4157724767303867
ETH,ET,1948.0,3189.0,18839.0,babile elementary and junior secondary school,52284.0,42.3298717,9.2219852,1,,,2001.0,,,415.0,28,,,415.0,16,,,415.0,15,,,2,5145,0.06746987951807229,0.03855421686746988,0.03614457831325301,0.12814080292664726
ETH,ET,1948.0,3144.0,18746.0,bati germama,52141.0,42.0441594,9.4201705,1,,,2009.0,,,102.0,0,,,102.0,0,,,102.0,0,,,1,5101,0.0,0.0,0.0,0.0
ETH,ET,1948.0,3143.0,18783.0,bereket,52193.0,41.634602,9.1368198,3,,,2009.0,,,97.0,35,,,97.0,6,,,97.0,2,,,1,5116,0.36082474226804123,0.061855670103092786,0.020618556701030927,0.3893632448365591
ETH,ET,1948.0,3130.0,19040.0,beshra chefa,52543.0,38.884399,7.92311,3,,,2009.0,,,109.0,0,,,109.0,0,,,109.0,9,,,1,5257,0.0,0.0,0.08256880733944955,0.07789510126363164
ETH,ET,1948.0,3143.0,18955.0,biftu oromia,52457.0,41.2514,9.1805601,3,,,2009.0,,,83.0,16,,,83.0,12,,,83.0,1,,,1,5207,0.1927710843373494,0.14457831325301204,0.012048192771084338,0.2998098216478619
ETH,ET,1948.0,3159.0,18953.0,bilida,52443.0,36.802891,7.760364,1,,,2009.0,,,91.0,7,,,91.0,23,,,91.0,9,,,1,5202,0.07692307692307693,0.25274725274725274,0.0989010989010989,0.35702586700210265
ETH,ET,1948.0,3159.0,18953.0,buture,52444.0,36.7281,7.7456498,3,,,2009.0,,,85.0,20,,,85.0,17,,,85.0,13,,,1,5201,0.23529411764705882,0.2,0.15294117647058825,0.4545276490174316
ETH,ET,1948.0,3135.0,19017.0,chabi,52508.0,37.356899,5.10919,3,,,2009.0,,,110.0,3,,,110.0,5,,,110.0,0,,,1,5236,0.02727272727272727,0.045454545454545456,0.0,0.0674411351941369
ETH,ET,1948.0,3135.0,19017.0,chabi / falotore,52507.0,37.356899,5.10919,3,,,2009.0,,,110.0,3,,,110.0,5,,,110.0,0,,,1,5237,0.02727272727272727,0.045454545454545456,0.0,0.0674411351941369
ETH,ET,1948.0,3143.0,18888.0,chafe jeneta,52340.0,41.826,8.9029503,3,,,2009.0,,,96.0,35,,,96.0,1,,,96.0,0,,,1,5165,0.3645833333333333,0.010416666666666666,0.0,0.3501908084381551
ETH,ET,1948.0,3164.0,18811.0,chamo,52226.0,34.6666839,8.6467107,1,,,2009.0,,,109.0,13,,,109.0,47,,,109.0,11,,,1,5127,0.11926605504587157,0.43119266055045874,0.10091743119266056,0.5184796837870768
ETH,ET,1950.0,3148.0,19148.0,chefe,52207.0,38.2058155,6.1620447,1,,,2012.0,,,100.0,1,,,100.0,53,,,100.0,5,,,1,5271,0.01,0.53,0.05,0.5263820754716981
ETH,ET,1948.0,3194.0,18853.0,choli mikael,52307.0,35.8027,9.1884298,3,,,2009.0,,,103.0,45,,,103.0,19,,,103.0,3,,,1,5151,0.4368932038834951,0.18446601941747573,0.02912621359223301,0.5227763995878685
ETH,ET,1948.0,3155.0,18781.0,chora,52192.0,36.530102,8.4810305,3,,,2009.0,,,94.0,52,,,94.0,24,,,94.0,12,,,1,5115,0.5531914893617021,0.2553191489361702,0.1276595744680851,0.6695720710447152
ETH,ET,1943.0,3171.0,18602.0,chuahit,,37.264999,12.319,3,,,1995.0,5.0,16.0,119.0,39,,,119.0,58,,,119.0,0,,,3,30126,0.3277310924369748,0.48739495798319327,0.0,0.6182939324453421
ETH,ET,1948.0,3132.0,18985.0,dadecha farda,52479.0,41.155899,6.7541699,3,,,2009.0,,,65.0,0,,,65.0,1,,,65.0,0,,,1,5223,0.0,0.015384615384615385,0.0,0.014513788098693758
ETH,ET,1948.0,3151.0,19027.0,dande,52522.0,39.108398,5.9359298,3,,,2009.0,,,104.0,46,,,104.0,6,,,104.0,3,,,1,5245,0.4423076923076923,0.057692307692307696,0.028846153846153848,0.46192586266864755
ETH,ET,1948.0,3151.0,19027.0,danide,52523.0,39.108398,5.9359298,3,,,2009.0,,,106.0,48,,,106.0,5,,,106.0,3,,,1,5248,0.4528301886792453,0.04716981132075472,0.02830188679245283,0.46546750445251683
ETH,ET,1948.0,3194.0,18949.0,darge tobera,52439.0,35.084,9.6416101,3,,,2009.0,,,108.0,48,,,108.0,3,,,108.0,3,,,1,5198,0.4444444444444444,0.027777777777777776,0.027777777777777776,0.4479999741180733
ETH,ET,1943.0,3171.0,18602.0,deb bahir,,37.882,13.235,3,,,1995.0,5.0,19.0,120.0,37,,,120.0,62,,,120.0,27,,,3,30113,0.30833333333333335,0.5166666666666667,0.225,0.6989747117400419
ETH,ET,1943.0,3171.0,18602.0,deguma,,37.712799,12.4622,3,,,1995.0,8.0,18.0,70.0,12,,,70.0,26,,,70.0,11,,,3,30135,0.17142857142857143,0.37142857142857144,0.15714285714285714,0.5292700368557125
ETH,ET,1948.0,3189.0,18966.0,demba girara kebele,52467.0,40.489674,9.1450005,3,,,2014.0,,,384.0,53,,,384.0,37,,,384.0,18,,,1,5212,0.13802083333333334,0.09635416666666667,0.046875,0.24300771189435724
ETH,ET,1948.0,3132.0,18985.0,dhedecha ferde,52480.0,41.155899,6.7541699,3,,,2009.0,,,64.0,0,,,64.0,1,,,64.0,0,,,1,5222,0.0,0.015625,0.0,0.014740566037735848
ETH,ET,1948.0,3135.0,19035.0,dida yabello,52540.0,38.1001629,4.8949753,2,,,2009.0,,,106.0,3,,,106.0,1,,,106.0,0,,,1,5255,0.02830188679245283,0.009433962264150943,0.0,0.03534797181565991
ETH,ET,1948.0,3135.0,19035.0,dida yabelo,52541.0,38.25,5.0700002,3,,,2009.0,,,106.0,3,,,106.0,1,,,106.0,0,,,1,5254,0.02830188679245283,0.009433962264150943,0.0,0.03534797181565991
ETH,ET,1948.0,3143.0,18876.0,dima jeneta,52323.0,41.5294,8.82621,3,,,2009.0,,,88.0,53,,,88.0,0,,,88.0,0,,,1,5163,0.6022727272727273,0.0,0.0,0.5681818181818181
ETH,ET,1945.0,3141.0,18707.0,dire dawa,,41.869999,9.591,3,,,1986.0,5.0,19.0,99.0,0,,,99.0,12,,,99.0,11,,,3,29291,0.0,0.12121212121212122,0.1111111111111111,0.20646718759926305
ETH,ET,1948.0,3189.0,18839.0,dire negeha,52285.0,37.1,4.983333,1,,,2009.0,,,104.0,2,,,104.0,1,,,104.0,0,,,1,5144,0.019230769230769232,0.009615384615384616,0.0,0.02703890811655688
ETH,ET,1948.0,3164.0,18812.0,dogano adami,52228.0,35.0732,8.8923197,3,,,2009.0,,,102.0,10,,,102.0,17,,,102.0,3,,,1,5128,0.09803921568627451,0.16666666666666666,0.029411764705882353,0.2551631085286501
ETH,ET,1948.0,3144.0,18939.0,dololo jila,52416.0,38.902699,8.5766201,3,,,2009.0,,,106.0,0,,,106.0,3,,,106.0,0,,,1,5189,0.0,0.02830188679245283,0.0,0.026699893200427195
ETH,ET,1948.0,3132.0,18869.0,ebisa,52318.0,40.648998,7.16571,3,,,2009.0,,,98.0,1,,,98.0,0,,,98.0,0,,,1,5159,0.01020408163265306,0.0,0.0,0.00962649210627647
ETH,ET,1948.0,16644.0,18739.0,fincha vally,52139.0,37.3666964,9.5682312,1,,,2009.0,,,108.0,0,,,108.0,1,,,108.0,0,,,1,5097,0.0,0.009259259259259259,0.0,0.008735150244584206
ETH,ET,1948.0,16644.0,18920.0,finchaa sugar project   camp 10,52384.0,37.4255083,9.7863101,1,,,1995.0,,,104.0,22,,,104.0,15,,,104.0,6,,,3,5176,0.21153846153846154,0.14423076923076922,0.057692307692307696,0.3435719323520065
ETH,ET,1948.0,16644.0,18920.0,finchaa sugar project   camp 11,52385.0,37.4255083,9.7863101,1,,,1995.0,,,204.0,35,,,204.0,53,,,204.0,8,,,3,5178,0.1715686274509804,0.25980392156862747,0.0392156862745098,0.38759006645754934
ETH,ET,1948.0,16644.0,18920.0,finchaa sugar project   camp 12,52386.0,37.4255083,9.7863101,1,,,1995.0,,,145.0,26,,,145.0,44,,,145.0,20,,,3,5175,0.1793103448275862,0.30344827586206896,0.13793103448275862,0.4784866669709589
ETH,ET,1948.0,16644.0,18920.0,finchaa sugar project   camp 6,52387.0,37.4255083,9.7863101,1,,,1995.0,,,44.0,1,,,44.0,15,,,44.0,1,,,3,5177,0.022727272727272728,0.3409090909090909,0.022727272727272728,0.34955408403385163
ETH,ET,1948.0,16644.0,18920.0,finchaa sugar project   camp 7,52388.0,37.4255083,9.7863101,1,,,1995.0,,,432.0,143,,,432.0,117,,,432.0,9,,,3,5180,0.33101851851851855,0.2708333333333333,0.020833333333333332,0.49279573791394893
ETH,ET,1948.0,16644.0,18920.0,finchaa sugar project   camp 8,52389.0,37.4255083,9.7863101,1,,,1995.0,,,187.0,24,,,187.0,43,,,187.0,6,,,3,5179,0.12834224598930483,0.22994652406417113,0.03208556149732621,0.3304844209578953
ETH,ET,1948.0,16644.0,18920.0,finchaa sugar project   camp 9,52390.0,37.4255083,9.7863101,1,,,1995.0,,,200.0,8,,,200.0,80,,,200.0,4,,,3,5174,0.04,0.4,0.02,0.41086792452830184
ETH,ET,1948.0,3159.0,19012.0,gangalata,52500.0,37.3792,7.8775401,3,,,2009.0,,,65.0,27,,,65.0,4,,,65.0,3,,,1,5233,0.4153846153846154,0.06153846153846154,0.046153846153846156,0.4497007067957162
ETH,ET,1950.0,3148.0,19135.0,gede bonke,52179.0,37.333302,6.0500002,3,,,1993.0,,,81.0,13,,,81.0,9,,,81.0,3,,,3,5266,0.16049382716049382,0.1111111111111111,0.037037037037037035,0.26548146614404344
ETH,ET,1948.0,3189.0,19022.0,gemechis,52517.0,41.1138,9.1351604,3,,,2009.0,,,97.0,20,,,97.0,7,,,97.0,0,,,1,5241,0.20618556701030927,0.07216494845360824,0.0,0.2485576836308873
ETH,ET,1943.0,3171.0,18602.0,gendewa,,37.152,12.67,3,,,1995.0,5.0,16.0,113.0,38,,,113.0,5,,,113.0,14,,,3,30121,0.336283185840708,0.04424778761061947,0.12389380530973451,0.41909724044293956
ETH,ET,1948.0,3132.0,18823.0,gomgoma,52245.0,39.836201,6.3174700999999995,3,,,2009.0,,,107.0,15,,,107.0,2,,,107.0,7,,,1,5137,0.14018691588785046,0.018691588785046728,0.06542056074766354,0.1994870291730537
ETH,ET,1943.0,3171.0,18602.0,gondar,,37.46667,12.6,4,,,2008.0,5.0,20.0,505.0,10,,,505.0,51,,,505.0,7,,,1,28789,0.019801980198019802,0.100990099009901,0.013861386138613862,0.12359154321507766
ETH,ET,1948.0,3132.0,18823.0,gongoma,52246.0,37.9056665,14.7788638,1,,,2009.0,,,107.0,15,,,107.0,2,,,107.0,7,,,1,5138,0.14018691588785046,0.018691588785046728,0.06542056074766354,0.1994870291730537
ETH,ET,1948.0,3132.0,18785.0,gora badimena,52195.0,40.244499,6.8402901,3,,,2009.0,,,106.0,52,,,106.0,4,,,106.0,17,,,1,5119,0.49056603773584906,0.03773584905660377,0.16037735849056603,0.5551024075718576
ETH,ET,1948.0,3132.0,18785.0,gora badimena,52195.0,40.244499,6.8402901,3,,,2009.0,,,107.0,52,,,107.0,4,,,107.0,17,,,1,5118,0.48598130841121495,0.037383177570093455,0.1588785046728972,0.5507646485539613
ETH,ET,1948.0,3151.0,18945.0,gorbicha,52424.0,39.565498,5.3181901,3,,,2009.0,,,106.0,4,,,106.0,4,,,106.0,4,,,1,5192,0.03773584905660377,0.03773584905660377,0.03773584905660377,0.10282009423760098
ETH,ET,1948.0,3151.0,18945.0,gorbicha,52424.0,39.565498,5.3181901,3,,,2009.0,,,95.0,4,,,95.0,3,,,95.0,2,,,1,5194,0.042105263157894736,0.031578947368421054,0.021052631578947368,0.08668296990319838
ETH,ET,1943.0,3171.0,18602.0,gorgora,,37.300999,12.234,3,,,1995.0,5.0,16.0,120.0,33,,,120.0,85,,,120.0,32,,,3,30120,0.275,0.7083333333333334,0.26666666666666666,0.7971042976939202
ETH,ET,1943.0,3171.0,18602.0,gorgora and chuahit,,37.29453,12.238523,3,,,2012.0,,,261.0,13,,,261.0,104,,,261.0,16,,,1,29524,0.04980842911877394,0.39846743295019155,0.06130268199233716,0.43723365202337844
ETH,ET,1948.0,3189.0,18816.0,gudis,52234.0,40.420399,8.5640802,3,,,2009.0,,,110.0,58,,,110.0,1,,,110.0,0,,,1,5131,0.5272727272727272,0.00909090909090909,0.0,0.5014813659753624
ETH,ET,1943.0,3171.0,18602.0,guramba,,37.365002,12.368,3,,,1995.0,5.0,16.0,94.0,26,,,94.0,28,,,94.0,9,,,3,30115,0.2765957446808511,0.2978723404255319,0.09574468085106383,0.5101025529843153
ETH,ET,1948.0,3181.0,19332.0,guru baka,52333.0,37.955601,8.4753599,3,,,2009.0,,,97.0,56,,,97.0,1,,,97.0,0,,,1,5153,0.5773195876288659,0.010309278350515464,0.0,0.5487519977861419
ETH,ET,1943.0,3171.0,18602.0,hamusit,,37.566002,11.783,3,,,1995.0,7.0,19.0,120.0,40,,,120.0,61,,,120.0,24,,,3,31530,0.3333333333333333,0.5083333333333333,0.2,0.6960167714884694
ETH,ET,1948.0,3151.0,19027.0,handoya haro,52524.0,39.327599,5.83603,3,,,2009.0,,,105.0,61,,,105.0,1,,,105.0,0,,,1,5246,0.580952380952381,0.009523809523809525,0.0,0.5518333119411286
ETH,ET,1948.0,3151.0,19027.0,handuula haro,52525.0,39.327599,5.83603,3,,,2009.0,,,105.0,61,,,105.0,1,,,105.0,0,,,1,5247,0.580952380952381,0.009523809523809525,0.0,0.5518333119411286
ETH,ET,1948.0,3132.0,18985.0,hara dube,52481.0,41.229698,6.88554,3,,,2009.0,,,97.0,1,,,97.0,1,,,97.0,0,,,1,5221,0.010309278350515464,0.010309278350515464,0.0,0.01935120328388917
ETH,ET,1948.0,3132.0,18869.0,harawa 3,52320.0,40.703999,7.3081799,3,,,2009.0,,,103.0,1,,,103.0,1,,,103.0,0,,,1,5158,0.009708737864077669,0.009708737864077669,0.0,0.018229449186077322
ETH,ET,1948.0,3132.0,18869.0,harawa 3,52319.0,40.703999,7.3081799,3,,,2009.0,,,103.0,1,,,103.0,1,,,103.0,0,,,1,5157,0.009708737864077669,0.009708737864077669,0.0,0.018229449186077322
ETH,ET,1948.0,3132.0,18985.0,hare dube,52482.0,41.4021145,9.4600195,2,,,2009.0,,,97.0,1,,,97.0,1,,,97.0,0,,,1,5224,0.010309278350515464,0.010309278350515464,0.0,0.01935120328388917
ETH,ET,1948.0,3194.0,18892.0,haro choroka,52347.0,35.819801,8.8835001,3,,,2009.0,,,109.0,36,,,109.0,25,,,109.0,0,,,1,5168,0.3302752293577982,0.22935779816513763,0.0,0.4564922906876842
ETH,ET,1948.0,3164.0,18903.0,haro mechara,52374.0,40.3343827,8.6018034,2,,,2009.0,,,108.0,8,,,108.0,36,,,108.0,6,,,1,5171,0.07407407407407407,0.3333333333333333,0.05555555555555555,0.39340528508942196
ETH,ET,1948.0,3135.0,19017.0,hatuse,52510.0,37.396,5.1469998,3,,,2009.0,,,101.0,1,,,101.0,4,,,101.0,0,,,1,5238,0.009900990099009901,0.039603960396039604,0.0,0.04633286044838371
ETH,ET,1948.0,3135.0,19017.0,hatuse,52509.0,37.396,5.1469998,3,,,2009.0,,,106.0,1,,,106.0,4,,,106.0,0,,,1,5239,0.009433962264150943,0.03773584905660377,0.0,0.04416397428749907
ETH,ET,1948.0,3190.0,18814.0,humuru korke,52232.0,37.3451,8.89884,3,,,2009.0,,,104.0,78,,,104.0,12,,,104.0,6,,,1,5129,0.75,0.11538461538461539,0.057692307692307696,0.7467971977224518
ETH,ET,1949.0,3143.0,18775.0,ifa,52181.0,39.82895,9.2219852,1,,,2009.0,,,106.0,2,,,106.0,1,,,106.0,0,,,1,5114,0.018867924528301886,0.009433962264150943,0.0,0.026531969343820735
ETH,ET,1948.0,3155.0,18773.0,jafati sedo,52177.0,35.654202,8.2087603,3,,,2009.0,,,96.0,33,,,96.0,5,,,96.0,2,,,1,5112,0.34375,0.052083333333333336,0.020833333333333332,0.36876366573309743
ETH,ET,1948.0,3146.0,18890.0,jarreo tolera,52345.0,36.569199,9.2721205,3,,,2009.0,,,109.0,51,,,109.0,7,,,109.0,4,,,1,5167,0.46788990825688076,0.06422018348623854,0.03669724770642202,0.49088213759968685
ETH,ET,1948.0,3144.0,18747.0,jela aluto,52148.0,38.688598999999996,7.7632598999999995,3,,,2009.0,,,105.0,1,,,105.0,4,,,105.0,3,,,1,5102,0.009523809523809525,0.0380952380952381,0.02857142857142857,0.07026177946470591
ETH,ET,1948.0,3164.0,18921.0,jimma tibe,52391.0,34.7948,8.9661303,3,,,2009.0,,,110.0,7,,,110.0,18,,,110.0,10,,,1,5181,0.06363636363636363,0.16363636363636364,0.09090909090909091,0.2717491459110045
ETH,ET,1948.0,3159.0,18928.0,jimma town,52403.0,36.8357927,7.6738908,1,,,2013.0,,,622.0,34,,,622.0,126,,,622.0,242,,,1,5185,0.05466237942122187,0.20257234726688103,0.3890675241157556,0.5089204381316965
ETH,ET,1948.0,3159.0,18928.0,jimma town,52403.0,36.8357927,7.6738908,1,,,2013.0,,,133.8,76,,,134.4,25,,,134.1,33,,,1,5187,0.5680119581464872,0.18601190476190477,0.24608501118568235,0.6933004884338152
ETH,ET,1948.0,3143.0,18881.0,jiru ifa,52334.0,41.2528,9.4227695,3,,,2009.0,,,78.0,1,,,78.0,1,,,78.0,0,,,1,5164,0.01282051282051282,0.01282051282051282,0.0,0.024034584992495004
ETH,ET,1948.0,3194.0,18853.0,jogir,52308.0,36.021,9.03269,3,,,2009.0,,,111.0,15,,,111.0,12,,,111.0,1,,,1,5152,0.13513513513513514,0.10810810810810811,0.009009009009009009,0.22224837955918347
ETH,ET,1948.0,3194.0,18857.0,kata aba korma,52309.0,35.417301,9.1255102,3,,,2009.0,,,103.0,32,,,103.0,7,,,103.0,2,,,1,5154,0.3106796116504854,0.06796116504854369,0.019417475728155338,0.34905833908937284
ETH,ET,1943.0,3173.0,18634.0,kebele 16,52455.0,39.150002,11.8,3,,,1995.0,,,120.0,11,,,120.0,33,,,120.0,15,,,3,5048,0.09166666666666666,0.275,0.125,0.3997887185534591
ETH,ET,1948.0,3189.0,18839.0,kencha wadesa,52286.0,41.004902,9.1872702,3,,,2009.0,,,95.0,4,,,95.0,1,,,95.0,0,,,1,5143,0.042105263157894736,0.010526315789473684,0.0,0.049234307217895776
ETH,ET,1948.0,3159.0,18953.0,kentery,52446.0,36.797298,7.8636298,3,,,2009.0,,,83.0,18,,,83.0,19,,,83.0,12,,,1,5203,0.21686746987951808,0.2289156626506024,0.14457831325301204,0.456079254476309
ETH,ET,1948.0,3689.0,19002.0,keransa kubi,52494.0,38.4823,7.33038,3,,,2009.0,,,103.0,30,,,103.0,16,,,103.0,23,,,1,5227,0.2912621359223301,0.1553398058252427,0.22330097087378642,0.5047498355809873
ETH,ET,1948.0,3689.0,18766.0,kersa gera,52172.0,38.6353,7.35253,3,,,2009.0,,,108.0,24,,,108.0,8,,,108.0,6,,,1,5111,0.2222222222222222,0.07407407407407407,0.05555555555555555,0.30174012820180995
ETH,ET,1948.0,3151.0,18750.0,kiltu sorsa,52154.0,39.017502,5.9244699,3,,,2009.0,,,109.0,39,,,109.0,12,,,109.0,3,,,1,5104,0.3577981651376147,0.11009174311926606,0.027522935779816515,0.4190836434536317
ETH,ET,1948.0,3151.0,18750.0,kiltu sorsa,52154.0,39.017502,5.9244699,3,,,2009.0,,,107.0,38,,,107.0,11,,,107.0,3,,,1,5105,0.35514018691588783,0.102803738317757,0.028037383177570093,0.4128826960390562
ETH,ET,1948.0,3159.0,18928.0,kitimbile,52404.0,37.027599,7.70819,3,,,2009.0,,,83.0,38,,,83.0,13,,,83.0,7,,,1,5182,0.4578313253012048,0.1566265060240964,0.08433734939759036,0.5484081336396839
ETH,ET,1948.0,3194.0,18774.0,kobor chandi,52178.0,34.558399,9.4807301,3,,,2009.0,,,107.0,21,,,107.0,23,,,107.0,1,,,1,5113,0.19626168224299065,0.21495327102803738,0.009345794392523364,0.3537026401491429
ETH,ET,1943.0,3171.0,18602.0,koladeba,,37.316002,12.419,3,,,1995.0,5.0,16.0,117.0,13,,,117.0,63,,,117.0,37,,,3,30122,0.1111111111111111,0.5384615384615384,0.3162393162393162,0.6787573550998804
ETH,ET,1943.0,3180.0,18618.0,kombolcha,52397.0,39.7291837,11.0849336,1,,,1996.0,,,105.0,0,,,105.0,40,,,105.0,11,,,3,5036,0.0,0.38095238095238093,0.10476190476190476,0.42057074402087874
ETH,ET,1948.0,3689.0,18766.0,langano,52173.0,38.7577605,7.5931759,1,,,2003.0,,,89.0,46,,,89.0,2,,,89.0,6,,,2,5110,0.5168539325842697,0.02247191011235955,0.06741573033707865,0.5278781561303497
ETH,ET,1948.0,3189.0,18981.0,legelaftu,52476.0,40.831699,8.9246702,3,,,2009.0,,,110.0,56,,,110.0,0,,,110.0,0,,,1,5219,0.509090909090909,0.0,0.0,0.48027444253859336
ETH,ET,1948.0,3189.0,18958.0,lubu dekeba,52460.0,41.145599,9.0750599,3,,,2009.0,,,100.0,43,,,100.0,5,,,100.0,0,,,1,5209,0.43,0.05,0.0,0.4325471698113207
ETH,ET,1943.0,3171.0,18602.0,mahedere mariam,,37.914001,11.721,3,,,1995.0,7.0,19.0,90.0,18,,,90.0,34,,,90.0,18,,,3,31531,0.2,0.37777777777777777,0.2,0.5677148846960167
ETH,ET,1948.0,3135.0,18837.0,megado,52283.0,38.221298,3.8966401,3,,,2009.0,,,106.0,0,,,106.0,0,,,106.0,0,,,1,5142,0.0,0.0,0.0,0.0
ETH,ET,1943.0,3180.0,18682.0,mekaneselam,52546.0,38.7603778,10.7512414,1,,,1996.0,,,188.0,7,,,188.0,18,,,188.0,5,,,3,5066,0.03723404255319149,0.09574468085106383,0.026595744680851064,0.1439317464102094
ETH,ET,1948.0,3132.0,18823.0,melka amana,52247.0,39.7892,6.24612,3,,,2009.0,,,105.0,10,,,105.0,6,,,105.0,8,,,1,5134,0.09523809523809523,0.05714285714285714,0.0761904761904762,0.19993765700350216
ETH,ET,1948.0,3132.0,18823.0,melka amana,52247.0,39.7892,6.24612,3,,,2009.0,,,107.0,10,,,107.0,6,,,107.0,9,,,1,5136,0.09345794392523364,0.056074766355140186,0.08411214953271028,0.2040259534055015
ETH,ET,1943.0,3193.0,18547.0,meshenti,52183.0,37.2838328,11.4745024,1,,,2011.0,,,63.0,32,,,63.0,15,,,63.0,3,,,1,4964,0.5079365079365079,0.23809523809523808,0.047619047619047616,0.6065538923965312
ETH,ET,1948.0,3135.0,18796.0,metokomia hara,52202.0,38.186001,5.625,3,,,2009.0,,,72.0,14,,,72.0,13,,,72.0,2,,,1,5122,0.19444444444444445,0.18055555555555555,0.027777777777777776,0.3379512352149494
ETH,ET,1948.0,3135.0,18796.0,metokonya hora,52203.0,38.139999,5.5999999,3,,,2009.0,,,110.0,20,,,110.0,17,,,110.0,4,,,1,5125,0.18181818181818182,0.15454545454545454,0.03636363636363636,0.3145457380604737
ETH,ET,1948.0,3189.0,18981.0,midhagdu,52477.0,40.784801,8.8761501,3,,,2009.0,,,91.0,27,,,91.0,1,,,91.0,0,,,1,5218,0.2967032967032967,0.01098901098901099,0.0,0.28719984141920696
ETH,ET,1948.0,3143.0,18818.0,mumicho,52241.0,41.497601,9.1426601,3,,,2009.0,,,81.0,32,,,81.0,0,,,81.0,0,,,1,5133,0.3950617283950617,0.0,0.0,0.3726997437689261
ETH,ET,1948.0,3135.0,18796.0,mure turkuma,52204.0,38.2631,5.71174,3,,,2009.0,,,106.0,0,,,106.0,28,,,106.0,1,,,1,5124,0.0,0.2641509433962264,0.009433962264150943,0.2557480336116391
ETH,ET,1948.0,3135.0,18796.0,muri turkuma,52205.0,38.2631,5.7114701,3,,,2009.0,,,106.0,0,,,106.0,28,,,106.0,1,,,1,5123,0.0,0.2641509433962264,0.009433962264150943,0.2557480336116391
ETH,ET,1943.0,3171.0,18602.0,nefas mewcha,,38.465,11.735,3,,,1995.0,7.0,19.0,116.0,0,,,116.0,10,,,116.0,0,,,3,31528,0.0,0.08620689655172414,0.0,0.08132726089785296
ETH,ET,1948.0,3194.0,19034.0,nono gino,52539.0,35.344501,8.9456701,3,,,2009.0,,,101.0,24,,,101.0,36,,,101.0,4,,,1,5253,0.2376237623762376,0.3564356435643564,0.039603960396039604,0.4988613604088184
ETH,ET,1948.0,3189.0,18895.0,oda ananl,52350.0,40.4641,8.818090399999999,3,,,2009.0,,,96.0,28,,,96.0,0,,,96.0,0,,,1,5169,0.2916666666666667,0.0,0.0,0.2751572327044025
ETH,ET,1948.0,3194.0,18949.0,odora tobera,52441.0,34.965401,9.8265104,3,,,2009.0,,,107.0,75,,,107.0,0,,,107.0,0,,,1,5199,0.7009345794392523,0.0,0.0,0.6612590372068418
ETH,ET,1948.0,3146.0,18875.0,ongobo bekennisa,52322.0,36.994099,9.0855904,3,,,2009.0,,,110.0,61,,,110.0,26,,,110.0,1,,,1,5162,0.5545454545454546,0.23636363636363636,0.00909090909090909,0.6254029457210496
ETH,ET,1948.0,3155.0,18787.0,qachi,52199.0,35.527699,8.3530102,3,,,2009.0,,,98.0,46,,,98.0,8,,,98.0,0,,,1,5120,0.46938775510204084,0.08163265306122448,0.0,0.48368211358474855
ETH,ET,1948.0,3159.0,18946.0,rayya,52433.0,37.0569,8.4420204,3,,,2009.0,,,95.0,44,,,95.0,21,,,95.0,0,,,1,5197,0.4631578947368421,0.22105263157894736,0.0,0.5488945800449485
ETH,ET,1943.0,3171.0,18602.0,sanja,,37.3,12.983333,3,,,2013.0,5.0,19.0,384.0,42,,,384.0,6,,,384.0,1,,,1,29495,0.109375,0.015625,0.0026041666666666665,0.11846614333818542
ETH,ET,1943.0,3171.0,18602.0,sanja town,,37.3,12.983333,3,,,2013.0,,,385.0,143,,,385.0,62,,,385.0,3,,,1,29537,0.37142857142857144,0.16103896103896104,0.007792207792207792,0.44977571523586146
ETH,ET,1943.0,3180.0,18629.0,school in addis ababa,,38.8167,4.75,4,,,2005.0,7.0,17.0,50.0,0,,,50.0,3,,,50.0,1,,,2,31348,0.0,0.06,0.02,0.07433962264150942
ETH,ET,1948.0,3144.0,18746.0,school in addis ababa,52142.0,39.266701,8.5500002,3,,,2005.0,,,50.0,3,,,50.0,8,,,50.0,1,,,2,5098,0.06,0.16,0.02,0.213388679245283
ETH,ET,1944.0,3131.0,18687.0,school in addis ababa,52187.0,38.7279819,8.9963835,2,,,2005.0,,,49.0,15,,,49.0,6,,,49.0,0,,,2,5071,0.30612244897959184,0.12244897959183673,0.0,0.3689500443997391
ETH,ET,1948.0,3135.0,18764.0,school in addis ababa,52171.0,38.7279819,8.9963835,2,,,2005.0,,,50.0,0,,,50.0,3,,,50.0,1,,,2,5109,0.0,0.06,0.02,0.07433962264150942
ETH,ET,1947.0,3154.0,18732.0,school in addis ababa,52358.0,42.116699,9.3166704,3,,,2005.0,,,50.0,11,,,50.0,11,,,50.0,0,,,2,5088,0.22,0.22,0.0,0.36943396226415093
ETH,ET,1947.0,3154.0,18732.0,school in addis ababa,52358.0,42.116699,9.3166704,3,,,2005.0,,,65.0,1,,,65.0,2,,,65.0,1,,,2,5094,0.015384615384615385,0.03076923076923077,0.015384615384615385,0.05694557758865004
ETH,ET,1947.0,3154.0,18732.0,school in addis ababa,52358.0,42.116699,9.3166704,3,,,2005.0,,,66.0,4,,,66.0,1,,,66.0,3,,,2,5089,0.06060606060606061,0.015151515151515152,0.045454545454545456,0.1102755293461671
ETH,ET,1945.0,3141.0,18707.0,school in adi gudem,,41.8566146,9.5815123,1,,,2005.0,7.0,17.0,67.0,0,,,67.0,3,,,67.0,0,,,2,31359,0.0,0.04477611940298507,0.0,0.0422416220782878
ETH,ET,1950.0,3152.0,19242.0,school in adigrat,52483.0,39.4605612,14.278304,1,,,2005.0,,,47.0,5,,,47.0,26,,,47.0,4,,,2,5305,0.10638297872340426,0.5531914893617021,0.0851063829787234,0.5987785089245685
ETH,ET,1948.0,3151.0,18750.0,school in adigrat,52155.0,39.4605612,14.278304,1,,,2005.0,,,50.0,3,,,50.0,5,,,50.0,1,,,2,5106,0.06,0.1,0.02,0.1612452830188679
ETH,ET,1951.0,3176.0,19324.0,school in adigrat,52516.0,39.4702674,14.2710308,1,,,2005.0,,,50.0,11,,,50.0,3,,,50.0,0,,,2,5331,0.22,0.06,0.0,0.2516981132075472
ETH,ET,1947.0,3154.0,18732.0,school in adigrat,52359.0,39.4605612,14.278304,1,,,2005.0,,,68.0,0,,,68.0,0,,,68.0,0,,,2,5092,0.0,0.0,0.0,0.0
ETH,ET,1943.0,3193.0,18633.0,school in adwa,52449.0,38.8937176,14.1636465,1,,,2005.0,,,49.0,7,,,49.0,13,,,49.0,3,,,2,5047,0.14285714285714285,0.2653061224489796,0.061224489795918366,0.38567712689344397
ETH,ET,1951.0,3179.0,19280.0,school in aksum,52164.0,38.7626678,14.1344071,1,,,2005.0,,,50.0,0,,,50.0,17,,,50.0,0,,,2,5323,0.0,0.34,0.0,0.32075471698113206
ETH,ET,1943.0,3171.0,18602.0,school in alamata,,38.466702,11.7333,3,,,2005.0,7.0,17.0,49.0,1,,,49.0,9,,,49.0,2,,,2,31444,0.02040816326530612,0.1836734693877551,0.04081632653061224,0.21978552448224226
ETH,ET,1943.0,3178.0,18628.0,school in alamata,52421.0,39.5536782,12.41967,1,,,2005.0,,,49.0,1,,,49.0,9,,,49.0,2,,,2,5040,0.02040816326530612,0.1836734693877551,0.04081632653061224,0.21978552448224226
ETH,ET,1950.0,3184.0,19198.0,school in arero,52371.0,38.466702,7.0500002,3,,,2005.0,,,49.0,1,,,49.0,28,,,49.0,15,,,2,5285,0.02040816326530612,0.5714285714285714,0.30612244897959184,0.668578119404426
ETH,ET,1951.0,3176.0,19319.0,school in awassa,52505.0,38.4844027,7.0803218,1,,,2005.0,,,50.0,0,,,50.0,2,,,50.0,3,,,2,5330,0.0,0.04,0.06,0.0920754716981132
ETH,ET,1948.0,3143.0,18850.0,school in bahir dar,52303.0,37.4143606,11.5820144,1,,,2005.0,,,50.0,10,,,50.0,17,,,50.0,3,,,2,5150,0.2,0.34,0.06,0.4751698113207547
ETH,ET,1950.0,3152.0,19242.0,school in bahir dar,52484.0,37.3613533,11.5742086,1,,,2005.0,,,50.0,15,,,50.0,5,,,50.0,1,,,2,5306,0.3,0.1,0.02,0.360943396226415
ETH,ET,1945.0,3141.0,18707.0,school in bako tibe,,41.866699,9.58333,3,,,2005.0,7.0,17.0,66.0,0,,,66.0,5,,,66.0,1,,,2,31437,0.0,0.07575757575757576,0.015151515151515152,0.08468042344543202
ETH,ET,1943.0,3180.0,18629.0,school in bati,,37.383301,5.06667,4,,,2005.0,7.0,17.0,49.0,1,,,49.0,3,,,49.0,0,,,2,31460,0.02040816326530612,0.061224489795918366,0.0,0.07583318271474934
ETH,ET,1948.0,3135.0,19017.0,school in bati,52511.0,42.0441594,9.4201705,1,,,2005.0,,,49.0,1,,,49.0,3,,,49.0,0,,,2,5235,0.02040816326530612,0.061224489795918366,0.0,0.07583318271474934
ETH,ET,1945.0,3141.0,18707.0,school in bedeno,,41.8566146,9.5815123,1,,,2005.0,7.0,17.0,44.0,0,,,44.0,1,,,44.0,1,,,2,31412,0.0,0.022727272727272728,0.022727272727272728,0.042394355215967565
ETH,ET,1950.0,3153.0,19216.0,school in bonga,52422.0,36.2468128,7.2671901,1,,,2005.0,,,44.0,1,,,44.0,10,,,44.0,0,,,2,5293,0.022727272727272728,0.22727272727272727,0.0,0.2309761422111336
ETH,ET,1945.0,3141.0,18707.0,school in bore,,41.850142,9.6008747,1,,,2005.0,7.0,17.0,68.0,0,,,68.0,0,,,68.0,2,,,2,31433,0.0,0.0,0.029411764705882353,0.027746947835738067
ETH,ET,1945.0,3141.0,18707.0,school in butajira,,41.866699,9.58333,3,,,2005.0,7.0,17.0,66.0,0,,,66.0,1,,,66.0,2,,,2,31466,0.0,0.015151515151515152,0.030303030303030304,0.042448498709219115
ETH,ET,1945.0,3141.0,18707.0,school in darro lebu,,41.850142,9.6008747,1,,,2005.0,7.0,17.0,68.0,0,,,68.0,1,,,68.0,1,,,2,31377,0.0,0.014705882352941176,0.014705882352941176,0.027542926160475285
ETH,ET,1948.0,3144.0,18746.0,school in debrebrihan,52143.0,39.5213618,9.6568423,2,,,2005.0,,,49.0,0,,,49.0,0,,,49.0,0,,,2,5099,0.0,0.0,0.0,0.0
ETH,ET,1948.0,3151.0,18945.0,school in dire dawa,52426.0,41.8775922,9.592786199999999,1,,,2005.0,,,50.0,15,,,50.0,34,,,50.0,19,,,2,5196,0.3,0.68,0.38,0.8123773584905661
ETH,ET,1948.0,3151.0,18945.0,school in dire dawa,52426.0,41.8775922,9.592786199999999,1,,,2005.0,,,50.0,1,,,50.0,7,,,50.0,3,,,2,5190,0.02,0.14,0.06,0.19600754716981128
ETH,ET,1943.0,3171.0,18602.0,school in dire dawa,,37.25,12.4242,3,,,2005.0,7.0,17.0,50.0,2,,,50.0,6,,,50.0,3,,,2,31380,0.04,0.12,0.06,0.1942339622641509
ETH,ET,1943.0,3171.0,18602.0,school in dire dawa,,37.25,12.4242,3,,,2005.0,7.0,17.0,50.0,2,,,50.0,1,,,50.0,0,,,2,31407,0.04,0.02,0.0,0.055849056603773574
ETH,ET,1943.0,3171.0,18665.0,school in dire dawa,52503.0,37.044201,12.9842,3,,,2005.0,,,50.0,2,,,50.0,1,,,50.0,0,,,2,5058,0.04,0.02,0.0,0.055849056603773574
ETH,ET,1948.0,3151.0,18945.0,school in dodolla,52427.0,39.1803741,6.9791945,1,,,2005.0,,,50.0,1,,,50.0,5,,,50.0,1,,,2,5191,0.02,0.1,0.02,0.1279622641509434
ETH,ET,1943.0,3142.0,18550.0,school in enticho,52190.0,39.1517665,14.2790283,1,,,2005.0,,,50.0,0,,,50.0,11,,,50.0,0,,,2,4966,0.0,0.22,0.0,0.20754716981132074
ETH,ET,1943.0,3171.0,18602.0,school in fitche,,38.016701,11.85,3,,,2005.0,7.0,17.0,50.0,0,,,50.0,12,,,50.0,4,,,2,31387,0.0,0.24,0.08,0.28377358490566035
ETH,ET,1943.0,3180.0,18629.0,school in gambella,,37.650002,4.65,4,,,2005.0,7.0,17.0,49.0,0,,,49.0,11,,,49.0,1,,,2,31478,0.0,0.22448979591836735,0.02040816326530612,0.22671371205393978
ETH,ET,1943.0,3126.0,18606.0,school in gambella,52335.0,34.1531947,7.9219687,1,,,2005.0,,,50.0,2,,,50.0,22,,,50.0,9,,,2,5027,0.04,0.44,0.18,0.5275169811320755
ETH,ET,1948.0,3135.0,19017.0,school in gambella,52512.0,34.1531947,7.9219687,1,,,2005.0,,,49.0,0,,,49.0,11,,,49.0,1,,,2,5234,0.0,0.22448979591836735,0.02040816326530612,0.22671371205393978
ETH,ET,1948.0,3151.0,18945.0,school in harar,52428.0,39.583302,5.3166699,3,,,2005.0,,,50.0,1,,,50.0,23,,,50.0,2,,,2,5195,0.02,0.46,0.04,0.4641207547169811
ETH,ET,1943.0,3180.0,18683.0,school in harar,52549.0,39.41,10.5,3,,,2005.0,,,47.0,8,,,47.0,14,,,47.0,1,,,2,5067,0.1702127659574468,0.2978723404255319,0.02127659574468085,0.405452385491345
ETH,ET,1943.0,3171.0,18602.0,school in harar,,37.623901,12.7689,3,,,2005.0,7.0,17.0,50.0,0,,,50.0,25,,,50.0,1,,,2,31350,0.0,0.5,0.02,0.48113207547169806
ETH,ET,1945.0,3141.0,18707.0,school in hossana,,41.866699,9.58333,3,,,2005.0,7.0,17.0,68.0,2,,,68.0,5,,,68.0,1,,,2,31420,0.029411764705882353,0.07352941176470588,0.014705882352941176,0.10754942605102365
ETH,ET,1945.0,3141.0,18707.0,school in jijiga,,41.8566146,9.5815123,1,,,2005.0,7.0,17.0,49.0,0,,,49.0,12,,,49.0,3,,,2,31474,0.0,0.24489795918367346,0.061224489795918366,0.27464971356274503
ETH,ET,1943.0,3171.0,18602.0,school in kemashi,,36.700001,12.9333,3,,,2005.0,7.0,17.0,50.0,6,,,50.0,1,,,50.0,0,,,2,31385,0.12,0.02,0.0,0.12981132075471694
ETH,ET,1945.0,3141.0,18707.0,school in kemissie,,41.8566146,9.5815123,1,,,2005.0,7.0,17.0,50.0,0,,,50.0,7,,,50.0,3,,,2,31475,0.0,0.14,0.06,0.18075471698113207
ETH,ET,1947.0,3154.0,18732.0,school in konso,52363.0,37.4387894,5.3404492,1,,,2005.0,,,67.0,2,,,67.0,1,,,67.0,0,,,2,5095,0.029850746268656716,0.014925373134328358,0.0,0.041821307430742645
ETH,ET,1949.0,3158.0,19090.0,school in lemmen,52380.0,42.799999,9.3500004,3,,,2005.0,,,46.0,0,,,46.0,1,,,46.0,1,,,2,5260,0.0,0.021739130434782608,0.021739130434782608,0.04057138780896672
ETH,ET,1950.0,3134.0,19233.0,school in masha,52472.0,35.4809314,7.7306338,1,,,2005.0,,,49.0,0,,,49.0,8,,,49.0,6,,,2,5303,0.0,0.16326530612244897,0.12244897959183673,0.2506817128083424
ETH,ET,1943.0,3180.0,18682.0,school in mersa,52547.0,39.6595576,11.6649572,1,,,2005.0,,,50.0,0,,,50.0,32,,,50.0,1,,,2,5065,0.0,0.64,0.02,0.6105660377358489
ETH,ET,1943.0,3180.0,18580.0,school in miti,52243.0,39.150002,11.5,3,,,2005.0,,,50.0,7,,,50.0,30,,,50.0,0,,,2,4986,0.14,0.6,0.0,0.6188679245283019
ETH,ET,1950.0,3149.0,19265.0,school in mizan teferi,52535.0,35.5821994,6.9936468,1,,,2005.0,,,44.0,16,,,44.0,25,,,44.0,4,,,2,5310,0.36363636363636365,0.5681818181818182,0.09090909090909091,0.707724366698326
ETH,ET,1949.0,3158.0,19090.0,school in nuunu kumba,52381.0,42.799999,9.3500004,3,,,2005.0,,,50.0,0,,,50.0,2,,,50.0,3,,,2,5259,0.0,0.04,0.06,0.0920754716981132
ETH,ET,1943.0,3173.0,18610.0,school in sanja,52352.0,39.650002,11.6667,3,,,2005.0,,,50.0,1,,,50.0,13,,,50.0,0,,,2,5031,0.02,0.26,0.0,0.25924528301886796
ETH,ET,1951.0,3176.0,19306.0,school in selekleka,52454.0,38.4761234,14.117905499999999,1,,,2005.0,,,50.0,6,,,50.0,2,,,50.0,0,,,2,5328,0.12,0.04,0.0,0.14641509433962263
ETH,ET,1950.0,3184.0,19198.0,school in snnpr,52372.0,38.466702,7.0500002,3,,,2005.0,,,31.0,4,,,31.0,8,,,31.0,3,,,2,5287,0.12903225806451613,0.25806451612903225,0.0967741935483871,0.39276772838194135
ETH,ET,1950.0,3152.0,19242.0,school in sodo,52486.0,37.750987,6.8309978000000005,1,,,2005.0,,,44.0,5,,,44.0,0,,,44.0,0,,,2,5307,0.11363636363636363,0.0,0.0,0.10720411663807888
ETH,ET,1942.0,26089.0,18506.0,school in sodo,52176.0,41.4394,11.5636,3,,,2005.0,,,59.0,0,,,59.0,0,,,59.0,0,,,2,4950,0.0,0.0,0.0,0.0
ETH,ET,1943.0,3171.0,18602.0,school in teltele,,37.950001,11.25,3,,,2005.0,7.0,17.0,49.0,12,,,49.0,4,,,49.0,2,,,2,31483,0.24489795918367346,0.08163265306122448,0.04081632653061224,0.3158900708326991
ETH,ET,1949.0,3158.0,19090.0,school in tembien,52382.0,42.799999,9.3500004,3,,,2005.0,,,50.0,0,,,50.0,0,,,50.0,0,,,2,5261,0.0,0.0,0.0,0.0
ETH,ET,1945.0,3141.0,18707.0,school in yejube,,41.8566146,9.5815123,1,,,2005.0,7.0,17.0,50.0,1,,,50.0,4,,,50.0,3,,,2,31479,0.02,0.08,0.06,0.14386415094339622
ETH,ET,1948.0,3130.0,18778.0,school in yirgalem,,39.783298,7.1,3,,,2005.0,7.0,17.0,49.0,1,,,49.0,5,,,49.0,1,,,2,31399,0.02040816326530612,0.10204081632653061,0.02040816326530612,0.130488884669252
ETH,ET,1948.0,3159.0,18995.0,sentema goro,52490.0,36.672901,7.7163901,3,,,2009.0,,,104.0,21,,,104.0,59,,,104.0,56,,,1,5226,0.20192307692307693,0.5673076923076923,0.5384615384615384,0.7930384271863002
ETH,ET,1948.0,3164.0,18763.0,shebel fana,52170.0,34.588799,8.4789801,3,,,2009.0,,,105.0,6,,,105.0,42,,,105.0,34,,,1,5108,0.05714285714285714,0.4,0.3238095238095238,0.582518290335002
ETH,ET,1943.0,3178.0,18583.0,shime mariam,52266.0,38.4,8.330957,1,,,1995.0,,,120.0,33,,,120.0,36,,,120.0,21,,,3,5000,0.275,0.3,0.175,0.5484080188679245
ETH,ET,1943.0,3171.0,18602.0,shime mariam,,37.617001,11.551,3,,,1995.0,7.0,19.0,120.0,33,,,120.0,36,,,120.0,21,,,3,31524,0.275,0.3,0.175,0.5484080188679245
ETH,ET,1948.0,16644.0,18913.0,sobokumi,52377.0,37.0951,9.9101496,3,,,2009.0,,,109.0,46,,,109.0,12,,,109.0,0,,,1,5172,0.42201834862385323,0.11009174311926606,0.0,0.4581597699196275
ETH,ET,1948.0,3194.0,18971.0,sonbo guta,52475.0,35.5107,9.6233902,3,,,2009.0,,,110.0,11,,,110.0,4,,,110.0,0,,,1,5217,0.1,0.03636363636363636,0.0,0.12521440823327615
ETH,ET,1943.0,3171.0,18602.0,sufankara,,37.382999,12.384,3,,,1995.0,5.0,16.0,115.0,35,,,115.0,64,,,115.0,11,,,3,30119,0.30434782608695654,0.5565217391304348,0.09565217391304348,0.6801912379759044
ETH,ET,1946.0,3127.0,18717.0,suli,52313.0,35.0271,8.1959,3,,,2009.0,,,103.0,55,,,103.0,17,,,103.0,3,,,1,5086,0.5339805825242718,0.1650485436893204,0.02912621359223301,0.5870089839802034
ETH,ET,1948.0,3151.0,19023.0,tabe haro wato,52520.0,38.611599,6.0331502,3,,,2009.0,,,101.0,51,,,101.0,54,,,101.0,8,,,1,5242,0.504950495049505,0.5346534653465347,0.07920792079207921,0.743280682236239
ETH,ET,1943.0,3171.0,18602.0,tabor,,38.009998,11.854,3,,,1995.0,7.0,19.0,126.0,20,,,126.0,38,,,126.0,3,,,3,31538,0.15873015873015872,0.30158730158730157,0.023809523809523808,0.40229795289051684
ETH,ET,1948.0,3151.0,19023.0,tebe haro wato,52521.0,38.611599,6.0331502,3,,,2009.0,,,108.0,54,,,108.0,56,,,108.0,9,,,1,5243,0.5,0.5185185185185185,0.08333333333333333,0.7352084789191707
ETH,ET,1948.0,3689.0,19004.0,toga,52496.0,38.525501,7.1648102,3,,,2009.0,,,97.0,0,,,97.0,24,,,97.0,19,,,1,5229,0.0,0.24742268041237114,0.1958762886597938,0.3724855968893692
ETH,ET,1948.0,3130.0,19011.0,ufara agemesa,52499.0,39.513901,8.34863,3,,,2009.0,,,107.0,0,,,107.0,1,,,107.0,0,,,1,5232,0.0,0.009345794392523364,0.0,0.00881678716275789
ETH,ET,1948.0,3159.0,18983.0,waktola,52478.0,37.219299,7.7476802,3,,,2009.0,,,83.0,20,,,83.0,13,,,83.0,3,,,1,5220,0.24096385542168675,0.1566265060240964,0.03614457831325301,0.36130851074606846
ETH,ET,1948.0,3189.0,18805.0,wedeyiti,52220.0,40.882,9.1064301,3,,,2009.0,,,110.0,0,,,110.0,0,,,110.0,0,,,1,5126,0.0,0.0,0.0,0.0
ETH,ET,1943.0,3171.0,18602.0,wereta,,37.696999,11.917,3,,,1995.0,7.0,19.0,120.0,10,,,120.0,24,,,120.0,18,,,3,31527,0.08333333333333333,0.2,0.15,0.35534591194968546
ETH,ET,1950.0,3186.0,19138.0,woito,52189.0,36.9903698,5.3731739,1,,,1993.0,,,146.0,45,,,146.0,1,,,146.0,8,,,3,5267,0.3082191780821918,0.00684931506849315,0.0547945205479452,0.33075808735331497
ETH,ET,1948.0,3130.0,18778.0,yadot primary school,,39.850196,6.412105,3,,,2013.0,,,340.0,2,,,340.0,16,,,340.0,7,,,1,29535,0.0058823529411764705,0.047058823529411764,0.020588235294117647,0.06808332917289131
ETH,ET,1943.0,3171.0,18602.0,yefag,,37.716,12.085,3,,,1995.0,7.0,19.0,57.0,13,,,57.0,22,,,57.0,2,,,3,31542,0.22807017543859648,0.38596491228070173,0.03508771929824561,0.511923868510862
ETH,ET,1943.0,3171.0,18602.0,zarema,,37.882,13.334,3,,,1995.0,5.0,19.0,90.0,5,,,90.0,25,,,90.0,0,,,3,30112,0.05555555555555555,0.2777777777777778,0.0,0.29990682506405775
ETH,ET,1943.0,3171.0,18533.0,zarima,52153.0,37.881734,13.339907,1,,,2009.0,,,319.0,61,,,319.0,70,,,319.0,8,,,1,4954,0.19122257053291536,0.219435736677116,0.025078369905956112,0.3627634770511892
ETH,ET,1943.0,3171.0,18602.0,zarima,,37.886391,13.350833,3,,,2009.0,5.0,17.0,319.0,61,,,319.0,70,,,319.0,8,,,1,31546,0.19122257053291536,0.219435736677116,0.025078369905956112,0.3627634770511892
ETH,ET,1943.0,3193.0,18547.0,zeghie,52185.0,37.3333333,11.7,2,,,1991.0,,,160.0,10,,,160.0,97,,,160.0,80,,,3,4961,0.0625,0.60625,0.5,0.7692732900943394
ETH,ET,1943.0,3193.0,18547.0,zeghie junior,52186.0,37.3333333,11.7,2,,,1991.0,,,300.0,4,,,300.0,233,,,300.0,194,,,3,4962,0.013333333333333334,0.7766666666666666,0.6466666666666666,0.8699443745632426
ETH,ET,1943.0,3171.0,18602.0,zengaj,,37.499001,12.369,3,,,1995.0,5.0,16.0,112.0,30,,,112.0,45,,,112.0,30,,,3,30125,0.26785714285714285,0.4017857142857143,0.26785714285714285,0.640884249167996
