iso3,iso2,admin1_id,admin2_id,iu_id,location,site_id,longitude,latitude,georeliability,location_type,survey_type,year,age_start,age_end,hk_examined,hk_positive,hk_perc_highinfection,hk_perc_moderateinfection,asc_examined,asc_positive,asc_perc_highinfection,asc_perc_moderateinfection,tt_examined,tt_positive,tt_perc_highinfection,tt_perc_moderateinfection,quality,sn
ETH,ET,1949.0,3143.0,18889.0,abadir,52341.0,42.39694,9.3010169,1,,,2009.0,,,91.0,9,,,91.0,4,,,91.0,0,,,1,5166
ETH,ET,1948.0,3189.0,18966.0,abaye deneba village,52466.0,40.489674,9.1450005,3,,,2008.0,,,0.0,0,,,491.0,41,,,491.0,46,,,1,5214
ETH,ET,1948.0,3135.0,18845.0,abdi boru,52290.0,38.267101,5.39575,3,,,2009.0,,,107.0,17,,,107.0,9,,,107.0,7,,,1,5147
ETH,ET,1948.0,3144.0,18747.0,abine germama,52147.0,38.681099,7.99264,3,,,2009.0,,,107.0,1,,,107.0,1,,,107.0,4,,,1,5103
ETH,ET,1943.0,3171.0,18602.0,achera,,38.415001,11.719,3,,,1995.0,5.0,16.0,63.0,11,,,63.0,37,,,63.0,12,,,3,30116
ETH,ET,1948.0,3155.0,18756.0,adare,52166.0,35.750702,8.5789204,3,,,2009.0,,,78.0,33,,,78.0,31,,,78.0,5,,,1,5107
ETH,ET,1943.0,3171.0,18602.0,adarkay,,38.063,13.451,3,,,1995.0,5.0,19.0,114.0,23,,,114.0,49,,,114.0,2,,,3,30114
ETH,ET,1943.0,3171.0,18602.0,addis zemen junior,,37.782002,12.116,3,,,1995.0,7.0,19.0,115.0,19,,,115.0,57,,,115.0,0,,,3,31533
ETH,ET,1943.0,3171.0,18533.0,adi arkay,52150.0,38.064999,13.45,3,,,0.0,,,120.0,47,,,0.0,0,,,0.0,0,,,3,4956
ETH,ET,1948.0,3155.0,18787.0,adis alem,52198.0,38.4060986,9.0465617,1,,,2009.0,,,101.0,55,,,101.0,36,,,101.0,4,,,1,5121
ETH,ET,1948.0,3132.0,18869.0,aebisa,52317.0,40.648998,7.16571,3,,,2009.0,,,98.0,1,,,98.0,0,,,98.0,0,,,1,5160
ETH,ET,1948.0,3689.0,19002.0,albula geta,52493.0,38.313598999999996,7.3650999,3,,,2009.0,,,105.0,10,,,105.0,12,,,105.0,5,,,1,5228
ETH,ET,1948.0,3164.0,18867.0,alchaya jilo,52316.0,34.6469,8.9694595,3,,,2009.0,,,99.0,5,,,99.0,38,,,99.0,7,,,1,5156
ETH,ET,1943.0,3178.0,18537.0,amanuel,52168.0,37.5614454,10.4393047,1,,,0.0,,,70.0,11,,,0.0,0,,,0.0,0,,,3,4960
ETH,ET,1943.0,3171.0,18602.0,amed ber,,38.398998,11.384,3,,,1995.0,7.0,19.0,95.0,31,,,95.0,14,,,95.0,17,,,3,31529
ETH,ET,1943.0,3171.0,18602.0,amora gedel,,37.797001,11.984,3,,,1995.0,7.0,19.0,85.0,21,,,85.0,47,,,85.0,17,,,3,31541
ETH,ET,1943.0,3178.0,18596.0,amora gedel,52304.0,39.4801007,12.1509721,1,,,1995.0,,,85.0,21,,,85.0,47,,,85.0,17,,,3,5013
ETH,ET,1948.0,3155.0,18815.0,anayifa,52233.0,35.396301,8.6219397,3,,,2009.0,,,103.0,67,,,103.0,22,,,103.0,4,,,1,5130
ETH,ET,1943.0,3171.0,18602.0,anbesame,,37.633333,11.716667,3,,,1995.0,7.0,19.0,97.0,23,,,97.0,21,,,97.0,7,,,3,31526
ETH,ET,1943.0,3171.0,18602.0,anbesame,,37.633333,11.716667,3,,,2015.0,,,464.0,68,,,0.0,0,,,0.0,0,,,1,29507
ETH,ET,1948.0,3146.0,18866.0,andode dicho,52315.0,38.7388027,8.8292016,1,,,2009.0,,,110.0,22,,,110.0,6,,,110.0,0,,,1,5155
ETH,ET,1948.0,3132.0,18954.0,angetu,52450.0,39.483333,6.333333,1,,,0.0,,,103.0,37,,,103.0,69,,,103.0,32,,,3,5204
ETH,ET,1950.0,3148.0,19118.0,arba minch,52138.0,37.5641095,6.0206054,1,,,2015.0,,,345.0,3,,,345.0,31,,,345.0,4,,,1,5263
ETH,ET,1943.0,3171.0,18602.0,atkena,,38.166,11.934,3,,,1995.0,7.0,19.0,61.0,5,,,61.0,12,,,61.0,5,,,3,31534
ETH,ET,1943.0,3171.0,18602.0,awramba and neighboring communities,,37.58333,11.95,3,,,2010.0,,,392.0,44,,,392.0,37,,,392.0,11,,,1,29538
ETH,ET,1943.0,3171.0,18562.0,aykel,52213.0,37.06667,12.55,1,,,0.0,,,120.0,45,,,120.0,42,,,120.0,25,,,3,4971
ETH,ET,1943.0,3171.0,18562.0,aykel,52213.0,37.06667,12.55,1,,,0.0,,,54.0,12,,,0.0,0,,,0.0,0,,,3,4970
ETH,ET,1943.0,3171.0,18602.0,azezo,,37.4333,12.55,4,,,1995.0,8.0,18.0,117.0,1,,,117.0,51,,,117.0,0,,,3,30132
ETH,ET,1943.0,3171.0,18602.0,azezo,52324.0,37.4307827,12.5586158,1,,,1995.0,,,117.0,1,,,117.0,51,,,117.0,0,,,3,5016
ETH,ET,1948.0,3189.0,18839.0,babile elementary and junior secondary school,52284.0,42.3298717,9.2219852,1,,,2001.0,,,415.0,28,,,415.0,16,,,415.0,15,,,2,5145
ETH,ET,1943.0,3177.0,18585.0,babile town,52268.0,42.3298717,9.2219852,1,,,2012.0,,,644.0,2,,,0.0,0,,,644.0,1,,,1,5005
ETH,ET,1943.0,3193.0,18547.0,bahir dar,52182.0,37.3613533,11.5742086,1,,,0.0,,,100.0,12,,,0.0,0,,,0.0,0,,,3,4963
ETH,ET,1948.0,3144.0,18746.0,bati germama,52141.0,42.0441594,9.4201705,1,,,2009.0,,,102.0,0,,,102.0,0,,,102.0,0,,,1,5101
ETH,ET,1948.0,3143.0,18783.0,bereket,52193.0,41.634602,9.1368198,3,,,2009.0,,,97.0,35,,,97.0,6,,,97.0,2,,,1,5116
ETH,ET,1948.0,3130.0,19040.0,beshra chefa,52543.0,38.884399,7.92311,3,,,2009.0,,,109.0,0,,,109.0,0,,,109.0,9,,,1,5257
ETH,ET,1943.0,3142.0,18590.0,bichena,52295.0,38.2031762,10.4477737,1,,,0.0,,,100.0,0,,,0.0,0,,,0.0,0,,,3,5007
ETH,ET,1948.0,3143.0,18955.0,biftu oromia,52457.0,41.2514,9.1805601,3,,,2009.0,,,83.0,16,,,83.0,12,,,83.0,1,,,1,5207
ETH,ET,1948.0,3159.0,18953.0,bilida,52443.0,36.802891,7.760364,1,,,2009.0,,,91.0,7,,,91.0,23,,,91.0,9,,,1,5202
ETH,ET,1950.0,3148.0,19219.0,birbir,52434.0,35.5012894,7.8611032,1,,,1995.0,,,159.0,58,,,0.0,0,,,0.0,0,,,3,5295
ETH,ET,1941.0,0.0,18490.0,bole,52200.0,38.8100855,8.9831138,1,,,1991.0,,,0.0,0,,,84.0,15,,,84.0,9,,,3,4941
ETH,ET,1943.0,3193.0,18560.0,bure,52206.0,37.0668652,10.7061045,1,,,0.0,,,148.0,28,,,0.0,0,,,0.0,0,,,3,4968
ETH,ET,1948.0,3132.0,18873.0,burkitu,52321.0,39.9070023,7.0016991,1,,,0.0,,,159.0,89,,,159.0,10,,,159.0,33,,,3,5161
ETH,ET,1948.0,3190.0,18825.0,busa,52262.0,37.216667,7.966667,1,,,1999.0,,,0.0,0,,,254.0,218,,,254.0,225,,,3,5140
ETH,ET,1948.0,3159.0,18953.0,buture,52444.0,36.7281,7.7456498,3,,,2009.0,,,85.0,20,,,85.0,17,,,85.0,13,,,1,5201
ETH,ET,1948.0,3135.0,19017.0,chabi,52508.0,37.356899,5.10919,3,,,2009.0,,,110.0,3,,,110.0,5,,,110.0,0,,,1,5236
ETH,ET,1948.0,3135.0,19017.0,chabi / falotore,52507.0,37.356899,5.10919,3,,,2009.0,,,110.0,3,,,110.0,5,,,110.0,0,,,1,5237
ETH,ET,1948.0,3143.0,18888.0,chafe jeneta,52340.0,41.826,8.9029503,3,,,2009.0,,,96.0,35,,,96.0,1,,,96.0,0,,,1,5165
ETH,ET,1943.0,3126.0,18607.0,chagni,52338.0,36.5040446,10.9560489,1,,,0.0,,,150.0,44,,,0.0,0,,,0.0,0,,,3,5029
ETH,ET,1948.0,3164.0,18811.0,chamo,52226.0,34.6666839,8.6467107,1,,,2009.0,,,109.0,13,,,109.0,47,,,109.0,11,,,1,5127
ETH,ET,1943.0,3171.0,18562.0,chandeba,52214.0,37.049999,12.419,3,,,0.0,,,105.0,32,,,105.0,58,,,105.0,16,,,3,4973
ETH,ET,1950.0,3148.0,19148.0,chefe,52207.0,38.2058155,6.1620447,1,,,2012.0,,,100.0,1,,,100.0,53,,,100.0,5,,,1,5271
ETH,ET,1948.0,3194.0,18853.0,choli mikael,52307.0,35.8027,9.1884298,3,,,2009.0,,,103.0,45,,,103.0,19,,,103.0,3,,,1,5151
ETH,ET,1948.0,3155.0,18781.0,chora,52192.0,36.530102,8.4810305,3,,,2009.0,,,94.0,52,,,94.0,24,,,94.0,12,,,1,5115
ETH,ET,1943.0,3171.0,18602.0,chuahit,,37.264999,12.319,3,,,1995.0,5.0,16.0,119.0,39,,,119.0,58,,,119.0,0,,,3,30126
ETH,ET,1943.0,3171.0,18582.0,chuwahit,52253.0,37.264999,12.319,3,,,0.0,,,72.0,11,,,0.0,0,,,0.0,0,,,3,4997
ETH,ET,1948.0,3132.0,18985.0,dadecha farda,52479.0,41.155899,6.7541699,3,,,2009.0,,,65.0,0,,,65.0,1,,,65.0,0,,,1,5223
ETH,ET,1948.0,3151.0,19027.0,dande,52522.0,39.108398,5.9359298,3,,,2009.0,,,104.0,46,,,104.0,6,,,104.0,3,,,1,5245
ETH,ET,1943.0,3126.0,18567.0,dangla,52229.0,36.8411747,11.2571492,1,,,0.0,,,150.0,33,,,0.0,0,,,0.0,0,,,3,4977
ETH,ET,1948.0,3151.0,19027.0,danide,52523.0,39.108398,5.9359298,3,,,2009.0,,,106.0,48,,,106.0,5,,,106.0,3,,,1,5248
ETH,ET,1948.0,3194.0,18949.0,darge tobera,52439.0,35.084,9.6416101,3,,,2009.0,,,108.0,48,,,108.0,3,,,108.0,3,,,1,5198
ETH,ET,1943.0,3171.0,18602.0,deb bahir,,37.882,13.235,3,,,1995.0,5.0,19.0,120.0,37,,,120.0,62,,,120.0,27,,,3,30113
ETH,ET,1943.0,3171.0,18571.0,debark,52236.0,37.8989689,13.1509414,1,,,0.0,,,100.0,6,,,0.0,0,,,0.0,0,,,3,4981
ETH,ET,1943.0,3171.0,18602.0,deguma,,37.712799,12.4622,3,,,1995.0,8.0,18.0,70.0,12,,,70.0,26,,,70.0,11,,,3,30135
ETH,ET,1948.0,3189.0,18966.0,demba girara kebele,52467.0,40.489674,9.1450005,3,,,2014.0,,,384.0,53,,,384.0,37,,,384.0,18,,,1,5212
ETH,ET,1943.0,3193.0,18581.0,dembecha,52250.0,37.494811,10.5627155,1,,,0.0,,,100.0,16,,,0.0,0,,,0.0,0,,,3,4987
ETH,ET,1948.0,3132.0,18985.0,dhedecha ferde,52480.0,41.155899,6.7541699,3,,,2009.0,,,64.0,0,,,64.0,1,,,64.0,0,,,1,5222
ETH,ET,1943.0,3171.0,18571.0,dib ber,52237.0,37.882999,13.235,3,,,0.0,,,70.0,15,,,0.0,0,,,0.0,0,,,3,4980
ETH,ET,1948.0,3135.0,19035.0,dida yabello,52540.0,38.1001629,4.8949753,2,,,2009.0,,,106.0,3,,,106.0,1,,,106.0,0,,,1,5255
ETH,ET,1948.0,3135.0,19035.0,dida yabelo,52541.0,38.25,5.0700002,3,,,2009.0,,,106.0,3,,,106.0,1,,,106.0,0,,,1,5254
ETH,ET,1948.0,3143.0,18876.0,dima jeneta,52323.0,41.5294,8.82621,3,,,2009.0,,,88.0,53,,,88.0,0,,,88.0,0,,,1,5163
ETH,ET,1945.0,3141.0,18707.0,dire dawa,,41.869999,9.591,3,,,1986.0,5.0,19.0,99.0,0,,,99.0,12,,,99.0,11,,,3,29291
ETH,ET,1948.0,3189.0,18839.0,dire negeha,52285.0,37.1,4.983333,1,,,2009.0,,,104.0,2,,,104.0,1,,,104.0,0,,,1,5144
ETH,ET,1948.0,3164.0,18812.0,dogano adami,52228.0,35.0732,8.8923197,3,,,2009.0,,,102.0,10,,,102.0,17,,,102.0,3,,,1,5128
ETH,ET,1948.0,3144.0,18939.0,dololo jila,52416.0,38.902699,8.5766201,3,,,2009.0,,,106.0,0,,,106.0,3,,,106.0,0,,,1,5189
ETH,ET,1948.0,3132.0,18869.0,ebisa,52318.0,40.648998,7.16571,3,,,2009.0,,,98.0,1,,,98.0,0,,,98.0,0,,,1,5159
ETH,ET,1948.0,3132.0,18954.0,ela bidre,52451.0,39.632,5.9159999,3,,,0.0,,,102.0,5,,,102.0,0,,,102.0,1,,,3,5206
ETH,ET,1943.0,3193.0,18613.0,fenote selam,52375.0,37.2597576,10.6794457,1,,,0.0,,,205.0,64,,,0.0,0,,,0.0,0,,,3,5033
ETH,ET,1948.0,16644.0,18739.0,fincha vally,52139.0,37.3666964,9.5682312,1,,,2009.0,,,108.0,0,,,108.0,1,,,108.0,0,,,1,5097
ETH,ET,1948.0,16644.0,18920.0,finchaa sugar project   camp 10,52384.0,37.4255083,9.7863101,1,,,1995.0,,,104.0,22,,,104.0,15,,,104.0,6,,,3,5176
ETH,ET,1948.0,16644.0,18920.0,finchaa sugar project   camp 11,52385.0,37.4255083,9.7863101,1,,,1995.0,,,204.0,35,,,204.0,53,,,204.0,8,,,3,5178
ETH,ET,1948.0,16644.0,18920.0,finchaa sugar project   camp 12,52386.0,37.4255083,9.7863101,1,,,1995.0,,,145.0,26,,,145.0,44,,,145.0,20,,,3,5175
ETH,ET,1948.0,16644.0,18920.0,finchaa sugar project   camp 6,52387.0,37.4255083,9.7863101,1,,,1995.0,,,44.0,1,,,44.0,15,,,44.0,1,,,3,5177
ETH,ET,1948.0,16644.0,18920.0,finchaa sugar project   camp 7,52388.0,37.4255083,9.7863101,1,,,1995.0,,,432.0,143,,,432.0,117,,,432.0,9,,,3,5180
ETH,ET,1948.0,16644.0,18920.0,finchaa sugar project   camp 8,52389.0,37.4255083,9.7863101,1,,,1995.0,,,187.0,24,,,187.0,43,,,187.0,6,,,3,5179
ETH,ET,1948.0,16644.0,18920.0,finchaa sugar project   camp 9,52390.0,37.4255083,9.7863101,1,,,1995.0,,,200.0,8,,,200.0,80,,,200.0,4,,,3,5174
ETH,ET,1948.0,3159.0,19012.0,gangalata,52500.0,37.3792,7.8775401,3,,,2009.0,,,65.0,27,,,65.0,4,,,65.0,3,,,1,5233
ETH,ET,1950.0,3148.0,19135.0,gede bonke,52179.0,37.333302,6.0500002,3,,,1993.0,,,81.0,13,,,81.0,9,,,81.0,3,,,3,5266
ETH,ET,1948.0,3189.0,19022.0,gemechis,52517.0,41.1138,9.1351604,3,,,2009.0,,,97.0,20,,,97.0,7,,,97.0,0,,,1,5241
ETH,ET,1943.0,3171.0,18602.0,gendewa,,37.152,12.67,3,,,1995.0,5.0,16.0,113.0,38,,,113.0,5,,,113.0,14,,,3,30121
ETH,ET,1948.0,3159.0,19005.0,gera,52497.0,36.3967538,7.5325144,1,,,0.0,,,197.0,37,,,197.0,106,,,197.0,14,,,3,5231
ETH,ET,1948.0,3132.0,18823.0,gomgoma,52245.0,39.836201,6.3174700999999995,3,,,2009.0,,,107.0,15,,,107.0,2,,,107.0,7,,,1,5137
ETH,ET,1943.0,3171.0,18602.0,gondar,,37.46667,12.6,4,,,2008.0,5.0,20.0,505.0,10,,,505.0,51,,,505.0,7,,,1,28789
ETH,ET,1948.0,3132.0,18823.0,gongoma,52246.0,37.9056665,14.7788638,1,,,2009.0,,,107.0,15,,,107.0,2,,,107.0,7,,,1,5138
ETH,ET,1948.0,3132.0,18785.0,gora badimena,52195.0,40.244499,6.8402901,3,,,2009.0,,,106.0,52,,,106.0,4,,,106.0,17,,,1,5119
ETH,ET,1948.0,3132.0,18785.0,gora badimena,52195.0,40.244499,6.8402901,3,,,2009.0,,,107.0,52,,,107.0,4,,,107.0,17,,,1,5118
ETH,ET,1948.0,3151.0,18945.0,gorbicha,52424.0,39.565498,5.3181901,3,,,2009.0,,,106.0,4,,,106.0,4,,,106.0,4,,,1,5192
ETH,ET,1948.0,3151.0,18945.0,gorbicha,52424.0,39.565498,5.3181901,3,,,2009.0,,,95.0,4,,,95.0,3,,,95.0,2,,,1,5194
ETH,ET,1943.0,3171.0,18602.0,gorgora,,37.300999,12.234,3,,,1995.0,5.0,16.0,120.0,33,,,120.0,85,,,120.0,32,,,3,30120
ETH,ET,1943.0,3171.0,18582.0,gorgora,52254.0,37.2945303,12.238523,1,,,0.0,,,100.0,8,,,0.0,0,,,0.0,0,,,3,4990
ETH,ET,1943.0,3171.0,18602.0,gorgora and chuahit,,37.29453,12.238523,3,,,2012.0,,,261.0,13,,,261.0,104,,,261.0,16,,,1,29524
ETH,ET,1943.0,3171.0,18562.0,gossaye,52216.0,37.082001,12.501,3,,,0.0,,,64.0,2,,,0.0,0,,,0.0,0,,,3,4974
ETH,ET,1948.0,3189.0,18816.0,gudis,52234.0,40.420399,8.5640802,3,,,2009.0,,,110.0,58,,,110.0,1,,,110.0,0,,,1,5131
ETH,ET,1943.0,3171.0,18602.0,guramba,,37.365002,12.368,3,,,1995.0,5.0,16.0,94.0,26,,,94.0,28,,,94.0,9,,,3,30115
ETH,ET,1948.0,3181.0,19332.0,guru baka,52333.0,37.955601,8.4753599,3,,,2009.0,,,97.0,56,,,97.0,1,,,97.0,0,,,1,5153
ETH,ET,1943.0,3171.0,18602.0,hamusit,,37.566002,11.783,3,,,1995.0,7.0,19.0,120.0,40,,,120.0,61,,,120.0,24,,,3,31530
ETH,ET,1948.0,3151.0,19027.0,handoya haro,52524.0,39.327599,5.83603,3,,,2009.0,,,105.0,61,,,105.0,1,,,105.0,0,,,1,5246
ETH,ET,1948.0,3151.0,19027.0,handuula haro,52525.0,39.327599,5.83603,3,,,2009.0,,,105.0,61,,,105.0,1,,,105.0,0,,,1,5247
ETH,ET,1948.0,3132.0,18985.0,hara dube,52481.0,41.229698,6.88554,3,,,2009.0,,,97.0,1,,,97.0,1,,,97.0,0,,,1,5221
ETH,ET,1948.0,3132.0,18869.0,harawa 3,52320.0,40.703999,7.3081799,3,,,2009.0,,,103.0,1,,,103.0,1,,,103.0,0,,,1,5158
ETH,ET,1948.0,3132.0,18869.0,harawa 3,52319.0,40.703999,7.3081799,3,,,2009.0,,,103.0,1,,,103.0,1,,,103.0,0,,,1,5157
ETH,ET,1948.0,3132.0,18985.0,hare dube,52482.0,41.4021145,9.4600195,2,,,2009.0,,,97.0,1,,,97.0,1,,,97.0,0,,,1,5224
ETH,ET,1948.0,3194.0,18892.0,haro choroka,52347.0,35.819801,8.8835001,3,,,2009.0,,,109.0,36,,,109.0,25,,,109.0,0,,,1,5168
ETH,ET,1948.0,3164.0,18903.0,haro mechara,52374.0,40.3343827,8.6018034,2,,,2009.0,,,108.0,8,,,108.0,36,,,108.0,6,,,1,5171
ETH,ET,1948.0,3135.0,19017.0,hatuse,52510.0,37.396,5.1469998,3,,,2009.0,,,101.0,1,,,101.0,4,,,101.0,0,,,1,5238
ETH,ET,1948.0,3135.0,19017.0,hatuse,52509.0,37.396,5.1469998,3,,,2009.0,,,106.0,1,,,106.0,4,,,106.0,0,,,1,5239
ETH,ET,1948.0,3190.0,18814.0,humuru korke,52232.0,37.3451,8.89884,3,,,2009.0,,,104.0,78,,,104.0,12,,,104.0,6,,,1,5129
ETH,ET,1949.0,3143.0,18775.0,ifa,52181.0,39.82895,9.2219852,1,,,2009.0,,,106.0,2,,,106.0,1,,,106.0,0,,,1,5114
ETH,ET,1943.0,3171.0,18603.0,infraz,52327.0,37.498001,12.685,3,,,0.0,,,50.0,5,,,0.0,0,,,0.0,0,,,3,5024
ETH,ET,1948.0,3155.0,18773.0,jafati sedo,52177.0,35.654202,8.2087603,3,,,2009.0,,,96.0,33,,,96.0,5,,,96.0,2,,,1,5112
ETH,ET,1948.0,3146.0,18890.0,jarreo tolera,52345.0,36.569199,9.2721205,3,,,2009.0,,,109.0,51,,,109.0,7,,,109.0,4,,,1,5167
ETH,ET,1948.0,3144.0,18747.0,jela aluto,52148.0,38.688598999999996,7.7632598999999995,3,,,2009.0,,,105.0,1,,,105.0,4,,,105.0,3,,,1,5102
ETH,ET,1948.0,3164.0,18921.0,jimma tibe,52391.0,34.7948,8.9661303,3,,,2009.0,,,110.0,7,,,110.0,18,,,110.0,10,,,1,5181
ETH,ET,1948.0,3159.0,18928.0,jimma town,52403.0,36.8357927,7.6738908,1,,,2013.0,,,622.0,34,,,622.0,126,,,622.0,242,,,1,5185
ETH,ET,1948.0,3159.0,18928.0,jimma town,52403.0,36.8357927,7.6738908,1,,,2013.0,,,133.8,76,,,134.4,25,,,134.1,33,,,1,5187
ETH,ET,1948.0,3143.0,18881.0,jiru ifa,52334.0,41.2528,9.4227695,3,,,2009.0,,,78.0,1,,,78.0,1,,,78.0,0,,,1,5164
ETH,ET,1948.0,3194.0,18853.0,jogir,52308.0,36.021,9.03269,3,,,2009.0,,,111.0,15,,,111.0,12,,,111.0,1,,,1,5152
ETH,ET,1948.0,3194.0,18857.0,kata aba korma,52309.0,35.417301,9.1255102,3,,,2009.0,,,103.0,32,,,103.0,7,,,103.0,2,,,1,5154
ETH,ET,1943.0,3173.0,18634.0,kebele 16,52455.0,39.150002,11.8,3,,,1995.0,,,120.0,11,,,120.0,33,,,120.0,15,,,3,5048
ETH,ET,1941.0,0.0,18494.0,kechene,52431.0,38.7512169,9.0545602,1,,,1991.0,,,0.0,0,,,84.0,57,,,84.0,37,,,3,4948
ETH,ET,1943.0,3180.0,18619.0,kemissie,52401.0,39.8733409,10.7242788,1,,,2010.0,,,0.0,0,,,345.0,50,,,345.0,13,,,1,5038
ETH,ET,1948.0,3189.0,18839.0,kencha wadesa,52286.0,41.004902,9.1872702,3,,,2009.0,,,95.0,4,,,95.0,1,,,95.0,0,,,1,5143
ETH,ET,1948.0,3159.0,18953.0,kentery,52446.0,36.797298,7.8636298,3,,,2009.0,,,83.0,18,,,83.0,19,,,83.0,12,,,1,5203
ETH,ET,1948.0,3689.0,19002.0,keransa kubi,52494.0,38.4823,7.33038,3,,,2009.0,,,103.0,30,,,103.0,16,,,103.0,23,,,1,5227
ETH,ET,1948.0,3689.0,18766.0,kersa gera,52172.0,38.6353,7.35253,3,,,2009.0,,,108.0,24,,,108.0,8,,,108.0,6,,,1,5111
ETH,ET,1948.0,3151.0,18750.0,kiltu sorsa,52154.0,39.017502,5.9244699,3,,,2009.0,,,109.0,39,,,109.0,12,,,109.0,3,,,1,5104
ETH,ET,1948.0,3151.0,18750.0,kiltu sorsa,52154.0,39.017502,5.9244699,3,,,2009.0,,,107.0,38,,,107.0,11,,,107.0,3,,,1,5105
ETH,ET,1943.0,3178.0,18594.0,kimer dingaye,52299.0,38.215,11.817,3,,,0.0,,,50.0,0,,,0.0,0,,,0.0,0,,,3,5008
ETH,ET,1948.0,3159.0,18928.0,kitimbile,52404.0,37.027599,7.70819,3,,,2009.0,,,83.0,38,,,83.0,13,,,83.0,7,,,1,5182
ETH,ET,1948.0,3194.0,18774.0,kobor chandi,52178.0,34.558399,9.4807301,3,,,2009.0,,,107.0,21,,,107.0,23,,,107.0,1,,,1,5113
ETH,ET,1943.0,3171.0,18602.0,koladeba,,37.316002,12.419,3,,,1995.0,5.0,16.0,117.0,13,,,117.0,63,,,117.0,37,,,3,30122
ETH,ET,1943.0,3171.0,18582.0,koladiba,52259.0,37.3239401,12.4226943,1,,,0.0,,,77.0,5,,,0.0,0,,,0.0,0,,,3,4992
ETH,ET,1943.0,3180.0,18618.0,kombolcha,52397.0,39.7291837,11.0849336,1,,,1996.0,,,105.0,0,,,105.0,40,,,105.0,11,,,3,5036
ETH,ET,1943.0,3171.0,18562.0,kossoye,52217.0,37.082001,12.501,3,,,0.0,,,61.0,0,,,0.0,0,,,0.0,0,,,3,4969
ETH,ET,1948.0,3689.0,18766.0,langano,52173.0,38.7577605,7.5931759,1,,,2003.0,,,89.0,46,,,89.0,2,,,89.0,6,,,2,5110
ETH,ET,1948.0,3189.0,18981.0,legelaftu,52476.0,40.831699,8.9246702,3,,,2009.0,,,110.0,56,,,110.0,0,,,110.0,0,,,1,5219
ETH,ET,1948.0,3189.0,18958.0,lubu dekeba,52460.0,41.145599,9.0750599,3,,,2009.0,,,100.0,43,,,100.0,5,,,100.0,0,,,1,5209
ETH,ET,1943.0,3171.0,18602.0,mahedere mariam,,37.914001,11.721,3,,,1995.0,7.0,19.0,90.0,18,,,90.0,34,,,90.0,18,,,3,31531
ETH,ET,1943.0,3171.0,18603.0,makisegnit,52328.0,37.5533935,12.3852364,1,,,0.0,,,48.0,1,,,0.0,0,,,0.0,0,,,3,5021
ETH,ET,1943.0,26086.0,18611.0,meda,52354.0,39.380001,9.0860004,3,,,0.0,,,62.0,1,,,62.0,1,,,62.0,0,,,3,5032
ETH,ET,1948.0,3135.0,18837.0,megado,52283.0,38.221298,3.8966401,3,,,2009.0,,,106.0,0,,,106.0,0,,,106.0,0,,,1,5142
ETH,ET,1943.0,3180.0,18682.0,mekaneselam,52546.0,38.7603778,10.7512414,1,,,1996.0,,,188.0,7,,,188.0,18,,,188.0,5,,,3,5066
ETH,ET,1948.0,3132.0,18823.0,melka amana,52247.0,39.7892,6.24612,3,,,2009.0,,,105.0,10,,,105.0,6,,,105.0,8,,,1,5134
ETH,ET,1948.0,3132.0,18823.0,melka amana,52247.0,39.7892,6.24612,3,,,2009.0,,,107.0,10,,,107.0,6,,,107.0,9,,,1,5136
ETH,ET,1948.0,3132.0,18823.0,mena,52248.0,39.848999,6.4169998,3,,,0.0,,,199.0,58,,,199.0,22,,,199.0,28,,,3,5135
ETH,ET,1948.0,16645.0,19031.0,menegesha kolobo,52532.0,38.5662162,9.0539315,1,,,1991.0,,,0.0,0,,,87.0,51,,,87.0,35,,,3,5252
ETH,ET,1943.0,3193.0,18633.0,merawi,52448.0,37.1553383,11.4129784,1,,,0.0,,,150.0,35,,,0.0,0,,,0.0,0,,,3,5046
ETH,ET,1943.0,3171.0,18602.0,meseret elementary school,52326.0,37.456944,12.62,3,,,0.0,,,100.0,6,,,100.0,10,,,100.0,2,,,3,5018
ETH,ET,1943.0,3193.0,18547.0,meshenti,52183.0,37.2838328,11.4745024,1,,,2011.0,,,63.0,32,,,63.0,15,,,63.0,3,,,1,4964
ETH,ET,1948.0,3135.0,18796.0,metokomia hara,52202.0,38.186001,5.625,3,,,2009.0,,,72.0,14,,,72.0,13,,,72.0,2,,,1,5122
ETH,ET,1948.0,3135.0,18796.0,metokonya hora,52203.0,38.139999,5.5999999,3,,,2009.0,,,110.0,20,,,110.0,17,,,110.0,4,,,1,5125
ETH,ET,1948.0,3189.0,18981.0,midhagdu,52477.0,40.784801,8.8761501,3,,,2009.0,,,91.0,27,,,91.0,1,,,91.0,0,,,1,5218
ETH,ET,1943.0,3142.0,18609.0,mota,52346.0,37.8777561,11.0785015,1,,,0.0,,,100.0,4,,,0.0,0,,,0.0,0,,,3,5030
ETH,ET,1948.0,3143.0,18818.0,mumicho,52241.0,41.497601,9.1426601,3,,,2009.0,,,81.0,32,,,81.0,0,,,81.0,0,,,1,5133
ETH,ET,1948.0,3135.0,18796.0,mure turkuma,52204.0,38.2631,5.71174,3,,,2009.0,,,106.0,0,,,106.0,28,,,106.0,1,,,1,5124
ETH,ET,1948.0,3135.0,18796.0,muri turkuma,52205.0,38.2631,5.7114701,3,,,2009.0,,,106.0,0,,,106.0,28,,,106.0,1,,,1,5123
ETH,ET,1943.0,3171.0,18602.0,nefas mewcha,,38.465,11.735,3,,,1995.0,7.0,19.0,116.0,0,,,116.0,10,,,116.0,0,,,3,31528
ETH,ET,1943.0,3178.0,18628.0,nefas mewcha,52419.0,38.4692211,11.7380766,1,,,0.0,,,61.0,0,,,0.0,0,,,0.0,0,,,3,5041
ETH,ET,1948.0,3194.0,19034.0,nono gino,52539.0,35.344501,8.9456701,3,,,2009.0,,,101.0,24,,,101.0,36,,,101.0,4,,,1,5253
ETH,ET,1948.0,3132.0,18954.0,oborso,52452.0,39.4009967,6.1344591,1,,,0.0,,,77.0,48,,,77.0,65,,,77.0,49,,,3,5205
ETH,ET,1948.0,3189.0,18895.0,oda ananl,52350.0,40.4641,8.818090399999999,3,,,2009.0,,,96.0,28,,,96.0,0,,,96.0,0,,,1,5169
ETH,ET,1948.0,3194.0,18949.0,odora tobera,52441.0,34.965401,9.8265104,3,,,2009.0,,,107.0,75,,,107.0,0,,,107.0,0,,,1,5199
ETH,ET,1948.0,3146.0,18875.0,ongobo bekennisa,52322.0,36.994099,9.0855904,3,,,2009.0,,,110.0,61,,,110.0,26,,,110.0,1,,,1,5162
ETH,ET,1948.0,3155.0,18787.0,qachi,52199.0,35.527699,8.3530102,3,,,2009.0,,,98.0,46,,,98.0,8,,,98.0,0,,,1,5120
ETH,ET,1948.0,3159.0,18946.0,rayya,52433.0,37.0569,8.4420204,3,,,2009.0,,,95.0,44,,,95.0,21,,,95.0,0,,,1,5197
ETH,ET,1943.0,3171.0,18602.0,sanja,,37.3,12.983333,3,,,2013.0,5.0,19.0,384.0,42,,,384.0,6,,,384.0,1,,,1,29495
ETH,ET,1943.0,3171.0,18602.0,sanja town,,37.3,12.983333,3,,,2013.0,,,385.0,143,,,385.0,62,,,385.0,3,,,1,29537
ETH,ET,1943.0,3180.0,18629.0,school in addis ababa,,38.8167,4.75,4,,,2005.0,7.0,17.0,50.0,0,,,50.0,3,,,50.0,1,,,2,31348
ETH,ET,1948.0,3144.0,18746.0,school in addis ababa,52142.0,39.266701,8.5500002,3,,,2005.0,,,50.0,3,,,50.0,8,,,50.0,1,,,2,5098
ETH,ET,1944.0,3131.0,18687.0,school in addis ababa,52187.0,38.7279819,8.9963835,2,,,2005.0,,,49.0,15,,,49.0,6,,,49.0,0,,,2,5071
ETH,ET,1948.0,3135.0,18764.0,school in addis ababa,52171.0,38.7279819,8.9963835,2,,,2005.0,,,50.0,0,,,50.0,3,,,50.0,1,,,2,5109
ETH,ET,1947.0,3154.0,18732.0,school in addis ababa,52358.0,42.116699,9.3166704,3,,,2005.0,,,50.0,11,,,50.0,11,,,50.0,0,,,2,5088
ETH,ET,1947.0,3154.0,18732.0,school in addis ababa,52358.0,42.116699,9.3166704,3,,,2005.0,,,65.0,1,,,65.0,2,,,65.0,1,,,2,5094
ETH,ET,1947.0,3154.0,18732.0,school in addis ababa,52358.0,42.116699,9.3166704,3,,,2005.0,,,66.0,4,,,66.0,1,,,66.0,3,,,2,5089
ETH,ET,1945.0,3141.0,18707.0,school in adi gudem,,41.8566146,9.5815123,1,,,2005.0,7.0,17.0,67.0,0,,,67.0,3,,,67.0,0,,,2,31359
ETH,ET,1950.0,3152.0,19242.0,school in adigrat,52483.0,39.4605612,14.278304,1,,,2005.0,,,47.0,5,,,47.0,26,,,47.0,4,,,2,5305
ETH,ET,1948.0,3151.0,18750.0,school in adigrat,52155.0,39.4605612,14.278304,1,,,2005.0,,,50.0,3,,,50.0,5,,,50.0,1,,,2,5106
ETH,ET,1951.0,3176.0,19324.0,school in adigrat,52516.0,39.4702674,14.2710308,1,,,2005.0,,,50.0,11,,,50.0,3,,,50.0,0,,,2,5331
ETH,ET,1947.0,3154.0,18732.0,school in adigrat,52359.0,39.4605612,14.278304,1,,,2005.0,,,68.0,0,,,68.0,0,,,68.0,0,,,2,5092
ETH,ET,1943.0,3193.0,18633.0,school in adwa,52449.0,38.8937176,14.1636465,1,,,2005.0,,,49.0,7,,,49.0,13,,,49.0,3,,,2,5047
ETH,ET,1951.0,3179.0,19280.0,school in aksum,52164.0,38.7626678,14.1344071,1,,,2005.0,,,50.0,0,,,50.0,17,,,50.0,0,,,2,5323
ETH,ET,1943.0,3171.0,18602.0,school in alamata,,38.466702,11.7333,3,,,2005.0,7.0,17.0,49.0,1,,,49.0,9,,,49.0,2,,,2,31444
ETH,ET,1943.0,3178.0,18628.0,school in alamata,52421.0,39.5536782,12.41967,1,,,2005.0,,,49.0,1,,,49.0,9,,,49.0,2,,,2,5040
ETH,ET,1950.0,3184.0,19198.0,school in arero,52371.0,38.466702,7.0500002,3,,,2005.0,,,49.0,1,,,49.0,28,,,49.0,15,,,2,5285
ETH,ET,1951.0,3176.0,19319.0,school in awassa,52505.0,38.4844027,7.0803218,1,,,2005.0,,,50.0,0,,,50.0,2,,,50.0,3,,,2,5330
ETH,ET,1948.0,3143.0,18850.0,school in bahir dar,52303.0,37.4143606,11.5820144,1,,,2005.0,,,50.0,10,,,50.0,17,,,50.0,3,,,2,5150
ETH,ET,1950.0,3152.0,19242.0,school in bahir dar,52484.0,37.3613533,11.5742086,1,,,2005.0,,,50.0,15,,,50.0,5,,,50.0,1,,,2,5306
ETH,ET,1945.0,3141.0,18707.0,school in bako tibe,,41.866699,9.58333,3,,,2005.0,7.0,17.0,66.0,0,,,66.0,5,,,66.0,1,,,2,31437
ETH,ET,1943.0,3180.0,18629.0,school in bati,,37.383301,5.06667,4,,,2005.0,7.0,17.0,49.0,1,,,49.0,3,,,49.0,0,,,2,31460
ETH,ET,1948.0,3135.0,19017.0,school in bati,52511.0,42.0441594,9.4201705,1,,,2005.0,,,49.0,1,,,49.0,3,,,49.0,0,,,2,5235
ETH,ET,1945.0,3141.0,18707.0,school in bedeno,,41.8566146,9.5815123,1,,,2005.0,7.0,17.0,44.0,0,,,44.0,1,,,44.0,1,,,2,31412
ETH,ET,1950.0,3153.0,19216.0,school in bonga,52422.0,36.2468128,7.2671901,1,,,2005.0,,,44.0,1,,,44.0,10,,,44.0,0,,,2,5293
ETH,ET,1945.0,3141.0,18707.0,school in bore,,41.850142,9.6008747,1,,,2005.0,7.0,17.0,68.0,0,,,68.0,0,,,68.0,2,,,2,31433
ETH,ET,1945.0,3141.0,18707.0,school in butajira,,41.866699,9.58333,3,,,2005.0,7.0,17.0,66.0,0,,,66.0,1,,,66.0,2,,,2,31466
ETH,ET,1945.0,3141.0,18707.0,school in darro lebu,,41.850142,9.6008747,1,,,2005.0,7.0,17.0,68.0,0,,,68.0,1,,,68.0,1,,,2,31377
ETH,ET,1948.0,3144.0,18746.0,school in debrebrihan,52143.0,39.5213618,9.6568423,2,,,2005.0,,,49.0,0,,,49.0,0,,,49.0,0,,,2,5099
ETH,ET,1948.0,3151.0,18945.0,school in dire dawa,52426.0,41.8775922,9.592786199999999,1,,,2005.0,,,50.0,15,,,50.0,34,,,50.0,19,,,2,5196
ETH,ET,1948.0,3151.0,18945.0,school in dire dawa,52426.0,41.8775922,9.592786199999999,1,,,2005.0,,,50.0,1,,,50.0,7,,,50.0,3,,,2,5190
ETH,ET,1943.0,3171.0,18602.0,school in dire dawa,,37.25,12.4242,3,,,2005.0,7.0,17.0,50.0,2,,,50.0,6,,,50.0,3,,,2,31380
ETH,ET,1943.0,3171.0,18602.0,school in dire dawa,,37.25,12.4242,3,,,2005.0,7.0,17.0,50.0,2,,,50.0,1,,,50.0,0,,,2,31407
ETH,ET,1943.0,3171.0,18665.0,school in dire dawa,52503.0,37.044201,12.9842,3,,,2005.0,,,50.0,2,,,50.0,1,,,50.0,0,,,2,5058
ETH,ET,1948.0,3151.0,18945.0,school in dodolla,52427.0,39.1803741,6.9791945,1,,,2005.0,,,50.0,1,,,50.0,5,,,50.0,1,,,2,5191
ETH,ET,1943.0,3142.0,18550.0,school in enticho,52190.0,39.1517665,14.2790283,1,,,2005.0,,,50.0,0,,,50.0,11,,,50.0,0,,,2,4966
ETH,ET,1943.0,3171.0,18602.0,school in fitche,,38.016701,11.85,3,,,2005.0,7.0,17.0,50.0,0,,,50.0,12,,,50.0,4,,,2,31387
ETH,ET,1943.0,3180.0,18629.0,school in gambella,,37.650002,4.65,4,,,2005.0,7.0,17.0,49.0,0,,,49.0,11,,,49.0,1,,,2,31478
ETH,ET,1943.0,3126.0,18606.0,school in gambella,52335.0,34.1531947,7.9219687,1,,,2005.0,,,50.0,2,,,50.0,22,,,50.0,9,,,2,5027
ETH,ET,1948.0,3135.0,19017.0,school in gambella,52512.0,34.1531947,7.9219687,1,,,2005.0,,,49.0,0,,,49.0,11,,,49.0,1,,,2,5234
ETH,ET,1948.0,3151.0,18945.0,school in harar,52428.0,39.583302,5.3166699,3,,,2005.0,,,50.0,1,,,50.0,23,,,50.0,2,,,2,5195
ETH,ET,1943.0,3180.0,18683.0,school in harar,52549.0,39.41,10.5,3,,,2005.0,,,47.0,8,,,47.0,14,,,47.0,1,,,2,5067
ETH,ET,1943.0,3171.0,18602.0,school in harar,,37.623901,12.7689,3,,,2005.0,7.0,17.0,50.0,0,,,50.0,25,,,50.0,1,,,2,31350
ETH,ET,1945.0,3141.0,18707.0,school in hossana,,41.866699,9.58333,3,,,2005.0,7.0,17.0,68.0,2,,,68.0,5,,,68.0,1,,,2,31420
ETH,ET,1945.0,3141.0,18707.0,school in jijiga,,41.8566146,9.5815123,1,,,2005.0,7.0,17.0,49.0,0,,,49.0,12,,,49.0,3,,,2,31474
ETH,ET,1943.0,3171.0,18602.0,school in kemashi,,36.700001,12.9333,3,,,2005.0,7.0,17.0,50.0,6,,,50.0,1,,,50.0,0,,,2,31385
ETH,ET,1945.0,3141.0,18707.0,school in kemissie,,41.8566146,9.5815123,1,,,2005.0,7.0,17.0,50.0,0,,,50.0,7,,,50.0,3,,,2,31475
ETH,ET,1947.0,3154.0,18732.0,school in konso,52363.0,37.4387894,5.3404492,1,,,2005.0,,,67.0,2,,,67.0,1,,,67.0,0,,,2,5095
ETH,ET,1949.0,3158.0,19090.0,school in lemmen,52380.0,42.799999,9.3500004,3,,,2005.0,,,46.0,0,,,46.0,1,,,46.0,1,,,2,5260
ETH,ET,1950.0,3134.0,19233.0,school in masha,52472.0,35.4809314,7.7306338,1,,,2005.0,,,49.0,0,,,49.0,8,,,49.0,6,,,2,5303
ETH,ET,1943.0,3180.0,18682.0,school in mersa,52547.0,39.6595576,11.6649572,1,,,2005.0,,,50.0,0,,,50.0,32,,,50.0,1,,,2,5065
ETH,ET,1943.0,3180.0,18580.0,school in miti,52243.0,39.150002,11.5,3,,,2005.0,,,50.0,7,,,50.0,30,,,50.0,0,,,2,4986
ETH,ET,1950.0,3149.0,19265.0,school in mizan teferi,52535.0,35.5821994,6.9936468,1,,,2005.0,,,44.0,16,,,44.0,25,,,44.0,4,,,2,5310
ETH,ET,1949.0,3158.0,19090.0,school in nuunu kumba,52381.0,42.799999,9.3500004,3,,,2005.0,,,50.0,0,,,50.0,2,,,50.0,3,,,2,5259
ETH,ET,1943.0,3173.0,18610.0,school in sanja,52352.0,39.650002,11.6667,3,,,2005.0,,,50.0,1,,,50.0,13,,,50.0,0,,,2,5031
ETH,ET,1951.0,3176.0,19306.0,school in selekleka,52454.0,38.4761234,14.117905499999999,1,,,2005.0,,,50.0,6,,,50.0,2,,,50.0,0,,,2,5328
ETH,ET,1950.0,3184.0,19198.0,school in snnpr,52372.0,38.466702,7.0500002,3,,,2005.0,,,31.0,4,,,31.0,8,,,31.0,3,,,2,5287
ETH,ET,1950.0,3152.0,19242.0,school in sodo,52486.0,37.750987,6.8309978000000005,1,,,2005.0,,,44.0,5,,,44.0,0,,,44.0,0,,,2,5307
ETH,ET,1942.0,26089.0,18506.0,school in sodo,52176.0,41.4394,11.5636,3,,,2005.0,,,59.0,0,,,59.0,0,,,59.0,0,,,2,4950
ETH,ET,1943.0,3171.0,18602.0,school in teltele,,37.950001,11.25,3,,,2005.0,7.0,17.0,49.0,12,,,49.0,4,,,49.0,2,,,2,31483
ETH,ET,1949.0,3158.0,19090.0,school in tembien,52382.0,42.799999,9.3500004,3,,,2005.0,,,50.0,0,,,50.0,0,,,50.0,0,,,2,5261
ETH,ET,1945.0,3141.0,18707.0,school in yejube,,41.8566146,9.5815123,1,,,2005.0,7.0,17.0,50.0,1,,,50.0,4,,,50.0,3,,,2,31479
ETH,ET,1948.0,3130.0,18778.0,school in yirgalem,,39.783298,7.1,3,,,2005.0,7.0,17.0,49.0,1,,,49.0,5,,,49.0,1,,,2,31399
ETH,ET,1943.0,3171.0,18603.0,selam,52331.0,37.630001,12.264722,3,,,2013.0,,,0.0,0,,,1844.0,201,,,0.0,0,,,1,5019
ETH,ET,1948.0,3159.0,18995.0,sentema goro,52490.0,36.672901,7.7163901,3,,,2009.0,,,104.0,21,,,104.0,59,,,104.0,56,,,1,5226
ETH,ET,1943.0,3171.0,18666.0,serako,52506.0,37.066002,12.286,3,,,0.0,,,118.0,41,,,118.0,27,,,118.0,23,,,3,5061
ETH,ET,1948.0,3164.0,18763.0,shebel fana,52170.0,34.588799,8.4789801,3,,,2009.0,,,105.0,6,,,105.0,42,,,105.0,34,,,1,5108
ETH,ET,1943.0,3178.0,18583.0,shime mariam,52266.0,38.4,8.330957,1,,,1995.0,,,120.0,33,,,120.0,36,,,120.0,21,,,3,5000
ETH,ET,1943.0,3171.0,18602.0,shime mariam,,37.617001,11.551,3,,,1995.0,7.0,19.0,120.0,33,,,120.0,36,,,120.0,21,,,3,31524
ETH,ET,1948.0,16644.0,18913.0,sobokumi,52377.0,37.0951,9.9101496,3,,,2009.0,,,109.0,46,,,109.0,12,,,109.0,0,,,1,5172
ETH,ET,1948.0,3194.0,18971.0,sonbo guta,52475.0,35.5107,9.6233902,3,,,2009.0,,,110.0,11,,,110.0,4,,,110.0,0,,,1,5217
ETH,ET,1943.0,3171.0,18602.0,sufankara,,37.382999,12.384,3,,,1995.0,5.0,16.0,115.0,35,,,115.0,64,,,115.0,11,,,3,30119
ETH,ET,1946.0,3127.0,18717.0,suli,52313.0,35.0271,8.1959,3,,,2009.0,,,103.0,55,,,103.0,17,,,103.0,3,,,1,5086
ETH,ET,1948.0,3151.0,19023.0,tabe haro wato,52520.0,38.611599,6.0331502,3,,,2009.0,,,101.0,51,,,101.0,54,,,101.0,8,,,1,5242
ETH,ET,1943.0,3171.0,18602.0,tabor,,38.009998,11.854,3,,,1995.0,7.0,19.0,126.0,20,,,126.0,38,,,126.0,3,,,3,31538
ETH,ET,1948.0,3151.0,19023.0,tebe haro wato,52521.0,38.611599,6.0331502,3,,,2009.0,,,108.0,54,,,108.0,56,,,108.0,9,,,1,5243
ETH,ET,1943.0,3171.0,18566.0,telma,52221.0,37.766701,13.0667,3,,,0.0,,,100.0,0,,,0.0,0,,,0.0,0,,,3,4975
ETH,ET,1943.0,3171.0,18665.0,tikil dingaye,52504.0,37.049999,12.984,3,,,0.0,,,101.0,42,,,0.0,0,,,0.0,0,,,3,5057
ETH,ET,1943.0,3126.0,18606.0,tilili,52336.0,37.021246,10.8512009,1,,,0.0,,,150.0,2,,,0.0,0,,,0.0,0,,,3,5025
ETH,ET,1948.0,3689.0,19004.0,toga,52496.0,38.525501,7.1648102,3,,,2009.0,,,97.0,0,,,97.0,24,,,97.0,19,,,1,5229
ETH,ET,1948.0,3130.0,19011.0,ufara agemesa,52499.0,39.513901,8.34863,3,,,2009.0,,,107.0,0,,,107.0,1,,,107.0,0,,,1,5232
ETH,ET,1948.0,3159.0,18983.0,waktola,52478.0,37.219299,7.7476802,3,,,2009.0,,,83.0,20,,,83.0,13,,,83.0,3,,,1,5220
ETH,ET,1948.0,3189.0,18805.0,wedeyiti,52220.0,40.882,9.1064301,3,,,2009.0,,,110.0,0,,,110.0,0,,,110.0,0,,,1,5126
ETH,ET,1943.0,3171.0,18602.0,wereta,,37.696999,11.917,3,,,1995.0,7.0,19.0,120.0,10,,,120.0,24,,,120.0,18,,,3,31527
ETH,ET,1943.0,3193.0,18658.0,wetet abay,52492.0,37.2093746,11.3097392,1,,,0.0,,,150.0,44,,,0.0,0,,,0.0,0,,,3,5055
ETH,ET,1950.0,3186.0,19138.0,woito,52189.0,36.9903698,5.3731739,1,,,1993.0,,,146.0,45,,,146.0,1,,,146.0,8,,,3,5267
ETH,ET,1950.0,3184.0,19266.0,wondo  genet,52538.0,38.6188955,7.0841684,1,,,1999.0,,,0.0,0,,,300.0,248,,,300.0,257,,,3,5312
ETH,ET,1950.0,3184.0,19198.0,wondo  genet,52373.0,38.6188955,7.0841684,1,,,2000.0,,,0.0,0,,,1160.0,892,,,1160.0,1021,,,3,5284
ETH,ET,1950.0,3184.0,19266.0,wondo genet forestry,52537.0,38.6188955,7.0841684,1,,,1999.0,,,0.0,0,,,149.0,100,,,149.0,129,,,3,5313
ETH,ET,1948.0,3130.0,18778.0,yadot primary school,,39.850196,6.412105,3,,,2013.0,,,340.0,2,,,340.0,16,,,340.0,7,,,1,29535
ETH,ET,1943.0,3171.0,18602.0,yefag,,37.716,12.085,3,,,1995.0,7.0,19.0,57.0,13,,,57.0,22,,,57.0,2,,,3,31542
ETH,ET,1943.0,3171.0,18602.0,zarema,,37.882,13.334,3,,,1995.0,5.0,19.0,90.0,5,,,90.0,25,,,90.0,0,,,3,30112
ETH,ET,1943.0,3171.0,18533.0,zarema,52151.0,37.881734,13.339907,1,,,0.0,,,145.0,47,,,0.0,0,,,0.0,0,,,3,4958
ETH,ET,1943.0,3171.0,18533.0,zarima,52153.0,37.881734,13.339907,1,,,2009.0,,,319.0,61,,,319.0,70,,,319.0,8,,,1,4954
ETH,ET,1943.0,3171.0,18602.0,zarima,,37.886391,13.350833,3,,,2009.0,5.0,17.0,319.0,61,,,319.0,70,,,319.0,8,,,1,31546
ETH,ET,1943.0,3193.0,18547.0,zeghie,52185.0,37.3333333,11.7,2,,,1991.0,,,160.0,10,,,160.0,97,,,160.0,80,,,3,4961
ETH,ET,1943.0,3193.0,18547.0,zeghie junior,52186.0,37.3333333,11.7,2,,,1991.0,,,300.0,4,,,300.0,233,,,300.0,194,,,3,4962
ETH,ET,1943.0,3171.0,18602.0,zengaj,,37.499001,12.369,3,,,1995.0,5.0,16.0,112.0,30,,,112.0,45,,,112.0,30,,,3,30125
