iso3,iso2,admin1_id,admin2_id,iu_id,location,site_id,longitude,latitude,georeliability,location_type,survey_type,year,age_start,age_end,hk_examined,hk_positive,hk_perc_highinfection,hk_perc_moderateinfection,asc_examined,asc_positive,asc_perc_highinfection,asc_perc_moderateinfection,tt_examined,tt_positive,tt_perc_highinfection,tt_perc_moderateinfection,quality,sn
RWA,RW,3913,38118,38118,apapec irebero,,30.07377,-1.920906,3,,mapping,2014,8.0,18.0,50,0,0.0,0.0,50,0,0.0,0.0,50,0,0.0,0.0,1,22619
RWA,RW,3913,38120,38120,ape rugunga,56568.0,30.0714885,-1.95716,1,,,2008,,,50,0,,,50,0,,,50,4,,,1,13252
RWA,RW,3913,38120,38120,ape rugunga,16119.0,30.0714885,-1.95716,1,,,2007,,,0,0,,,50,0,,,0,0,,,1,13255
RWA,RW,3916,38139,38139,apefe mweya,,29.2559,-1.69784,3,,mapping,2014,8.0,18.0,45,0,0.0,0.0,45,4,0.0,0.044,45,12,0.0,0.022,1,22742
RWA,RW,3916,38137,38137,bigogwe,56549.0,29.4209845,-1.6284478,1,,,2008,,,57,2,,,57,52,,,57,50,,,1,13374
RWA,RW,3916,38137,38137,bigogwe,16103.0,29.4209845,-1.6284478,1,,,2008,,,0,0,,,57,0,,,0,0,,,1,13379
RWA,RW,3916,38134,38134,bigugu,56517.0,29.2569444,-2.4344444,1,,,2008,,,55,1,,,55,13,,,55,8,,,1,13363
RWA,RW,3916,38134,38134,bigugu,16064.0,29.2569444,-2.4344444,1,,,2007,,,0,0,,,55,0,,,0,0,,,1,13354
RWA,RW,3916,38138,38138,bigutu,56558.0,28.98636,-2.49244,3,,,2008,,,62,17,,,62,30,,,62,36,,,1,13391
RWA,RW,3916,38138,38138,bigutu,16115.0,28.98636,-2.49244,3,,,2008,,,0,0,,,62,0,,,0,0,,,1,13387
RWA,RW,3914,38121,38121,birwa i,,29.71921,-1.461381,3,,mapping,2014,8.0,18.0,50,0,0.0,0.0,50,34,0.0,0.06,50,27,0.0,0.02,1,22601
RWA,RW,3914,38121,38121,birwa ii,,29.72916,-1.420057,3,,mapping,2014,8.0,18.0,47,0,0.0,0.0,47,33,0.0,0.106,47,26,0.0,0.021,1,22602
RWA,RW,3915,38133,38133,bisika,56580.0,29.79088,-1.5963889,1,,,2008,,,60,23,,,60,25,,,60,3,,,1,13348
RWA,RW,3915,38133,38133,bisika,16135.0,29.79088,-1.5963889,1,,,2008,,,0,0,,,60,0,,,0,0,,,1,13353
RWA,RW,3914,38121,38121,buhita i,,29.90763,-1.485418,3,,mapping,2014,8.0,18.0,50,0,0.0,0.0,50,28,0.0,0.16,50,18,0.0,0.0,1,22603
RWA,RW,3914,38121,38121,buhita i,16029.0,29.90763,-1.485418,3,,,2007,,,0,0,,,65,0,,,0,0,,,1,13263
RWA,RW,3914,38121,38121,buhita ii,,29.87126,-1.45089,3,,mapping,2014,8.0,18.0,50,4,0.0,0.0,50,37,0.0,0.38,50,24,0.0,0.0,1,22604
RWA,RW,3916,38137,38137,bukinanyana officiel,,29.46319,-1.623503,3,,mapping,2014,8.0,18.0,50,0,0.0,0.0,50,46,0.0,0.32,50,34,0.0,0.0,1,22702
RWA,RW,3914,38123,38123,bukure,56501.0,30.208334,-1.8011110000000001,3,,,2008,,,60,21,,,60,21,,,60,4,,,1,13275
RWA,RW,3914,38123,38123,bukure,16048.0,30.208334,-1.8011110000000001,3,,,2008,,,0,0,,,60,0,,,0,0,,,1,13274
RWA,RW,3914,38124,38124,bumara,16089.0,29.667,-1.5670000000000002,3,,,2007,,,0,0,,,68,0,,,0,0,,,1,13287
RWA,RW,3914,38125,38125,buramira,56586.0,29.9231,-1.6685500000000002,3,,,2008,,,61,12,,,61,46,,,61,39,,,1,13295
RWA,RW,3914,38125,38125,buramira,16139.0,29.9231,-1.6685500000000002,3,,,2008,,,0,0,,,61,0,,,0,0,,,1,13294
RWA,RW,3914,38121,38121,burera,,29.8352303,-1.4877669,1,,mapping,2014,8.0,18.0,50,0,0.0,0.0,50,46,0.0,0.38,50,36,0.0,0.02,1,22605
RWA,RW,3914,38121,38121,burera,56484.0,29.8352303,-1.4877669,1,,,2008,,,70,3,,,70,65,,,70,50,,,1,13258
RWA,RW,3914,38121,38121,burera,16030.0,29.8352303,-1.4877669,1,,,2007,,,0,0,,,70,0,,,0,0,,,1,13259
RWA,RW,3913,38119,38119,busanza,,30.14797,-1.984556,3,,mapping,2014,8.0,18.0,50,0,0.0,0.0,50,0,0.0,0.0,50,0,0.0,0.0,1,22667
RWA,RW,3916,38139,38139,busasamana,56575.0,29.3196253,-1.6520508999999999,1,,,2008,,,60,0,,,60,51,,,60,52,,,1,13396
RWA,RW,3916,38139,38139,busasamana,16131.0,29.3196253,-1.6520508999999999,1,,,2008,,,0,0,,,60,0,,,0,0,,,1,13398
RWA,RW,3914,38121,38121,butandi,16031.0,29.883,-1.433,3,,,2007,,,0,0,,,65,0,,,0,0,,,1,13260
RWA,RW,3916,38136,38136,butezi,56545.0,29.62541,-1.883333,1,,,2008,,,60,27,,,60,34,,,60,4,,,1,13366
RWA,RW,3916,38136,38136,butezi,16099.0,29.62541,-1.883333,1,,,2008,,,0,0,,,60,0,,,0,0,,,1,13370
RWA,RW,3916,38140,38140,bweyeye ri,56591.0,29.216999,-2.6170001,3,,,2008,,,65,15,,,65,47,,,65,27,,,1,13405
RWA,RW,3916,38140,38140,bweyeye ri,16143.0,29.216999,-2.6170001,3,,,2007,,,0,0,,,65,0,,,0,0,,,1,13404
RWA,RW,3914,38121,38121,byumba,,29.83447,-1.521821,3,,mapping,2014,8.0,18.0,49,14,0.0,0.02,49,27,0.0,0.184,49,15,0.0,0.0,1,22606
RWA,RW,3915,38133,38133,cukiro,56581.0,29.636499,-2.1159699,3,,,2008,,,61,48,,,61,9,,,61,2,,,1,13344
RWA,RW,3915,38129,38129,cukiro,16085.0,29.64078,-2.11112,3,,,2008,,,0,0,,,61,0,,,0,0,,,1,13324
RWA,RW,3915,38128,38128,cyambwe,16060.0,29.9041,-2.0614905,1,,,2008,,,0,0,,,60,0,,,0,0,,,1,13316
RWA,RW,3912,38114,38114,cyambwe,56533.0,30.7867129,-2.0248778,1,,,2008,,,60,45,,,60,0,,,60,7,,,1,13196
RWA,RW,3912,38114,38114,cyambwe,16081.0,30.7867129,-2.0248778,1,,,2008,,,0,0,,,60,0,,,0,0,,,1,13190
RWA,RW,3915,38128,38128,cyambwe kamonyi,56513.0,29.855101,-2.0617099,3,,,2008,,,60,23,,,60,8,,,60,0,,,1,13321
RWA,RW,3915,38128,38128,cyeru,56514.0,29.8135266,-1.4933659,1,,,2008,,,60,36,,,60,6,,,60,1,,,1,13319
RWA,RW,3915,38128,38128,cyeru,16061.0,29.8135266,-1.4933659,1,,,2008,,,0,0,,,60,0,,,0,0,,,1,13320
RWA,RW,3916,38140,38140,cyibumba,16144.0,28.9075,-2.5302697,1,,,2007,,,0,0,,,68,0,,,0,0,,,1,13411
RWA,RW,3916,38141,38141,cyimbili,16149.0,29.29058,-1.82719,3,,,2008,,,0,0,,,62,0,,,0,0,,,1,13417
RWA,RW,3916,38141,38141,cyimbiri ps,,29.29091,-1.827524,3,,mapping,2014,8.0,18.0,50,0,0.0,0.0,50,45,0.0,0.4,50,48,0.0,0.34,1,22769
RWA,RW,3912,38111,38111,dihiro,56478.0,30.201,-2.228,3,,,2008,,,62,26,,,62,4,,,62,2,,,1,13168
RWA,RW,3912,38111,38111,dihiro,16023.0,30.201,-2.228,3,,,2007,,,0,0,,,62,0,,,0,0,,,1,13166
RWA,RW,3912,38117,38117,duha complex school,,30.33887,-1.9107949999999998,3,,mapping,2014,8.0,18.0,50,4,0.0,0.0,50,0,0.0,0.0,50,0,0.0,0.0,1,22777
RWA,RW,3914,38124,38124,ecole apapep,,29.64495,-1.496614,3,,mapping,2014,8.0,18.0,50,0,0.0,0.0,50,6,0.0,0.02,50,6,0.0,0.0,1,22683
RWA,RW,3912,38113,38113,ep adelaide,,30.63824,-2.019164,3,,mapping,2014,8.0,18.0,50,1,0.0,0.0,50,6,0.0,0.0,50,2,0.0,0.0,1,22661
RWA,RW,3915,38129,38129,ep budende,,29.80035,-1.871512,3,,mapping,2014,8.0,18.0,50,1,0.0,0.0,50,4,0.0,0.02,50,1,0.0,0.0,1,22677
RWA,RW,3915,38127,38127,ep bunazi,,29.64675,-2.640621,3,,mapping,2014,8.0,18.0,50,2,0.0,0.0,50,36,0.0,0.1,50,2,0.0,0.0,1,22644
RWA,RW,3914,38123,38123,ep bushara,,30.0729,-1.515283,3,,mapping,2014,8.0,18.0,50,0,0.0,0.0,50,33,0.0,0.1,50,9,0.0,0.0,1,22631
RWA,RW,3913,38120,38120,ep butamwa,56569.0,30.0246309,-2.0289808,1,,,2008,,,67,24,,,67,4,,,67,8,,,1,13251
RWA,RW,3913,38120,38120,ep butamwa,16120.0,30.0246309,-2.0289808,1,,,2007,,,0,0,,,67,0,,,0,0,,,1,13253
RWA,RW,3914,38123,38123,ep cyankaranka,,30.03041,-1.586716,3,,mapping,2014,8.0,18.0,50,0,0.0,0.0,50,46,0.0,0.6000000000000001,50,32,0.0,0.0,1,22632
RWA,RW,3912,38113,38113,ep cyinzovu,,30.55407,-2.03734,3,,mapping,2014,8.0,18.0,50,1,0.0,0.0,50,2,0.0,0.0,50,3,0.0,0.0,1,22662
RWA,RW,3912,38113,38113,ep gacaca,,30.6073,-2.08847,3,,mapping,2014,8.0,18.0,50,5,0.0,0.0,50,5,0.0,0.0,50,2,0.0,0.0,1,22663
RWA,RW,3912,38113,38113,ep gahini,,30.48141,-1.84322,3,,mapping,2014,8.0,18.0,50,5,0.0,0.0,50,1,0.0,0.0,50,1,0.0,0.0,1,22664
RWA,RW,3915,38133,38133,ep gako,,29.87345,-2.170656,3,,mapping,2014,8.0,18.0,50,1,0.0,0.0,50,4,0.0,0.0,50,0,0.0,0.0,1,22749
RWA,RW,3913,38118,38118,ep gasanze,,30.1018,-1.876799,3,,mapping,2014,8.0,18.0,50,1,0.0,0.0,50,1,0.0,0.0,50,1,0.0,0.0,1,22620
RWA,RW,3915,38132,38132,ep gasasa,,29.60144,-2.717534,3,,mapping,2014,8.0,18.0,50,4,0.0,0.0,50,43,0.0,0.32,50,19,0.0,0.0,1,22737
RWA,RW,3914,38122,38122,ep gikingo,,29.83211,-1.8377539999999999,3,,mapping,2014,8.0,18.0,50,0,0.0,0.0,50,3,0.0,0.0,50,7,0.0,0.0,1,22612
RWA,RW,3913,38118,38118,ep gisozi ii,,30.06106,-1.923884,3,,mapping,2014,8.0,18.0,50,0,0.0,0.0,50,2,0.0,0.02,50,0,0.0,0.0,1,22621
RWA,RW,3914,38125,38125,ep gitete,,30.01042,-1.794391,3,,mapping,2014,8.0,18.0,50,0,0.0,0.0,50,19,0.0,0.06,50,0,0.0,0.0,1,22754
RWA,RW,3915,38131,38131,ep gituza,,29.81198,-2.381027,3,,mapping,2014,8.0,18.0,50,1,0.0,0.0,50,2,0.0,0.0,50,2,0.0,0.0,1,22727
RWA,RW,3912,38115,38115,ep gituza,,30.28668,-2.187517,3,,mapping,2014,8.0,18.0,50,9,0.0,0.0,50,12,0.0,0.0,50,4,0.0,0.0,1,22691
RWA,RW,3913,38120,38120,ep intwali,,30.05705,-1.969555,3,,mapping,2014,8.0,18.0,50,0,0.0,0.0,50,0,0.0,0.0,50,0,0.0,0.0,1,22732
RWA,RW,3913,38118,38118,ep jurwe,,30.11439,-1.932024,3,,mapping,2014,8.0,18.0,50,5,0.0,0.0,50,2,0.0,0.0,50,0,0.0,0.0,1,22622
RWA,RW,3915,38129,38129,ep kabilizi,,29.74204,-1.75983,4,,mapping,2014,8.0,18.0,50,2,0.0,0.0,50,3,0.0,0.0,50,2,0.0,0.0,1,22678
RWA,RW,3915,38126,38126,ep kabumbwe,,29.94296,-2.480491,3,,mapping,2014,8.0,18.0,50,1,0.0,0.0,50,6,0.0,0.0,50,1,0.0,0.0,1,22638
RWA,RW,3914,38124,38124,ep kamisave,,29.72024,-1.535857,3,,mapping,2014,8.0,18.0,50,0,0.0,0.0,50,37,0.0,0.12,50,15,0.0,0.0,1,22684
RWA,RW,3913,38120,38120,ep kamuhoza,,30.04995,-1.957817,3,,mapping,2014,8.0,18.0,50,0,0.0,0.0,50,7,0.0,0.02,50,2,0.0,0.0,1,22733
RWA,RW,3915,38128,38128,ep kamuzi,,29.92707,-1.941257,3,,mapping,2014,8.0,18.0,50,1,0.0,0.0,50,7,0.0,0.0,50,2,0.0,0.0,1,22649
RWA,RW,3915,38126,38126,ep kansi i,,29.75183,-2.69917,3,,mapping,2014,8.0,18.0,50,2,0.0,0.0,50,24,0.0,0.02,50,0,0.0,0.0,1,22639
RWA,RW,3914,38122,38122,ep kanyanza,,29.82247,-1.647707,3,,mapping,2014,8.0,18.0,50,1,0.0,0.0,50,12,0.0,0.0,50,2,0.0,0.0,1,22613
RWA,RW,3913,38118,38118,ep kibagabaga,,30.20046,-1.905669,3,,mapping,2014,8.0,18.0,50,0,0.0,0.0,50,3,0.0,0.0,50,3,0.0,0.0,1,22623
RWA,RW,3913,38120,38120,ep kimisagara,56570.0,30.0463012,-1.9527948,1,,,2008,,,59,2,,,59,1,,,59,2,,,1,13250
RWA,RW,3913,38120,38120,ep kimisagara,16121.0,30.0463012,-1.9527948,1,,,2007,,,0,0,,,59,0,,,0,0,,,1,13246
RWA,RW,3915,38128,38128,ep masaka,,29.97581,-2.014654,3,,mapping,2014,8.0,18.0,50,2,0.0,0.0,50,7,0.0,0.0,50,1,0.0,0.0,1,22650
RWA,RW,3916,38141,38141,ep maziba,,29.36247,-2.000452,3,,mapping,2014,8.0,18.0,50,0,0.0,0.0,50,48,0.0,0.62,50,47,0.0,0.26,1,22770
RWA,RW,3914,38122,38122,ep mbatabata,,29.78565,-1.5723829999999999,3,,mapping,2014,8.0,18.0,50,3,0.0,0.0,50,41,0.0,0.30000000000000004,50,20,0.0,0.0,1,22614
RWA,RW,3916,38136,38136,ep mpara,,29.64985,-1.823687,3,,mapping,2014,8.0,18.0,50,12,0.0,0.0,50,15,0.0,0.0,50,2,0.0,0.0,1,22697
RWA,RW,3913,38118,38118,ep muhima,56491.0,30.0530724,-1.9447361,1,,,2008,,,59,4,,,59,2,,,59,7,,,1,13229
RWA,RW,3913,38120,38120,ep muhima,16122.0,30.0530724,-1.9447361,1,,,2007,,,0,0,,,59,0,,,0,0,,,1,13245
RWA,RW,3915,38132,38132,ep muhora,,29.54972,-2.69243,3,,mapping,2014,8.0,18.0,50,0,0.0,0.0,50,39,0.0,0.2,50,5,0.0,0.0,1,22738
RWA,RW,3915,38129,38129,ep muhororo,,29.67911,-1.846314,3,,mapping,2014,8.0,18.0,50,8,0.0,0.0,50,5,0.0,0.0,50,1,0.0,0.0,1,22679
RWA,RW,3912,38114,38114,ep mukoma,,30.75355,-2.130538,3,,mapping,2014,8.0,18.0,50,5,0.0,0.0,50,0,0.0,0.0,50,0,0.0,0.0,1,22672
RWA,RW,3914,38122,38122,ep mutego,,29.65367,-1.7160609999999998,3,,mapping,2014,8.0,18.0,50,10,0.0,0.0,50,22,0.0,0.04,50,13,0.0,0.0,1,22615
RWA,RW,3915,38130,38130,ep muyange,,29.46321,-2.579856,3,,mapping,2014,8.0,18.0,50,0,0.0,0.0,50,47,0.0,0.4,50,19,0.0,0.0,1,22715
RWA,RW,3914,38125,38125,ep mwendo,56587.0,29.9236,-1.9876086,1,,,2008,,,64,9,,,64,4,,,64,6,,,1,13291
RWA,RW,3913,38120,38120,ep mwendo,16123.0,30.0116271,-1.9876086,1,,,2007,,,0,0,,,64,0,,,0,0,,,1,13254
RWA,RW,3916,38138,38138,ep mwumba,56559.0,29.288,-2.29721,3,,,2008,,,73,31,,,73,46,,,73,10,,,1,13390
RWA,RW,3915,38130,38130,ep mwumba,,29.52703,-2.241554,3,,mapping,2014,8.0,18.0,50,1,0.0,0.0,50,29,0.0,0.1,50,3,0.0,0.0,1,22716
RWA,RW,3916,38134,38134,ep ngoma,,29.26587,-2.118053,3,,mapping,2014,8.0,18.0,50,2,0.0,0.0,50,16,0.0,0.02,50,10,0.0,0.0,1,22654
RWA,RW,3915,38130,38130,ep nkore,,29.60273,-2.294787,3,,mapping,2014,8.0,18.0,50,0,0.0,0.0,50,8,0.0,0.0,50,0,0.0,0.0,1,22717
RWA,RW,3915,38127,38127,ep nyagisenyi,,29.75229,-2.412501,3,,mapping,2014,8.0,18.0,50,2,0.0,0.0,50,5,0.0,0.0,50,2,0.0,0.0,1,22645
RWA,RW,3912,38114,38114,ep nyakabungo,,30.80605,-2.117489,3,,mapping,2014,8.0,18.0,50,5,0.0,0.0,50,1,0.0,0.0,50,1,0.0,0.0,1,22673
RWA,RW,3915,38131,38131,ep nyamagana,,29.67599,-2.372519,3,,mapping,2014,8.0,18.0,50,1,0.0,0.0,50,7,0.0,0.0,50,1,0.0,0.0,1,22728
RWA,RW,3915,38131,38131,ep nyarusange,,29.67092,-2.343318,3,,mapping,2014,8.0,18.0,50,0,0.0,0.0,50,7,0.0,0.0,50,2,0.0,0.0,1,22729
RWA,RW,3915,38132,38132,ep nyarushishi,,29.54057,-2.647665,3,,mapping,2014,8.0,18.0,50,1,0.0,0.0,50,40,0.0,0.38,50,15,0.0,0.0,1,22739
RWA,RW,3912,38114,38114,ep nyawera,,30.84656,-2.116201,3,,mapping,2014,8.0,18.0,50,4,0.0,0.0,50,3,0.0,0.0,50,4,0.0,0.0,1,22674
RWA,RW,3915,38132,38132,ep rubona i,,29.56593,-2.678129,3,,mapping,2014,8.0,18.0,50,2,0.0,0.0,50,35,0.0,0.22,50,12,0.0,0.0,1,22740
RWA,RW,3916,38138,38138,ep rugano,,29.21487,-2.311844,3,,mapping,2014,8.0,18.0,50,0,0.0,0.0,50,21,0.0,0.02,50,5,0.0,0.0,1,22720
RWA,RW,3914,38124,38124,ep rugeshi,,29.66876,-1.489838,3,,mapping,2014,8.0,18.0,50,0,0.0,0.0,50,37,0.0,0.36,50,40,0.0,0.04,1,22685
RWA,RW,3915,38130,38130,ep rugeyo,,29.46652,-2.472901,3,,mapping,2014,8.0,18.0,50,4,0.0,0.0,50,47,0.0,0.36,50,29,0.0,0.0,1,22718
RWA,RW,3912,38113,38113,ep rukore,,30.5831,-1.783367,3,,mapping,2014,8.0,18.0,50,6,0.0,0.0,50,6,0.0,0.0,50,11,0.0,0.0,1,22665
RWA,RW,3914,38123,38123,ep runanga,,29.99681,-1.591195,3,,mapping,2014,8.0,18.0,50,0,0.0,0.0,50,27,0.0,0.16,50,0,0.0,0.0,1,22633
RWA,RW,3915,38126,38126,ep runyinya,,29.87543,-2.714706,3,,mapping,2014,8.0,18.0,50,2,0.0,0.0,50,13,0.0,0.04,50,1,0.0,0.0,1,22640
RWA,RW,3916,38138,38138,ep rusuzumiro,56560.0,29.292101,-2.37462,3,,,2008,,,58,10,,,58,48,,,58,36,,,1,13384
RWA,RW,3915,38129,38129,ep rutarabana,,29.75465,-2.069529,3,,mapping,2014,8.0,18.0,50,2,0.0,0.0,50,20,0.0,0.0,50,0,0.0,0.0,1,22680
RWA,RW,3913,38118,38118,ep rutunga,,30.16787,-1.8201079999999998,3,,mapping,2014,8.0,18.0,50,0,0.0,0.0,50,1,0.0,0.0,50,0,0.0,0.0,1,22624
RWA,RW,3915,38126,38126,ep sanzu,,29.8694,-2.481108,3,,mapping,2014,8.0,18.0,50,2,0.0,0.0,50,2,0.0,0.0,50,0,0.0,0.0,1,22641
RWA,RW,3915,38126,38126,ep save a,,29.7724,-2.54868,3,,mapping,2014,8.0,18.0,50,7,0.0,0.0,50,26,0.0,0.06,50,4,0.0,0.02,1,22642
RWA,RW,3915,38131,38131,ep shyira,,29.91045,-2.259629,3,,mapping,2014,8.0,18.0,50,0,0.0,0.0,50,4,0.0,0.0,50,0,0.0,0.0,1,22730
RWA,RW,3915,38127,38127,ep simbi,56510.0,29.768612,-2.5186669999999998,3,,,2008,,,60,15,,,60,51,,,60,6,,,1,13313
RWA,RW,3916,38140,38140,ep st joseph gitambi,,28.90001,-2.485657,3,,mapping,2014,8.0,18.0,50,1,0.0,0.0,50,25,0.0,0.06,50,12,0.0,0.02,1,22759
RWA,RW,3915,38133,38133,ep tambwe,,29.83063,-2.204646,3,,mapping,2014,8.0,18.0,50,2,0.0,0.0,50,6,0.0,0.0,50,0,0.0,0.0,1,22750
RWA,RW,3916,38134,38134,ep. mubuga,16065.0,29.3,-2.133,3,,,2007,,,0,0,,,59,0,,,0,0,,,1,13365
RWA,RW,3916,38134,38134,ep.mubuga,56518.0,29.299999,-2.1329999,3,,,2008,,,59,12,,,59,30,,,59,16,,,1,13356
RWA,RW,3913,38120,38120,epader glory's,,30.05519,-1.9753560000000001,3,,mapping,2014,8.0,18.0,50,0,0.0,0.0,50,3,0.0,0.02,50,1,0.0,0.0,1,22734
RWA,RW,3913,38120,38120,escaf,,30.04937,-1.989088,3,,mapping,2014,8.0,18.0,50,0,0.0,0.0,50,0,0.0,0.0,50,0,0.0,0.0,1,22735
RWA,RW,3914,38121,38121,gafumba,,29.7461,-1.420186,3,,mapping,2014,8.0,18.0,50,0,0.0,0.0,50,32,0.0,0.16,50,24,0.0,0.0,1,22607
RWA,RW,3912,38115,38115,gahama,56541.0,30.56254,-2.19605,3,,,2008,,,60,16,,,60,0,,,60,1,,,1,13200
RWA,RW,3912,38115,38115,gahama,16095.0,30.56254,-2.19605,3,,,2008,,,0,0,,,60,0,,,0,0,,,1,13201
RWA,RW,3912,38112,38112,gahara,,30.27632,-1.778967,3,,mapping,2014,8.0,18.0,50,1,0.0,0.0,50,8,0.0,0.02,50,1,0.0,0.0,1,22626
RWA,RW,3916,38134,38134,gahengeri,56519.0,29.466,-2.1329999,3,,,2008,,,62,2,,,62,50,,,62,1,,,1,13362
RWA,RW,3916,38134,38134,gahengeri,16066.0,29.466,-2.1329999,3,,,2007,,,0,0,,,62,0,,,0,0,,,1,13357
RWA,RW,3912,38113,38113,gahini francophone,56523.0,30.4847242,-1.8423783999999999,1,,,2008,,,69,24,,,69,0,,,69,0,,,1,13177
RWA,RW,3912,38113,38113,gahini francophone,16070.0,30.4847242,-1.8423783999999999,1,,,2007,,,0,0,,,69,0,,,0,0,,,1,13186
RWA,RW,3915,38133,38133,gahombo,56582.0,29.835278,-2.2787781,3,,,2008,,,61,27,,,61,5,,,61,2,,,1,13346
RWA,RW,3913,38118,38118,gahombo,16039.0,30.14055,-1.8897617,1,,,2008,,,0,0,,,61,0,,,0,0,,,1,13233
RWA,RW,3916,38139,38139,gahondo,56576.0,29.2829,-1.78416,3,,,2008,,,60,15,,,60,56,,,60,49,,,1,13393
RWA,RW,3916,38141,38141,gahondo,16150.0,29.2933333,-1.7888888,3,,,2008,,,0,0,,,60,0,,,0,0,,,1,13413
RWA,RW,3912,38112,38112,gakenke,56497.0,29.8352303,-1.6908585999999999,1,,,2008,,,63,29,,,63,0,,,63,1,,,1,13169
RWA,RW,3912,38112,38112,gakenke,16044.0,29.8352303,-1.6908585999999999,1,,,2008,,,0,0,,,63,0,,,0,0,,,1,13171
RWA,RW,3912,38112,38112,gakoni,56498.0,30.4133,-1.83919,3,,,2008,,,60,35,,,60,2,,,60,3,,,1,13170
RWA,RW,3912,38112,38112,gakoni,16045.0,30.4133,-1.83919,3,,,2008,,,0,0,,,60,0,,,0,0,,,1,13176
RWA,RW,3914,38124,38124,gashaki,56540.0,29.7530973,-1.5330384000000001,1,,,2008,,,69,9,,,69,51,,,69,49,,,1,13285
RWA,RW,3914,38124,38124,gashaki,16090.0,29.7530973,-1.5330384000000001,1,,,2007,,,0,0,,,69,0,,,0,0,,,1,13286
RWA,RW,3912,38116,38116,gasinga,56553.0,30.36455,-1.19467,3,,,2008,,,62,24,,,62,6,,,62,6,,,1,13210
RWA,RW,3912,38116,38116,gasinga,16107.0,30.36455,-1.19467,3,,,2008,,,0,0,,,62,0,,,0,0,,,1,13209
RWA,RW,3912,38115,38115,gatare,56542.0,30.379801,-2.1431999,3,,,2008,,,60,41,,,60,1,,,60,3,,,1,13203
RWA,RW,3912,38115,38115,gatare,16096.0,30.379801,-2.1431999,3,,,2008,,,0,0,,,60,0,,,0,0,,,1,13198
RWA,RW,3912,38111,38111,gatora,56479.0,30.25,-2.116,3,,,2008,,,47,22,,,47,1,,,47,1,,,1,13165
RWA,RW,3912,38111,38111,gatora,16024.0,30.25,-2.116,3,,,2007,,,0,0,,,47,0,,,0,0,,,1,13159
RWA,RW,3916,38140,38140,gihaya ps,,28.91782,-2.478418,3,,mapping,2014,8.0,18.0,50,13,0.0,0.0,50,35,0.0,0.32,50,48,0.0,0.36,1,22760
RWA,RW,3916,38141,38141,gihinga i ps,,29.35691,-1.9264169999999998,3,,mapping,2014,8.0,18.0,50,0,0.0,0.0,50,40,0.0,0.24,50,26,0.0,0.0,1,22771
RWA,RW,3916,38140,38140,gihundwe b,16145.0,28.917,-2.483,3,,,2007,,,0,0,,,67,0,,,0,0,,,1,13406
RWA,RW,3913,38118,38118,gikomero,,30.2397336,-1.8788347,1,,mapping,2014,8.0,18.0,50,0,0.0,0.0,50,1,0.0,0.0,50,1,0.0,0.0,1,22625
RWA,RW,3913,38118,38118,gikomero,56492.0,30.2397336,-1.8788347,1,,,2008,,,60,11,,,60,9,,,60,1,,,1,13228
RWA,RW,3913,38118,38118,gikomero,16040.0,30.2397336,-1.8788347,1,,,2008,,,0,0,,,60,0,,,0,0,,,1,13230
RWA,RW,3915,38126,38126,gikonko ear,,29.83071,-2.479172,3,,mapping,2014,8.0,18.0,50,0,0.0,0.0,50,1,0.0,0.0,50,5,0.0,0.0,1,22643
RWA,RW,3915,38126,38126,gikonko eer,56505.0,29.870556,-2.470417,3,,,2008,,,60,26,,,60,1,,,60,3,,,1,13305
RWA,RW,3915,38126,38126,gikonko eer,16052.0,29.870556,-2.470417,3,,,2008,,,0,0,,,60,0,,,0,0,,,1,13304
RWA,RW,3916,38140,38140,gikundamvura,56592.0,29.0437631,-2.6318463999999997,1,,,2008,,,70,32,,,70,38,,,70,16,,,1,13402
RWA,RW,3916,38140,38140,gikundamvura,16146.0,29.0437631,-2.6318463999999997,1,,,2007,,,0,0,,,70,0,,,0,0,,,1,13408
RWA,RW,3916,38140,38140,gikundamvura ps,,28.98823,-2.590307,3,,mapping,2014,8.0,18.0,50,22,0.0,0.0,50,18,0.0,0.0,50,9,0.0,0.0,1,22761
RWA,RW,3915,38133,38133,giseke,56583.0,29.8350048,-2.5620501,1,,,2008,,,61,43,,,61,7,,,61,0,,,1,13352
RWA,RW,3915,38133,38133,giseke,16136.0,29.8350048,-2.5620501,1,,,2008,,,0,0,,,61,0,,,0,0,,,1,13350
RWA,RW,3914,38121,38121,gitare i,16032.0,29.75,-1.383,3,,,2007,,,0,0,,,69,0,,,0,0,,,1,13264
RWA,RW,3916,38137,38137,gitebe,56550.0,29.5510928,-1.7069199,1,,,2008,,,57,11,,,57,45,,,57,28,,,1,13381
RWA,RW,3916,38137,38137,gitebe,16104.0,29.5510928,-1.7069199,1,,,2008,,,0,0,,,57,0,,,0,0,,,1,13380
RWA,RW,3912,38112,38112,gitebwe,,30.23835,-1.649613,3,,mapping,2014,8.0,18.0,50,3,0.0,0.0,50,3,0.0,0.02,50,2,0.0,0.0,1,22627
RWA,RW,3912,38117,38117,gs akanzu,,30.33341,-2.029975,3,,mapping,2014,8.0,18.0,50,1,0.0,0.0,50,1,0.0,0.0,50,0,0.0,0.0,1,22778
RWA,RW,3913,38119,38119,gs amizero i,,30.09439,-1.9748329999999998,3,,mapping,2014,8.0,18.0,45,0,0.0,0.0,45,2,0.0,0.0,45,0,0.0,0.0,1,22668
RWA,RW,3912,38112,38112,gs bibare,,30.29695,-1.772157,3,,mapping,2014,8.0,18.0,50,0,0.0,0.0,50,17,0.0,0.06,50,3,0.0,0.0,1,22628
RWA,RW,3914,38125,38125,gs burega,,30.0241,-1.732186,3,,mapping,2014,8.0,18.0,50,0,0.0,0.0,50,12,0.0,0.06,50,0,0.0,0.0,1,22755
RWA,RW,3916,38141,38141,gs bushaka,,29.29514,-1.898941,3,,mapping,2014,8.0,18.0,50,1,0.0,0.0,50,43,0.0,0.44,50,30,0.0,0.1,1,22772
RWA,RW,3915,38127,38127,gs butare cath,,29.74116,-2.606942,3,,mapping,2014,8.0,18.0,47,0,0.0,0.0,47,3,0.0,0.0,47,0,0.0,0.0,1,22646
RWA,RW,3915,38133,38133,gs byimana,,29.73629,-2.152843,3,,mapping,2014,8.0,18.0,50,0,0.0,0.0,50,8,0.0,0.04,50,2,0.0,0.0,1,22751
RWA,RW,3912,38116,38116,gs cyonyo,,30.32392,-1.303033,3,,mapping,2014,8.0,18.0,50,13,0.0,0.0,50,6,0.0,0.04,50,10,0.0,0.0,1,22707
RWA,RW,3916,38140,38140,gs gashonga cath,,28.96325,-2.4433,3,,mapping,2014,8.0,18.0,50,1,0.0,0.0,50,31,0.0,0.06,50,17,0.0,0.0,1,22763
RWA,RW,3916,38137,38137,gs gatagara,,29.53979,-1.648623,3,,mapping,2014,8.0,18.0,50,0,0.0,0.0,50,38,0.0,0.22,50,19,0.0,0.0,1,22703
RWA,RW,3913,38119,38119,gs gikondo,,30.07669,-1.9772219999999998,3,,mapping,2014,8.0,18.0,48,1,0.0,0.0,48,0,0.0,0.0,48,1,0.0,0.0,1,22669
RWA,RW,3914,38125,38125,gs gitare,,29.92927,-1.605347,3,,mapping,2014,8.0,18.0,50,0,0.0,0.0,50,41,0.0,0.36,50,23,0.0,0.0,1,22756
RWA,RW,3912,38115,38115,gs jarama,,30.37949,-2.279924,3,,mapping,2014,8.0,18.0,50,10,0.0,0.0,50,4,0.0,0.0,50,3,0.0,0.0,1,22692
RWA,RW,3916,38137,38137,gs jenda,,29.46903,-1.624079,3,,mapping,2014,8.0,18.0,50,0,0.0,0.0,50,40,0.0,0.32,50,29,0.0,0.0,1,22704
RWA,RW,3912,38117,38117,gs kabare,,30.4516,-1.8876089999999999,3,,mapping,2014,8.0,18.0,50,3,0.0,0.0,50,1,0.0,0.02,50,0,0.0,0.0,1,22779
RWA,RW,3912,38115,38115,gs kabilizi a,,30.43939,-2.102854,3,,mapping,2014,8.0,18.0,50,9,0.0,0.0,50,4,0.0,0.02,50,5,0.0,0.0,1,22693
RWA,RW,3915,38127,38127,gs kabusanza,,29.70814,-2.516688,3,,mapping,2014,8.0,18.0,49,0,0.0,0.0,49,39,0.0,0.061,49,7,0.0,0.0,1,22647
RWA,RW,3914,38121,38121,gs kagitega,,29.76881,-1.469745,3,,mapping,2014,8.0,18.0,50,0,0.0,0.0,50,39,0.0,0.14,50,24,0.0,0.0,1,22608
RWA,RW,3914,38122,38122,gs kamubuga,,29.77358,-1.580954,3,,mapping,2014,8.0,18.0,50,4,0.0,0.0,50,41,0.0,0.24,50,19,0.0,0.04,1,22616
RWA,RW,3916,38139,38139,gs kanembwe i,,29.27623,-1.655475,3,,mapping,2014,8.0,18.0,48,1,0.0,0.0,48,37,0.0,0.354,48,44,0.0,0.229,1,22743
RWA,RW,3915,38131,38131,gs katarara,,29.92306,-2.426182,3,,mapping,2014,8.0,18.0,50,6,0.0,0.0,50,0,0.0,0.0,50,0,0.0,0.0,1,22731
RWA,RW,3916,38141,38141,gs kigeyo a,,29.31309,-1.814253,3,,mapping,2014,8.0,18.0,50,0,0.0,0.0,50,47,0.0,0.46,50,15,0.0,0.04,1,22773
RWA,RW,3916,38141,38141,gs kigeyo b,,29.48283,-1.996163,3,,mapping,2014,8.0,18.0,49,0,0.0,0.0,49,48,0.0,0.40800000000000003,49,41,0.0,0.14300000000000002,1,22774
RWA,RW,3913,38120,38120,gs kimisagara,,30.05056,-1.947028,3,,mapping,2014,8.0,18.0,50,0,0.0,0.0,50,3,0.0,0.02,50,0,0.0,0.0,1,22736
RWA,RW,3912,38115,38115,gs kirwa,,30.46689,-2.075605,3,,mapping,2014,8.0,18.0,50,9,0.0,0.0,50,7,0.0,0.0,50,2,0.0,0.0,1,22694
RWA,RW,3915,38128,38128,gs kivumu,,29.95794,-2.166725,3,,mapping,2014,8.0,18.0,50,0,0.0,0.0,50,5,0.0,0.0,50,2,0.0,0.0,1,22651
RWA,RW,3916,38141,38141,gs marie reine de congo nil,,29.38949,-1.967258,3,,mapping,2014,8.0,18.0,50,0,0.0,0.0,50,30,0.0,0.08,50,11,0.0,0.0,1,22775
RWA,RW,3915,38128,38128,gs masaka,,29.9722,-2.015182,3,,mapping,2014,8.0,18.0,50,1,0.0,0.0,50,3,0.0,0.0,50,3,0.0,0.0,1,22652
RWA,RW,3914,38125,38125,gs mugenda,,29.90712,-1.6764800000000002,3,,mapping,2014,8.0,18.0,50,0,0.0,0.0,50,32,0.0,0.18,50,5,0.0,0.0,1,22757
RWA,RW,3914,38123,38123,gs mugina,,30.1024,-1.6779410000000001,3,,mapping,2014,8.0,18.0,50,0,0.0,0.0,50,17,0.0,0.02,50,1,0.0,0.0,1,22634
RWA,RW,3912,38113,38113,gs muko ii,,30.53569,-1.7971629999999998,3,,mapping,2014,8.0,18.0,50,6,0.0,0.0,50,0,0.0,0.0,50,0,0.0,0.0,1,22666
RWA,RW,3914,38121,38121,gs musasa,,29.76269,-1.493992,3,,mapping,2014,8.0,18.0,50,3,0.0,0.0,50,46,0.0,0.5,50,37,0.0,0.0,1,22609
RWA,RW,3914,38124,38124,gs musekera,,29.74632,-1.4957289999999999,3,,mapping,2014,8.0,18.0,50,2,0.0,0.0,50,35,0.0,0.12,50,32,0.0,0.0,1,22686
RWA,RW,3912,38115,38115,gs muzingira,,30.51144,-2.2678089999999997,3,,mapping,2014,8.0,18.0,50,2,0.0,0.0,50,0,0.0,0.0,50,1,0.0,0.0,1,22695
RWA,RW,3916,38137,38137,gs nanga,,29.54226,-1.598316,3,,mapping,2014,8.0,18.0,50,1,0.0,0.0,50,37,0.0,0.1,50,19,0.0,0.0,1,22705
RWA,RW,3916,38140,38140,gs ntura protest,,29.04608,-2.65519,3,,mapping,2014,8.0,18.0,50,3,0.0,0.0,50,18,0.0,0.08,50,10,0.0,0.0,1,22766
RWA,RW,3916,38134,38134,gs nyabikenke,,29.41066,-2.083003,3,,mapping,2014,8.0,18.0,50,3,0.0,0.0,50,34,0.0,0.18,50,24,0.0,0.02,1,22655
RWA,RW,3915,38129,38129,gs nyabisindu,,29.72519,-2.101967,3,,mapping,2014,8.0,18.0,50,0,0.0,0.0,50,5,0.0,0.0,50,2,0.0,0.0,1,22681
RWA,RW,3912,38116,38116,gs nyagatare,,30.33831,-1.336168,3,,mapping,2014,8.0,18.0,50,3,0.0,0.0,50,1,0.0,0.0,50,0,0.0,0.0,1,22708
RWA,RW,3914,38123,38123,gs nyagatoma,,30.13408,-1.777477,4,,mapping,2014,8.0,18.0,50,3,0.0,0.0,50,1,0.0,0.0,50,3,0.0,0.0,1,22635
RWA,RW,3912,38116,38116,gs nyarupfubire,,30.39798,-1.293493,3,,mapping,2014,8.0,18.0,50,6,0.0,0.0,50,2,0.0,0.0,50,6,0.0,0.0,1,22709
RWA,RW,3912,38117,38117,gs nyarusange,,30.45302,-1.933528,3,,mapping,2014,8.0,18.0,50,3,0.0,0.0,50,1,0.0,0.0,50,1,0.0,0.0,1,22780
RWA,RW,3915,38133,38133,gs nyarutovu,,29.64079,-2.171866,3,,mapping,2014,8.0,18.0,50,0,0.0,0.0,50,3,0.0,0.0,50,0,0.0,0.0,1,22752
RWA,RW,3912,38111,38111,gs nyiragiseke,,30.26584,-2.353288,3,,mapping,2014,8.0,18.0,50,1,0.0,0.0,50,5,0.0,0.0,50,1,0.0,0.0,1,22596
RWA,RW,3915,38132,38132,gs rasaniro,,29.61931,-2.67135,3,,mapping,2014,8.0,18.0,49,0,0.0,0.0,49,37,0.0,0.163,49,5,0.0,0.0,1,22741
RWA,RW,3914,38124,38124,gs remera,,29.70733,-1.562471,3,,mapping,2014,8.0,18.0,50,4,0.0,0.02,50,31,0.0,0.06,50,19,0.0,0.0,1,22687
RWA,RW,3914,38122,38122,gs ruganda,,29.90805,-1.795357,3,,mapping,2014,8.0,18.0,50,0,0.0,0.0,50,10,0.0,0.0,50,0,0.0,0.0,1,22617
RWA,RW,3914,38122,38122,gs rukura,,29.81885,-1.6876929999999999,3,,mapping,2014,8.0,18.0,50,7,0.0,0.0,50,12,0.0,0.02,50,3,0.0,0.0,1,22618
RWA,RW,3916,38134,38134,gs ruragwe,,29.38552,-2.073499,3,,mapping,2014,8.0,18.0,50,0,0.0,0.0,50,36,0.0,0.06,50,25,0.0,0.0,1,22656
RWA,RW,3912,38115,38115,gs rurenge protestant,,30.56784,-2.242233,3,,mapping,2014,8.0,18.0,43,7,0.0,0.0,44,1,0.0,0.0,43,1,0.0,0.0,1,22696
RWA,RW,3914,38124,38124,gs rusanze,,29.56876,-1.537754,3,,mapping,2014,8.0,18.0,50,3,0.0,0.0,50,40,0.0,0.46,50,41,0.0,0.1,1,22688
RWA,RW,3916,38141,38141,gs rusororo,,29.28729,-1.851026,3,,mapping,2014,8.0,18.0,50,1,0.0,0.0,50,32,0.0,0.16,50,21,0.0,0.02,1,22776
RWA,RW,3915,38128,38128,gs ruyenzi,,29.98699,-1.972856,3,,mapping,2014,8.0,18.0,50,3,0.0,0.0,50,10,0.0,0.02,50,4,0.0,0.0,1,22653
RWA,RW,3914,38123,38123,gs rwagihura,,30.13519,-1.703087,3,,mapping,2014,8.0,18.0,50,0,0.0,0.0,50,43,0.0,0.54,50,33,0.0,0.02,1,22636
RWA,RW,3914,38123,38123,gs rwesero,,30.17663,-1.798549,4,,mapping,2014,8.0,18.0,50,1,0.0,0.0,50,3,0.0,0.02,50,0,0.0,0.0,1,22637
RWA,RW,3914,38124,38124,gs ryandinzi,,29.75044,-1.528073,3,,mapping,2014,8.0,18.0,50,4,0.0,0.0,50,34,0.0,0.2,50,32,0.0,0.02,1,22689
RWA,RW,3914,38124,38124,gs shingiro,,29.54494,-1.4995560000000001,3,,mapping,2014,8.0,18.0,47,0,0.0,0.0,47,40,0.0,0.468,47,34,0.0,0.021,1,22690
RWA,RW,3916,38139,38139,gs shwemu,,29.28914,-1.688412,3,,mapping,2014,8.0,18.0,46,0,0.0,0.0,46,42,0.0,0.41300000000000003,46,38,0.0,0.13,1,22744
RWA,RW,3914,38125,38125,gs shyorongi,,29.9771,-1.86037,4,,mapping,2014,8.0,18.0,50,1,0.0,0.0,50,10,0.0,0.02,50,1,0.0,0.0,1,22758
RWA,RW,3915,38129,38129,gs st etienne shyogwe,,29.7776,-2.129452,3,,mapping,2014,8.0,18.0,50,0,0.0,0.0,50,21,0.0,0.04,50,2,0.0,0.0,1,22682
RWA,RW,3916,38138,38138,gs st kizito fumba,,29.30136,-2.222124,3,,mapping,2014,8.0,18.0,50,1,0.0,0.0,50,23,0.0,0.02,50,1,0.0,0.0,1,22721
RWA,RW,3915,38127,38127,gs vumbi,,29.70064,-2.622198,3,,mapping,2014,8.0,18.0,50,0,0.0,0.0,50,25,0.0,0.06,50,2,0.0,0.0,1,22648
RWA,RW,3916,38134,38134,hanika,,29.29177,-2.176563,3,,mapping,2014,8.0,18.0,50,2,0.0,0.0,50,23,0.0,0.08,50,21,0.0,0.0,1,22657
RWA,RW,3916,38134,38134,hanika,16067.0,29.29177,-2.176563,3,,,2007,,,0,0,,,69,0,,,0,0,,,1,13361
RWA,RW,3912,38117,38117,janjagiro,56598.0,30.283,-1.85,3,,,2008,,,61,30,,,61,0,,,61,1,,,1,13222
RWA,RW,3912,38117,38117,janjagiro,16153.0,30.283,-1.85,3,,,2007,,,0,0,,,61,0,,,0,0,,,1,13216
RWA,RW,3912,38115,38115,jarama,56543.0,30.3837319,-2.2816863,1,,,2008,,,62,26,,,62,0,,,62,6,,,1,13199
RWA,RW,3912,38115,38115,jarama,16097.0,30.3837319,-2.2816863,1,,,2008,,,0,0,,,62,0,,,0,0,,,1,13202
RWA,RW,3912,38112,38112,kabeza,,30.50501,-1.654134,3,,mapping,2014,8.0,18.0,50,7,0.0,0.0,50,3,0.0,0.0,50,1,0.0,0.0,1,22629
RWA,RW,3912,38115,38115,kabindi,56544.0,30.3466,-2.1173301,3,,,2008,,,60,43,,,60,0,,,60,2,,,1,13197
RWA,RW,3912,38115,38115,kabindi,16098.0,30.3466,-2.1173301,3,,,2008,,,0,0,,,60,0,,,0,0,,,1,13204
RWA,RW,3916,38136,38136,kabingo,,29.58037,-1.886782,3,,mapping,2014,8.0,18.0,50,0,0.0,0.0,50,23,0.0,0.0,50,3,0.0,0.0,1,22698
RWA,RW,3915,38133,38133,kabuga,,29.86344,-2.130205,3,,mapping,2014,8.0,18.0,50,0,0.0,0.0,50,2,0.0,0.0,50,2,0.0,0.0,1,22753
RWA,RW,3916,38136,38136,kabyiniro,56546.0,29.638901,-1.89046,3,,,2008,,,60,24,,,60,20,,,60,2,,,1,13368
RWA,RW,3916,38136,38136,kabyiniro,16100.0,29.638901,-1.89046,3,,,2008,,,0,0,,,60,0,,,0,0,,,1,13369
RWA,RW,3912,38111,38111,kagano,,30.0629,-2.35427,3,,mapping,2014,8.0,18.0,50,1,0.0,0.0,50,1,0.0,0.0,50,2,0.0,0.0,1,22597
RWA,RW,3913,38119,38119,kamashashi,56529.0,30.1762494,-1.986435,1,,,2008,,,59,0,,,59,2,,,59,5,,,1,13238
RWA,RW,3913,38119,38119,kamashashi,16076.0,30.1762494,-1.986435,1,,,2008,,,0,0,,,59,0,,,0,0,,,1,13243
RWA,RW,3914,38122,38122,kamubuga,56486.0,29.804622,-1.578026,1,,,2008,,,60,35,,,60,50,,,60,48,,,1,13269
RWA,RW,3914,38122,38122,kamubuga,16035.0,29.804622,-1.578026,1,,,2008,,,0,0,,,60,0,,,0,0,,,1,13265
RWA,RW,3913,38120,38120,kamuhoza,56571.0,30.0504748,-1.9582564,1,,,2008,,,60,2,,,60,0,,,60,7,,,1,13248
RWA,RW,3913,38120,38120,kamuhoza,16124.0,30.0504748,-1.9582564,1,,,2007,,,0,0,,,60,0,,,0,0,,,1,13256
RWA,RW,3912,38111,38111,kanazi,56480.0,30.0881,-2.231532,1,,,2008,,,64,32,,,64,1,,,64,3,,,1,13157
RWA,RW,3912,38111,38111,kanazi,16025.0,30.0881,-2.231532,1,,,2007,,,0,0,,,64,0,,,0,0,,,1,13164
RWA,RW,3915,38126,38126,kansi,56506.0,29.7786913,-2.6995753000000002,1,,,2008,,,60,35,,,60,43,,,60,8,,,1,13303
RWA,RW,3915,38126,38126,kansi,16053.0,29.7786913,-2.6995753000000002,1,,,2008,,,0,0,,,60,0,,,0,0,,,1,13299
RWA,RW,3914,38121,38121,karangara,56485.0,29.700001,-1.4100000000000001,3,,,2008,,,69,1,,,69,52,,,69,58,,,1,13257
RWA,RW,3914,38121,38121,karangara,16033.0,29.700001,-1.4100000000000001,3,,,2007,,,0,0,,,69,0,,,0,0,,,1,13262
RWA,RW,3912,38111,38111,karera,56481.0,30.166,-2.1500001,3,,,2008,,,64,23,,,64,2,,,64,3,,,1,13167
RWA,RW,3912,38111,38111,karera,16026.0,30.166,-2.1500001,3,,,2007,,,0,0,,,64,0,,,0,0,,,1,13163
RWA,RW,3914,38124,38124,karinzi,16091.0,29.63497,-1.4766876,1,,,2007,,,0,0,,,60,0,,,0,0,,,1,13284
RWA,RW,3912,38116,38116,katabagemu gs,,30.27665,-1.473332,3,,mapping,2014,8.0,18.0,50,5,0.0,0.0,50,1,0.0,0.0,50,1,0.0,0.0,1,22710
RWA,RW,3915,38129,38129,kibingo,56537.0,29.70691,-2.0804472,1,,,2008,,,60,19,,,60,32,,,60,5,,,1,13322
RWA,RW,3915,38129,38129,kibingo,16086.0,29.70691,-2.0804472,1,,,2008,,,0,0,,,60,0,,,0,0,,,1,13327
RWA,RW,3913,38118,38118,kigali institute of education (kie),,30.1210539,-1.9505135999999998,1,,,2010,18.0,,55,1,,,55,11,,,0,0,,,1,29489
RWA,RW,3916,38141,38141,kimbiri,56595.0,29.2906,-1.82719,3,,,2008,,,62,27,,,62,52,,,62,55,,,1,13416
RWA,RW,3913,38118,38118,kimironko ii,56494.0,30.1300601,-1.9362376000000001,1,,,2008,,,55,0,,,55,1,,,55,2,,,1,13231
RWA,RW,3913,38118,38118,kimironko ii,16041.0,30.1300601,-1.9362376000000001,1,,,2008,,,0,0,,,55,0,,,0,0,,,1,13234
RWA,RW,3912,38112,38112,kintu,,30.26716,-1.635415,3,,mapping,2014,8.0,18.0,50,1,0.0,0.0,50,14,0.0,0.06,50,6,0.0,0.0,1,22630
RWA,RW,3913,38119,38119,kinunga,16077.0,30.0785939,-1.9693684999999999,1,,,2008,,,0,0,,,55,0,,,0,0,,,1,13236
RWA,RW,3915,38129,38129,kirwa cath,56538.0,29.70691,-2.0804472,1,,,2008,,,61,43,,,61,7,,,61,2,,,1,13325
RWA,RW,3915,38129,38129,kirwa catholique,16087.0,29.70691,-2.0804472,1,,,2008,,,0,0,,,61,0,,,0,0,,,1,13326
RWA,RW,3912,38117,38117,mabare,56599.0,30.1094444,-1.4561111,1,,,2008,,,64,51,,,64,3,,,64,1,,,1,13219
RWA,RW,3912,38117,38117,mabare,16154.0,30.1094444,-1.4561111,1,,,2007,,,0,0,,,64,0,,,0,0,,,1,13221
RWA,RW,3914,38123,38123,manyagiro,56502.0,29.9945524,-1.5357562,1,,,2008,,,57,16,,,57,41,,,57,24,,,1,13278
RWA,RW,3914,38123,38123,manyagiro,16049.0,29.9945524,-1.5357562,1,,,2008,,,0,0,,,57,0,,,0,0,,,1,13281
RWA,RW,3912,38116,38116,mashaka,56554.0,30.2769444,-1.2447222,1,,,2008,,,60,33,,,60,9,,,60,3,,,1,13206
RWA,RW,3912,38116,38116,mashaka,16108.0,30.2769444,-1.2447222,1,,,2008,,,0,0,,,60,0,,,0,0,,,1,13211
RWA,RW,3915,38130,38130,maso,56557.0,29.5118,-2.2981,3,,,2008,,,52,6,,,52,37,,,52,5,,,1,13331
RWA,RW,3915,38130,38130,maso,16111.0,29.5118,-2.2981,3,,,2008,,,0,0,,,52,0,,,0,0,,,1,13329
RWA,RW,3914,38122,38122,mbatabata,56487.0,29.77375,-1.58032,3,,,2008,,,58,14,,,58,50,,,58,37,,,1,13270
RWA,RW,3914,38122,38122,mbatabata,16036.0,29.77375,-1.58032,3,,,2008,,,0,0,,,58,0,,,0,0,,,1,13268
RWA,RW,3916,38136,38136,mbonabyombi,,29.61563,-1.808602,3,,mapping,2014,8.0,18.0,50,2,0.0,0.0,50,25,0.0,0.02,50,5,0.0,0.0,1,22699
RWA,RW,3916,38138,38138,mbuga,56561.0,29.288,-2.29721,3,,,2008,,,60,0,,,60,50,,,60,50,,,1,13385
RWA,RW,3912,38111,38111,mbuye,,30.19847,-2.083442,3,,mapping,2014,8.0,18.0,50,2,0.0,0.0,50,9,0.0,0.0,50,4,0.0,0.0,1,22598
RWA,RW,3916,38136,38136,miduha,,29.63926,-1.919282,3,,mapping,2014,8.0,18.0,50,2,0.0,0.0,50,19,0.0,0.04,50,1,0.0,0.0,1,22700
RWA,RW,3915,38132,38132,mpanda,56572.0,29.608,-2.6459,3,,,2008,,,62,7,,,62,44,,,62,13,,,1,13338
RWA,RW,3915,38132,38132,mpanda,16127.0,29.608,-2.6459,3,,,2008,,,0,0,,,62,0,,,0,0,,,1,13339
RWA,RW,3912,38114,38114,mpanga,56534.0,30.7812,-2.0871999,3,,,2008,,,60,53,,,60,2,,,60,4,,,1,13189
RWA,RW,3912,38114,38114,mpanga,16082.0,30.7812,-2.0871999,3,,,2008,,,0,0,,,60,0,,,0,0,,,1,13193
RWA,RW,3916,38140,38140,mubuga,56593.0,29.5644158,-2.6852096999999997,1,,,2008,,,70,19,,,70,43,,,70,19,,,1,13410
RWA,RW,3916,38140,38140,mubuga,16147.0,29.5644158,-2.6852096999999997,1,,,2007,,,0,0,,,59,0,,,0,0,,,1,13403
RWA,RW,3916,38139,38139,mudende,56577.0,29.382682,-1.5977321999999998,1,,,2008,,,60,0,,,60,55,,,60,56,,,1,13400
RWA,RW,3916,38139,38139,mudende,16132.0,29.382682,-1.5977321999999998,1,,,2008,,,0,0,,,60,0,,,0,0,,,1,13401
RWA,RW,3916,38136,38136,mugega,56547.0,29.5189,-1.9291,3,,,2008,,,62,18,,,62,60,,,62,12,,,1,13367
RWA,RW,3916,38136,38136,mugega,16101.0,29.5189,-1.9291,3,,,2008,,,0,0,,,62,0,,,0,0,,,1,13371
RWA,RW,3916,38138,38138,mugonera,16116.0,29.27935,-2.18946,3,,,2008,,,0,0,,,61,0,,,0,0,,,1,13388
RWA,RW,3916,38138,38138,mugonero,,29.27922,-2.189757,3,,mapping,2014,8.0,18.0,50,4,0.0,0.0,50,26,0.0,0.06,50,8,0.0,0.0,1,22722
RWA,RW,3916,38134,38134,mugonero,56520.0,29.2927611,-2.1811948,1,,,2008,,,61,35,,,61,41,,,61,35,,,1,13359
RWA,RW,3916,38136,38136,muhanda,,29.52059,-1.8046069999999999,3,,mapping,2014,8.0,18.0,50,0,0.0,0.0,50,45,0.0,0.16,50,20,0.0,0.02,1,22701
RWA,RW,3914,38122,38122,muhondo,56488.0,29.8860799,-1.8117481999999998,1,,,2008,,,58,21,,,58,4,,,58,1,,,1,13266
RWA,RW,3914,38122,38122,muhondo,16037.0,29.8860799,-1.8117481999999998,1,,,2008,,,0,0,,,58,0,,,0,0,,,1,13272
RWA,RW,3915,38126,38126,muhororo,56507.0,29.6281837,-1.9427898,2,,,2008,,,57,23,,,57,20,,,57,6,,,1,13302
RWA,RW,3915,38127,38127,muhororo,16056.0,29.6281837,-1.9427898,2,,,2008,,,0,0,,,57,0,,,0,0,,,1,13310
RWA,RW,3914,38124,38124,muhoza 2,16092.0,29.63,-1.5,3,,,2007,,,0,0,,,60,0,,,0,0,,,1,13282
RWA,RW,3914,38122,38122,muhoza2,56489.0,29.7722,-1.6332999,3,,,2008,,,68,7,,,68,47,,,68,35,,,1,13267
RWA,RW,3912,38112,38112,mukarange,56499.0,30.0795222,-1.5293944,1,,,2008,,,60,26,,,60,13,,,60,4,,,1,13173
RWA,RW,3912,38112,38112,mukarange,16046.0,30.0795222,-1.5293944,1,,,2008,,,0,0,,,60,0,,,0,0,,,1,13174
RWA,RW,3916,38138,38138,mukoma,,29.01293,-2.354759,3,,mapping,2014,8.0,18.0,50,2,0.0,0.0,50,14,0.0,0.04,50,31,0.0,0.02,1,22723
RWA,RW,3916,38138,38138,mukoma,56562.0,29.01293,-2.354759,3,,,2008,,,61,4,,,61,35,,,61,50,,,1,13382
RWA,RW,3916,38138,38138,mukoma,16117.0,29.01293,-2.354759,3,,,2008,,,0,0,,,61,0,,,0,0,,,1,13386
RWA,RW,3916,38136,38136,munini,16102.0,29.62541,-2.7143486,1,,,2008,,,0,0,,,60,0,,,0,0,,,1,13373
RWA,RW,3912,38112,38112,munini,16047.0,30.2251,-1.6019598,1,,,2008,,,0,0,,,60,0,,,0,0,,,1,13172
RWA,RW,3912,38112,38112,munini gatsibo,56500.0,30.3896651,-1.6139609,2,,,2008,,,60,36,,,60,4,,,60,5,,,1,13175
RWA,RW,3916,38136,38136,munini ngororero,56548.0,29.631201,-1.7885799,3,,,2008,,,60,31,,,60,36,,,60,9,,,1,13372
RWA,RW,3912,38117,38117,murambi,56600.0,30.4112756,-1.796141,1,,,2008,,,62,43,,,62,2,,,62,1,,,1,13218
RWA,RW,3912,38117,38117,murambi,16155.0,30.4112756,-1.796141,1,,,2007,,,0,0,,,62,0,,,0,0,,,1,13215
RWA,RW,3915,38132,38132,musebeya,56573.0,29.4498523,-2.4173174,1,,,2008,,,60,10,,,60,51,,,60,42,,,1,13342
RWA,RW,3915,38132,38132,musebeya,16128.0,29.4498523,-2.4173174,1,,,2008,,,0,0,,,60,0,,,0,0,,,1,13337
RWA,RW,3914,38124,38124,musekera,16093.0,29.7464,-1.4957,3,,,2007,,,0,0,,,67,0,,,0,0,,,1,13283
RWA,RW,3912,38117,38117,musha,56601.0,30.35,-1.916667,1,,,2008,,,64,46,,,64,2,,,64,0,,,1,13223
RWA,RW,3912,38117,38117,musha,16156.0,30.35,-1.916667,1,,,2007,,,0,0,,,64,0,,,0,0,,,1,13214
RWA,RW,3912,38114,38114,mushongi,56535.0,30.815599,-2.0588801,3,,,2008,,,60,44,,,60,0,,,60,7,,,1,13191
RWA,RW,3912,38114,38114,mushongi,16083.0,30.815599,-2.0588801,3,,,2008,,,0,0,,,60,0,,,0,0,,,1,13194
RWA,RW,3915,38127,38127,mutunda eer,56511.0,29.7472,-2.547,3,,,2008,,,59,24,,,59,37,,,59,2,,,1,13311
RWA,RW,3915,38127,38127,mutunda eer,16057.0,29.7472,-2.547,3,,,2008,,,0,0,,,59,0,,,0,0,,,1,13307
RWA,RW,3913,38119,38119,mututu,16078.0,29.81223333,-2.29277,4,,,2008,,,0,0,,,56,0,,,0,0,,,1,13240
RWA,RW,3915,38131,38131,mututu,56565.0,29.935833,-2.336972,3,,,2008,,,56,32,,,56,9,,,56,1,,,1,13335
RWA,RW,3915,38133,38133,muyange,56584.0,29.79088,-2.0023481,1,,,2008,,,58,4,,,58,10,,,58,1,,,1,13347
RWA,RW,3915,38133,38133,muyange,16137.0,29.79088,-2.0023481,1,,,2008,,,0,0,,,58,0,,,0,0,,,1,13345
RWA,RW,3916,38138,38138,mwasa ps,,29.21035,-2.324325,3,,mapping,2014,8.0,18.0,50,2,0.0,0.0,50,26,0.0,0.04,50,15,0.0,0.0,1,22724
RWA,RW,3914,38121,38121,mwiko,,29.74652,-1.455696,3,,mapping,2014,8.0,18.0,50,1,0.0,0.0,50,35,0.0,0.24,50,26,0.0,0.02,1,22610
RWA,RW,3915,38130,38130,mwumba,16113.0,29.8120795,-2.8104423,1,,,2008,,,0,0,,,73,0,,,0,0,,,1,13333
RWA,RW,3912,38113,38113,ndego  ii,56524.0,30.75,-1.983,3,,,2008,,,54,18,,,54,2,,,54,3,,,1,13188
RWA,RW,3912,38113,38113,ndego ii,16071.0,30.75,-1.983,3,,,2007,,,0,0,,,54,0,,,0,0,,,1,13187
RWA,RW,3916,38134,38134,nemba,56521.0,29.395,-2.1789703,1,,,2008,,,67,9,,,67,28,,,67,23,,,1,13358
RWA,RW,3916,38134,38134,nemba,16068.0,29.395,-2.1789703,1,,,2007,,,0,0,,,67,0,,,0,0,,,1,13360
RWA,RW,3914,38125,38125,ngarama,56588.0,30.2426185,-1.5384402,1,,,2008,,,60,9,,,60,34,,,60,15,,,1,13292
RWA,RW,3914,38125,38125,ngarama,16140.0,30.2426185,-1.5384402,1,,,2008,,,0,0,,,60,0,,,0,0,,,1,13293
RWA,RW,3916,38138,38138,ngororero,56563.0,29.6252858,-1.8637655,2,,,2008,,,57,1,,,57,47,,,57,48,,,1,13383
RWA,RW,3915,38130,38130,ngororero,16114.0,29.5946,-1.8637655,1,,,2008,,,0,0,,,57,0,,,0,0,,,1,13332
RWA,RW,3913,38119,38119,ngslc,,30.15306,-1.9609169999999998,3,,mapping,2014,8.0,18.0,50,0,0.0,0.0,50,0,0.0,0.0,50,0,0.0,0.0,1,22670
RWA,RW,3912,38111,38111,nhs,,30.08058,-2.140518,3,,mapping,2014,8.0,18.0,50,1,0.0,0.0,50,1,0.0,0.0,50,2,0.0,0.0,1,22599
RWA,RW,3916,38140,38140,nkombo ps,,28.96434,-2.572183,3,,mapping,2014,8.0,18.0,50,4,0.0,0.0,50,34,0.0,0.38,50,48,0.0,0.14,1,22767
RWA,RW,3914,38121,38121,nkumba,,29.73011,-1.372068,3,,mapping,2014,8.0,18.0,50,3,0.0,0.0,50,44,0.0,0.32,50,39,0.0,0.08,1,22611
RWA,RW,3912,38117,38117,nsinda ikirezi ps,,30.44141,-1.8997769999999998,3,,mapping,2014,8.0,18.0,48,3,0.0,0.0,48,0,0.0,0.0,48,1,0.0,0.0,1,22781
RWA,RW,3912,38114,38114,nyabigega ps,,30.61325,-2.254526,3,,mapping,2014,8.0,18.0,50,7,0.0,0.0,50,2,0.0,0.0,50,0,0.0,0.0,1,22675
RWA,RW,3916,38134,38134,nyabikenke,56522.0,29.7556333,-1.8933498,1,,,2008,,,57,9,,,57,37,,,57,32,,,1,13364
RWA,RW,3916,38134,38134,nyabikenke,16069.0,29.7556333,-1.8933498,1,,,2007,,,0,0,,,57,0,,,0,0,,,1,13355
RWA,RW,3916,38138,38138,nyabinaga ps,,29.22277,-2.255084,3,,mapping,2014,8.0,18.0,50,7,0.0,0.0,50,23,0.0,0.04,50,25,0.0,0.0,1,22725
RWA,RW,3916,38134,38134,nyagatovu,,29.41651,-2.078181,3,,mapping,2014,8.0,18.0,50,1,0.0,0.0,50,37,0.0,0.12,50,13,0.0,0.0,1,22658
RWA,RW,3913,38119,38119,nyakabanda,56531.0,30.0463012,-1.965586,1,,,2008,,,59,0,,,59,7,,,59,6,,,1,13237
RWA,RW,3913,38119,38119,nyakabanda,16079.0,30.0463012,-1.965586,1,,,2008,,,0,0,,,59,0,,,0,0,,,1,13244
RWA,RW,3912,38114,38114,nyamateke,56536.0,30.7223,-2.2199399,3,,,2008,,,60,45,,,60,0,,,60,3,,,1,13195
RWA,RW,3912,38114,38114,nyamateke,16084.0,30.7223,-2.2199399,3,,,2008,,,0,0,,,60,0,,,0,0,,,1,13192
RWA,RW,3912,38117,38117,nyarusange,56602.0,30.45,-1.916,3,,,2008,,,61,38,,,61,0,,,61,0,,,1,13217
RWA,RW,3912,38117,38117,nyarusange,16157.0,30.45,-1.916,3,,,2007,,,0,0,,,61,0,,,0,0,,,1,13213
RWA,RW,3916,38134,38134,nyarutagara,,29.40087,-2.2240510000000002,3,,mapping,2014,8.0,18.0,50,2,0.0,0.0,50,39,0.0,0.24,50,23,0.0,0.0,1,22659
RWA,RW,3912,38116,38116,nyaruziba,,30.23949,-1.466839,3,,mapping,2014,8.0,18.0,50,5,0.0,0.0,50,3,0.0,0.0,50,5,0.0,0.0,1,22711
RWA,RW,3912,38114,38114,paysannat dps,,30.80521,-2.253072,3,,mapping,2014,8.0,18.0,50,4,0.0,0.0,50,4,0.0,0.0,50,5,0.0,0.0,1,22676
RWA,RW,3916,38139,38139,rambo,56578.0,29.27797,-1.74,3,,,2008,,,65,0,,,65,49,,,65,57,,,1,13399
RWA,RW,3916,38139,38139,rambo,16133.0,29.27797,-1.74,3,,,2008,,,0,0,,,65,0,,,0,0,,,1,13394
RWA,RW,3916,38139,38139,rambo ps,,29.34466,-1.6567479999999999,3,,mapping,2014,8.0,18.0,49,0,0.0,0.0,49,42,0.0,0.163,49,46,0.0,0.163,1,22745
RWA,RW,3916,38137,38137,rambura,56551.0,29.5178132,-1.6781172,1,,,2008,,,61,8,,,61,52,,,61,33,,,1,13378
RWA,RW,3916,38137,38137,rambura,16105.0,29.5178132,-1.6781172,1,,,2008,,,0,0,,,61,0,,,0,0,,,1,13375
RWA,RW,3915,38132,38132,remera,56574.0,29.4715548,-2.7966037999999998,1,,,2008,,,59,13,,,59,54,,,59,36,,,1,13340
RWA,RW,3915,38132,38132,remera,16129.0,29.4715548,-2.7966037999999998,1,,,2008,,,0,0,,,59,0,,,0,0,,,1,13341
RWA,RW,3912,38111,38111,rilima,56482.0,30.225308,-2.1540544,1,,,2008,,,60,15,,,60,2,,,60,2,,,1,13158
RWA,RW,3912,38111,38111,rilima,16027.0,30.225308,-2.1540544,1,,,2007,,,0,0,,,60,0,,,0,0,,,1,13161
RWA,RW,3916,38134,38134,rubengera ii,,29.40711,-2.054371,3,,mapping,2014,8.0,18.0,50,1,0.0,0.0,50,21,0.0,0.02,50,15,0.0,0.0,1,22660
RWA,RW,3912,38117,38117,rubona,56603.0,30.4347,-2.0363944,1,,,2008,,,63,48,,,63,3,,,63,3,,,1,13224
RWA,RW,3912,38117,38117,rubona,16158.0,30.4347,-2.0363944,1,,,2007,,,0,0,,,58,0,,,0,0,,,1,13220
RWA,RW,3916,38139,38139,rubona,56579.0,29.2684,-1.7187800000000002,3,,,2008,,,58,0,,,58,46,,,58,56,,,1,13395
RWA,RW,3916,38139,38139,rubona,16134.0,29.2684,-1.7187800000000002,3,,,2008,,,0,0,,,58,0,,,0,0,,,1,13397
RWA,RW,3916,38139,38139,rubona ps,,29.26834,-1.718636,3,,mapping,2014,8.0,18.0,48,0,0.0,0.0,48,38,0.0,0.375,48,45,0.0,0.292,1,22746
RWA,RW,3914,38121,38121,rugendabare,16034.0,29.783,-1.533,3,,,2007,,,0,0,,,68,0,,,0,0,,,1,13261
RWA,RW,3912,38116,38116,rugendo ps,,30.38414,-1.374562,3,,mapping,2014,8.0,18.0,50,3,0.0,0.0,50,2,0.0,0.0,50,1,0.0,0.0,1,22712
RWA,RW,3915,38131,38131,rugenge,56566.0,30.0708566,-1.9448531,1,,,2008,,,57,35,,,57,2,,,57,8,,,1,13334
RWA,RW,3913,38120,38120,rugenge,16125.0,30.0708566,-1.9448531,1,,,2008,,,0,0,,,57,0,,,0,0,,,1,13247
RWA,RW,3916,38138,38138,ruharambuga ps,,29.02804,-2.46006,3,,mapping,2014,8.0,18.0,50,2,0.0,0.0,50,13,0.0,0.02,50,5,0.0,0.0,1,22726
RWA,RW,3916,38138,38138,ruheru b,56564.0,29.1572,-2.3396499,3,,,2008,,,60,26,,,60,43,,,60,56,,,1,13389
RWA,RW,3916,38138,38138,ruheru b,16118.0,29.1572,-2.3396499,3,,,2008,,,0,0,,,60,0,,,0,0,,,1,13392
RWA,RW,3916,38140,38140,ruhoko ps,,29.01149,-2.695497,3,,mapping,2014,8.0,18.0,50,0,0.0,0.0,50,13,0.0,0.02,50,11,0.0,0.0,1,22768
RWA,RW,3912,38113,38113,rukara  catholique,56525.0,30.466,-1.816,3,,,2008,,,67,35,,,67,0,,,67,2,,,1,13180
RWA,RW,3912,38113,38113,rukara catholique,16072.0,30.5034396,-1.8007845,1,,,2007,,,0,0,,,67,0,,,0,0,,,1,13179
RWA,RW,3915,38127,38127,rukira,56512.0,30.586906,-2.1940761,1,,,2008,,,60,10,,,60,37,,,60,16,,,1,13309
RWA,RW,3915,38127,38127,rukira,16058.0,30.586906,-2.1940761,1,,,2008,,,0,0,,,60,0,,,0,0,,,1,13308
RWA,RW,3916,38137,38137,rukoma,56552.0,29.5223273,-1.602609,1,,,2008,,,60,7,,,60,50,,,60,34,,,1,13376
RWA,RW,3916,38137,38137,rukoma,16106.0,29.5223273,-1.602609,1,,,2008,,,0,0,,,60,0,,,0,0,,,1,13377
RWA,RW,3912,38116,38116,rurenge,56555.0,30.2757905,-1.3333777,1,,,2008,,,60,32,,,60,17,,,60,10,,,1,13212
RWA,RW,3912,38116,38116,rurenge,16109.0,30.2757905,-1.3333777,1,,,2008,,,0,0,,,60,0,,,0,0,,,1,13207
RWA,RW,3912,38113,38113,rushenyi,56526.0,30.666,-2.05,3,,,2008,,,61,29,,,61,2,,,61,0,,,1,13178
RWA,RW,3912,38113,38113,rushenyi,16073.0,30.666,-2.05,3,,,2007,,,0,0,,,61,0,,,0,0,,,1,13181
RWA,RW,3916,38141,38141,rusororo,56596.0,30.2397336,-1.9298318,1,,,2008,,,60,13,,,60,41,,,60,36,,,1,13414
RWA,RW,3916,38141,38141,rusororo,16151.0,30.2397336,-1.9298318,1,,,2008,,,0,0,,,60,0,,,0,0,,,1,13412
RWA,RW,3915,38132,38132,rusuzumiro,16130.0,29.4849,-2.6227,3,,,2008,,,0,0,,,58,0,,,0,0,,,1,13343
RWA,RW,3912,38116,38116,rutaraka ps,,30.29848,-1.353913,3,,mapping,2014,8.0,18.0,50,12,0.0,0.0,50,0,0.0,0.0,50,1,0.0,0.0,1,22713
RWA,RW,3912,38113,38113,rutare,56527.0,30.549999,-1.99,3,,,2008,,,58,25,,,58,0,,,58,0,,,1,13183
RWA,RW,3912,38113,38113,rutare,16074.0,30.549999,-1.99,3,,,2007,,,0,0,,,58,0,,,0,0,,,1,13185
RWA,RW,3915,38128,38128,rutobwe,56515.0,29.7990555,-1.9843663,1,,,2008,,,60,17,,,60,2,,,60,0,,,1,13317
RWA,RW,3915,38128,38128,rutobwe,16062.0,29.7990555,-1.9843663,1,,,2008,,,0,0,,,60,0,,,0,0,,,1,13314
RWA,RW,3912,38116,38116,rutoma,56556.0,30.2466667,-1.6705556,1,,,2008,,,60,30,,,60,26,,,60,19,,,1,13208
RWA,RW,3912,38116,38116,rutoma,16110.0,30.2466667,-1.6705556,1,,,2008,,,0,0,,,60,0,,,0,0,,,1,13205
RWA,RW,3912,38116,38116,rutoma gs,,30.2947,-1.44483,3,,mapping,2014,8.0,18.0,50,10,0.0,0.0,50,6,0.0,0.02,50,5,0.0,0.0,1,22714
RWA,RW,3914,38125,38125,rutonde,56589.0,30.4444046,-2.0256607,1,,,2008,,,60,17,,,60,17,,,60,12,,,1,13290
RWA,RW,3914,38125,38125,rutonde,16141.0,30.4444046,-2.0256607,1,,,2008,,,0,0,,,60,0,,,0,0,,,1,13296
RWA,RW,3913,38118,38118,rutunga,56495.0,30.1935663,-1.8457396,1,,,2008,,,61,12,,,61,2,,,61,0,,,1,13232
RWA,RW,3913,38118,38118,rutunga,16042.0,30.1935663,-1.8457396,1,,,2008,,,0,0,,,61,0,,,0,0,,,1,13235
RWA,RW,3916,38139,38139,ruvuzananga ps,,29.27842,-1.740275,3,,mapping,2014,8.0,18.0,50,0,0.0,0.0,50,49,0.0,0.52,50,48,0.0,0.38,1,22747
RWA,RW,3915,38128,38128,ruyenzi,56516.0,29.9859918,-1.9683215,1,,,2008,,,60,6,,,60,8,,,60,8,,,1,13315
RWA,RW,3915,38128,38128,ruyenzi,16063.0,29.9859918,-1.9683215,1,,,2008,,,0,0,,,60,0,,,0,0,,,1,13318
RWA,RW,3916,38139,38139,rwamigega ps,,29.32902,-1.5843509999999998,3,,mapping,2014,8.0,18.0,49,0,0.0,0.0,49,49,0.0,0.673,49,49,0.0,0.327,1,22748
RWA,RW,3914,38122,38122,rwankuba,56490.0,29.8576185,-1.7666203,1,,,2008,,,60,12,,,60,13,,,60,2,,,1,13273
RWA,RW,3914,38122,38122,rwankuba,16038.0,29.8576185,-1.7666203,1,,,2008,,,0,0,,,60,0,,,0,0,,,1,13271
RWA,RW,3915,38126,38126,rwatano,56508.0,29.886944,-2.5107219,3,,,2008,,,61,30,,,61,2,,,61,2,,,1,13306
RWA,RW,3915,38126,38126,rwatano,16054.0,29.886944,-2.5107219,3,,,2008,,,0,0,,,61,0,,,0,0,,,1,13298
RWA,RW,3913,38120,38120,rwesero,16126.0,30.0231861,-2.004452,1,,,2008,,,0,0,,,59,0,,,0,0,,,1,13249
RWA,RW,3914,38123,38123,rwesero,16050.0,30.1784142,-1.799878,1,,,2008,,,0,0,,,59,0,,,0,0,,,1,13280
RWA,RW,3914,38123,38123,rwesero gicumbi,56503.0,30.1784142,-1.799878,1,,,2008,,,59,33,,,59,8,,,59,0,,,1,13277
RWA,RW,3915,38133,38133,rwesero1,56585.0,30.1784142,-1.799878,1,,,2008,,,58,33,,,58,4,,,58,0,,,1,13349
RWA,RW,3915,38131,38131,rweseronyanza,56567.0,30.1784142,-1.799878,1,,,2008,,,61,15,,,61,4,,,61,2,,,1,13336
RWA,RW,3914,38125,38125,rwili,56590.0,29.927099,-1.62782,3,,,2008,,,60,4,,,60,39,,,60,27,,,1,13297
RWA,RW,3912,38113,38113,rwinkwavu,56528.0,30.6151796,-1.9592922,1,,,2008,,,67,31,,,67,1,,,67,1,,,1,13184
RWA,RW,3912,38113,38113,rwinkwavu,16075.0,30.6151796,-1.9592922,1,,,2007,,,0,0,,,67,0,,,0,0,,,1,13182
RWA,RW,3914,38125,38125,rwiri,16142.0,29.9271,-1.62782,3,,,2008,,,0,0,,,60,0,,,0,0,,,1,13289
RWA,RW,3914,38124,38124,ryandinzi,16094.0,29.7503,-1.5275,3,,,2007,,,0,0,,,64,0,,,0,0,,,1,13288
RWA,RW,3913,38119,38119,saint esprit,56532.0,30.1044288,-1.9705786,1,,,2008,,,52,0,,,52,0,,,52,0,,,1,13239
RWA,RW,3915,38126,38126,save,56509.0,29.775555,-2.5546670000000002,3,,,2008,,,59,21,,,59,21,,,59,3,,,1,13300
RWA,RW,3915,38126,38126,save b,16055.0,29.7963552,-2.5511856,3,,,2008,,,0,0,,,59,0,,,0,0,,,1,13301
RWA,RW,3916,38137,38137,shaki,,29.58454,-1.697936,3,,mapping,2014,8.0,18.0,50,0,0.0,0.0,50,45,0.0,0.16,50,5,0.0,0.0,1,22706
RWA,RW,3912,38111,38111,shami,56483.0,30.083,-2.35,3,,,2008,,,64,27,,,64,0,,,64,2,,,1,13162
RWA,RW,3912,38111,38111,shami,16028.0,30.083,-2.35,3,,,2007,,,0,0,,,64,0,,,0,0,,,1,13160
RWA,RW,3916,38140,38140,shara,56594.0,29.009001,-2.5999999,3,,,2008,,,70,8,,,70,39,,,70,16,,,1,13409
RWA,RW,3916,38140,38140,shara,16148.0,29.009001,-2.5999999,3,,,2007,,,0,0,,,70,0,,,0,0,,,1,13407
RWA,RW,3915,38129,38129,shyogwe,56539.0,29.7770613,-2.1038264,1,,,2008,,,65,29,,,65,26,,,65,5,,,1,13328
RWA,RW,3915,38129,38129,shyogwe,16088.0,29.7770613,-2.1038264,1,,,2008,,,0,0,,,65,0,,,0,0,,,1,13323
RWA,RW,3915,38127,38127,simbi,16059.0,29.6842738,-2.5017233,3,,,2008,,,0,0,,,60,0,,,0,0,,,1,13312
RWA,RW,3915,38130,38130,sos ps nyamagabe,,29.56958,-2.467398,3,,mapping,2014,8.0,18.0,45,0,0.0,0.0,45,0,0.0,0.0,45,3,0.0,0.0,1,22719
RWA,RW,3913,38118,38118,source de savoir,16043.0,30.2278955,-1.9789462,1,,,2008,,,0,0,,,54,0,,,0,0,,,1,13227
RWA,RW,3913,38118,38118,source du savoir,56496.0,30.2278955,-1.9789462,1,,,2008,,,54,0,,,54,0,,,54,0,,,1,13225
RWA,RW,3916,38141,38141,sure,56597.0,29.37693,-2.0093,3,,,2008,,,64,10,,,64,49,,,64,29,,,1,13418
RWA,RW,3916,38141,38141,sure,16152.0,29.37693,-2.0093,3,,,2008,,,0,0,,,64,0,,,0,0,,,1,13415
RWA,RW,3914,38123,38123,tanda,56504.0,30.260201,-1.8016,3,,,2008,,,60,39,,,60,6,,,60,4,,,1,13276
RWA,RW,3914,38123,38123,tanda,16051.0,30.260201,-1.8016,3,,,2008,,,0,0,,,60,0,,,0,0,,,1,13279
RWA,RW,3912,38111,38111,umurage right school,,30.04665,-2.301103,3,,mapping,2014,8.0,18.0,50,2,0.0,0.0,50,0,0.0,0.0,50,0,0.0,0.0,1,22600
RWA,RW,3913,38119,38119,utunyenyeri,,30.07014,-1.982306,3,,mapping,2014,8.0,18.0,50,1,0.0,0.0,50,0,0.0,0.0,50,0,0.0,0.0,1,22671
