iso3,iso2,admin1_id,admin2_id,iu_id,location,site_id,longitude,latitude,georeliability,location_type,survey_type,year,age_start,age_end,hk_examined,hk_positive,hk_perc_highinfection,hk_perc_moderateinfection,asc_examined,asc_positive,asc_perc_highinfection,asc_perc_moderateinfection,tt_examined,tt_positive,tt_perc_highinfection,tt_perc_moderateinfection,quality,sn
ZAF,ZA,4471.0,43314.0,43314.0,aan de doorns,56802.0,19.5,-33.7,1,,,2001.0,,,0,0,,,28,1,,,28,7,,,2,18243
ZAF,ZA,4463.0,43274.0,43274.0,aberdeen primary school,,24.0611,-32.4743,3,school,mapping,2017.0,5.0,15.0,37,0,0.0,0.0,37,12,0.0,0.0,37,0,0.0,0.0,1,36314
ZAF,ZA,4465.0,43283.0,43283.0,akasia primary school,,28.1291,-25.6679,3,school,mapping,2017.0,5.0,16.0,50,4,0.0,0.0,50,7,0.0,0.0,50,0,0.0,0.0,1,36360
ZAF,ZA,4463.0,43274.0,43274.0,alexandria primary school,,26.4155,-33.6501,3,school,mapping,2017.0,5.0,15.0,27,4,0.0,0.0,27,2,0.0,0.0,27,0,0.0,0.0,1,36315
ZAF,ZA,4465.0,43280.0,43280.0,alrapark primary school,,28.5086,-26.4355,3,school,mapping,2017.0,5.0,16.0,46,1,0.0,0.0,46,10,0.0,10.0,46,0,0.0,0.0,1,36321
ZAF,ZA,4466.0,43287.0,43287.0,amahlongwa,56840.0,30.7177509,-30.2360179,1,,,0.0,,,155,18,,,155,87,,,155,121,,,3,18153
ZAF,ZA,4466.0,43288.0,43288.0,babazani,56849.0,32.3447,-28.1119,3,,,0.0,,,168,139,,,168,121,,,168,141,,,3,18173
ZAF,ZA,4469.0,43306.0,43306.0,b.m mokitime primary shool,,25.5884,-25.8672,3,school,mapping,2017.0,5.0,16.0,35,2,0.0,0.0,35,13,0.0,7.69,35,0,0.0,0.0,1,36655
ZAF,ZA,4463.0,43269.0,43269.0,balasi primary school,,27.4429,-32.8306,3,school,mapping,2017.0,5.0,15.0,48,0,0.0,0.0,48,8,12.5,0.0,48,0,0.0,0.0,1,36286
ZAF,ZA,4465.0,43280.0,43280.0,bapsfontein primary school,,28.428,-25.9999,3,school,mapping,2017.0,5.0,16.0,47,1,0.0,0.0,47,0,0.0,0.0,47,0,0.0,0.0,1,36322
ZAF,ZA,4466.0,43289.0,43289.0,barnhill,56871.0,30.526699,-28.7833,3,,,0.0,,,81,0,,,81,7,,,81,2,,,3,18184
ZAF,ZA,4469.0,43304.0,43304.0,barseba primary school,,27.5345,-25.5482,3,school,mapping,2017.0,5.0,16.0,50,7,14.29,0.0,50,11,0.0,0.0,50,0,0.0,0.0,1,36629
ZAF,ZA,4466.0,43287.0,43287.0,bashise,56841.0,30.31467,-30.88883,1,,,0.0,,,164,70,,,164,116,,,164,159,,,3,18156
ZAF,ZA,4469.0,43306.0,43306.0,bathobatho primary school,,25.4744,-26.2016,3,school,mapping,2017.0,5.0,16.0,34,0,0.0,0.0,34,11,0.0,0.0,34,0,0.0,0.0,1,36656
ZAF,ZA,4469.0,43305.0,43305.0,baviaanskraans primary school,,26.4417,-27.3437,3,school,mapping,2017.0,5.0,16.0,24,0,0.0,0.0,24,3,0.0,0.0,24,0,0.0,0.0,1,36643
ZAF,ZA,4466.0,43294.0,43294.0,bhidakona,56896.0,31.0727729,-29.3275883,1,,,0.0,,,140,7,,,140,84,,,140,78,,,3,18205
ZAF,ZA,4469.0,43304.0,43304.0,bogatsu primary school,,26.618,-25.4923,3,school,mapping,2017.0,5.0,16.0,50,11,27.27,0.0,50,23,0.0,0.0,50,0,0.0,0.0,1,36630
ZAF,ZA,4469.0,43304.0,43304.0,bogosi primary school,,26.9575,-26.419,3,school,mapping,2017.0,5.0,16.0,50,1,0.0,0.0,50,5,0.0,0.0,50,0,0.0,0.0,1,36631
ZAF,ZA,4465.0,43282.0,43282.0,boiketlong christian school,,27.9462,-26.6504,3,school,mapping,2017.0,5.0,16.0,30,1,0.0,0.0,30,2,0.0,0.0,30,0,0.0,0.0,1,36346
ZAF,ZA,4469.0,43307.0,43307.0,boitumelong primary school,,26.6077,-26.897,3,school,mapping,2017.0,5.0,16.0,47,8,0.0,12.5,47,12,0.0,0.0,47,0,0.0,0.0,1,36669
ZAF,ZA,4463.0,43267.0,43267.0,bokamoso primary school,,28.803,-30.3409,3,school,mapping,2017.0,5.0,15.0,35,0,0.0,0.0,35,8,0.0,0.0,35,0,0.0,0.0,1,36276
ZAF,ZA,4465.0,43282.0,43282.0,boneha primary school,,28.328,-26.552,3,school,mapping,2017.0,5.0,16.0,33,1,0.0,0.0,33,11,0.0,0.0,33,0,0.0,0.0,1,36347
ZAF,ZA,4465.0,43281.0,43281.0,bonwelong primary school,,28.2001,-25.999,3,school,mapping,2017.0,5.0,16.0,44,2,0.0,0.0,44,7,0.0,0.0,44,0,0.0,0.0,1,36336
ZAF,ZA,4469.0,43304.0,43304.0,borite primary school,,27.1967,-25.2889,3,school,mapping,2017.0,5.0,16.0,43,1,0.0,0.0,43,15,0.0,0.0,43,0,0.0,0.0,1,36632
ZAF,ZA,4465.0,43283.0,43283.0,boschkop primary school,,28.5008,-25.8582,3,school,mapping,2017.0,5.0,16.0,49,6,16.67,33.33,49,6,0.0,0.0,49,0,0.0,0.0,1,36361
ZAF,ZA,4465.0,43281.0,43281.0,bottom mine primary school,,27.7645,-26.2189,3,school,mapping,2017.0,5.0,16.0,50,1,100.0,0.0,50,20,0.0,0.0,50,0,0.0,0.0,1,36337
ZAF,ZA,4465.0,43284.0,43284.0,brandvlei primary farm school,,27.5948,-26.134900000000002,3,school,mapping,2017.0,5.0,16.0,49,2,50.0,0.0,49,20,0.0,0.0,49,1,0.0,0.0,1,36375
ZAF,ZA,4471.0,43314.0,43314.0,brandwacht,56803.0,18.8692596,-33.9554117,1,,,2001.0,,,0,0,,,25,2,,,25,5,,,2,18246
ZAF,ZA,4463.0,43269.0,43269.0,breidbach primary school,,27.4429,-32.8865,3,school,mapping,2017.0,5.0,15.0,26,0,0.0,0.0,26,4,0.0,0.0,26,0,0.0,0.0,1,36287
ZAF,ZA,4463.0,43267.0,43267.0,buffalonek jr primary school,,28.8575,-30.8261,3,school,mapping,2017.0,5.0,15.0,24,1,0.0,0.0,24,7,0.0,0.0,24,0,0.0,0.0,1,36277
ZAF,ZA,4465.0,43284.0,43284.0,bulelani primary school,,27.6981,-26.2297,3,school,mapping,2017.0,5.0,16.0,50,3,0.0,0.0,50,17,0.0,0.0,50,1,0.0,100.0,1,36376
ZAF,ZA,4463.0,43270.0,43270.0,cala river sr primary school,,27.6164,-31.5034,3,school,mapping,2017.0,5.0,15.0,12,0,0.0,0.0,12,3,0.0,0.0,12,0,0.0,0.0,1,36291
ZAF,ZA,4468.0,43302.0,43302.0,carolina combined,,30.117,-26.0674,3,school,mapping,2018.0,5.0,15.0,46,0,0.0,0.0,46,24,0.0,0.0,46,0,0.0,0.0,1,36608
ZAF,ZA,4463.0,43268.0,43268.0,cilo primary school,,28.3336,-32.3438,3,school,mapping,2017.0,5.0,15.0,50,0,0.0,0.0,50,22,40.9,0.0,50,1,0.0,0.0,1,36281
ZAF,ZA,4463.0,43273.0,43273.0,dalindyebo sps primary school,,29.0397,-31.7337,3,school,mapping,2017.0,5.0,15.0,42,0,0.0,0.0,42,8,50.0,0.0,42,0,0.0,0.0,1,36309
ZAF,ZA,4465.0,43280.0,43280.0,dalpark primary school,,28.3291,-26.2537,3,school,mapping,2017.0,5.0,16.0,47,5,0.0,0.0,47,15,0.0,0.0,47,0,0.0,0.0,1,36323
ZAF,ZA,4471.0,43316.0,43316.0,de rust,56817.0,22.5304693,-33.4907417,1,,,2001.0,,,0,0,,,30,1,,,30,19,,,2,18252
ZAF,ZA,4465.0,43284.0,43284.0,die poort primary farm school,,27.6493,-25.8726,3,school,mapping,2017.0,5.0,16.0,49,5,20.0,0.0,49,18,0.0,0.0,49,0,0.0,0.0,1,36377
ZAF,ZA,4465.0,43283.0,43283.0,dikago dintle primary school,,28.0068,-25.4373,3,school,mapping,2017.0,5.0,16.0,50,7,28.57,0.0,50,14,0.0,0.0,50,0,0.0,0.0,1,36362
ZAF,ZA,4469.0,43306.0,43306.0,dikhudu primary school,,25.7649,-25.3295,3,school,mapping,2017.0,5.0,16.0,25,0,0.0,0.0,25,9,0.0,0.0,25,0,0.0,0.0,1,36657
ZAF,ZA,4465.0,43282.0,43282.0,dinokeng primary farm school,,27.8072,-26.636,3,school,mapping,2017.0,5.0,16.0,42,2,0.0,0.0,42,3,0.0,0.0,42,0,0.0,0.0,1,36348
ZAF,ZA,4465.0,43281.0,43281.0,donaldson primary school,,27.8743,-26.2538,3,school,mapping,2017.0,5.0,16.0,50,2,50.0,0.0,50,12,0.0,0.0,50,0,0.0,0.0,1,36338
ZAF,ZA,4466.0,43295.0,43295.0,dormers,56899.0,30.165001,-29.4133,3,,,0.0,,,75,2,,,75,34,,,75,4,,,3,18209
ZAF,ZA,4465.0,43281.0,43281.0,dr knak primary school,,28.0971,-26.1066,3,school,mapping,2017.0,5.0,16.0,45,0,0.0,0.0,45,8,0.0,0.0,45,0,0.0,0.0,1,36339
ZAF,ZA,4465.0,43282.0,43282.0,dr nhlapo intermediate school,,27.8487,-26.668,3,school,mapping,2017.0,5.0,16.0,37,1,0.0,0.0,37,3,0.0,0.0,37,0,0.0,0.0,1,36349
ZAF,ZA,4469.0,43306.0,43306.0,duikerbos primary school,,25.348,-26.5392,3,school,mapping,2017.0,5.0,16.0,41,2,0.0,0.0,41,12,0.0,0.0,41,0,0.0,0.0,1,36659
ZAF,ZA,4468.0,43303.0,43303.0,dumezizweni,,30.25,-25.6951,3,school,mapping,2018.0,5.0,15.0,48,0,0.0,0.0,48,2,0.0,0.0,48,0,0.0,0.0,1,36620
ZAF,ZA,4466.0,43287.0,43287.0,ekhuza hp,56842.0,30.063299,-30.5783,3,,,0.0,,,90,0,,,90,21,,,90,51,,,3,18160
ZAF,ZA,4465.0,43281.0,43281.0,ekukhanyisweni primary school,,28.094,-26.1094,3,school,mapping,2017.0,5.0,16.0,49,2,0.0,0.0,49,11,0.0,0.0,49,0,0.0,0.0,1,36340
ZAF,ZA,4466.0,43295.0,43295.0,emakeni,56900.0,30.875,-29.2783,3,,,0.0,,,145,4,,,145,43,,,145,23,,,3,18208
ZAF,ZA,4466.0,43288.0,43288.0,endikondlweni,56851.0,32.555,-27.185,3,,,0.0,,,88,25,,,88,76,,,88,73,,,3,18174
ZAF,ZA,4468.0,43301.0,43301.0,entokozweni primary school,,31.1289,-25.3494,3,school,mapping,2018.0,5.0,15.0,45,0,0.0,0.0,45,12,0.0,0.0,45,0,0.0,0.0,1,36595
ZAF,ZA,4463.0,43270.0,43270.0,esethu public primary school,,27.35,-31.4696,3,school,mapping,2017.0,5.0,15.0,35,1,0.0,0.0,35,6,0.0,0.0,35,0,0.0,0.0,1,36292
ZAF,ZA,4466.0,43289.0,43289.0,esibila,56872.0,30.65837,-28.8196,1,,,0.0,,,115,0,,,115,7,,,115,15,,,3,18187
ZAF,ZA,4469.0,43304.0,43304.0,ennis thabong primary school,,27.918,-25.7532,3,school,mapping,2017.0,5.0,16.0,50,2,0.0,0.0,50,15,0.0,0.0,50,0,0.0,0.0,1,36633
ZAF,ZA,4466.0,43291.0,43291.0,esihoshe,56876.0,30.8633,-28.7617,3,,,0.0,,,103,1,,,103,8,,,103,18,,,3,18189
ZAF,ZA,4463.0,43271.0,43271.0,et tabane junior sec school,,28.2486,-31.1941,3,school,mapping,2017.0,5.0,15.0,47,2,0.0,0.0,47,10,0.0,0.0,47,0,0.0,0.0,1,36297
ZAF,ZA,4466.0,43290.0,43290.0,ezinyonya,56875.0,29.4167,-28.91,3,,,0.0,,,116,0,,,116,5,,,116,8,,,3,18188
ZAF,ZA,4463.0,43274.0,43274.0,fairview primary school,,26.6543,-33.4075,3,school,mapping,2017.0,5.0,15.0,27,1,0.0,0.0,27,6,0.0,0.0,27,0,0.0,0.0,1,36316
ZAF,ZA,4463.0,43269.0,43269.0,fikile benson primary school,,27.7312,-32.9303,3,school,mapping,2017.0,5.0,15.0,34,0,0.0,0.0,34,5,0.0,0.0,34,0,0.0,0.0,1,36288
ZAF,ZA,4465.0,43284.0,43284.0,fjl wells primary school,,27.7276,-26.1661,3,school,mapping,2017.0,5.0,16.0,50,5,20.0,0.0,50,13,0.0,7.69,50,0,0.0,0.0,1,36378
ZAF,ZA,4465.0,43283.0,43283.0,foxtrot primary school,,27.702,-26.2854,3,school,mapping,2017.0,5.0,16.0,49,11,36.36,9.09,49,6,0.0,0.0,49,0,0.0,0.0,1,36363
ZAF,ZA,4469.0,43306.0,43306.0,ga iseraele primary school,,25.5508,-25.8694,3,school,mapping,2017.0,5.0,16.0,35,0,0.0,0.0,35,11,0.0,0.0,35,0,0.0,0.0,1,36660
ZAF,ZA,4469.0,43306.0,43306.0,gaetsalwe primary school,,25.0834,-25.7428,3,school,mapping,2017.0,5.0,16.0,27,0,0.0,0.0,27,18,0.0,0.0,27,0,0.0,0.0,1,36661
ZAF,ZA,4471.0,43314.0,43314.0,gelukshoop,56804.0,20.1361021,-33.9652213,1,,,2001.0,,,0,0,,,27,0,,,27,8,,,2,18251
ZAF,ZA,4469.0,43306.0,43306.0,george madoda primary school,,25.4444,-26.6847,3,school,mapping,2017.0,5.0,16.0,49,4,25.0,0.0,49,10,0.0,0.0,49,0,0.0,0.0,1,36662
ZAF,ZA,4465.0,43283.0,43283.0,glenstatia primary school,,28.285,-25.7897,3,school,mapping,2017.0,5.0,16.0,25,1,100.0,0.0,25,0,0.0,0.0,25,0,0.0,0.0,1,36364
ZAF,ZA,4469.0,43304.0,43304.0,goakganya primary school,,27.9787,-25.441,3,school,mapping,2017.0,5.0,16.0,50,2,100.0,0.0,50,15,0.0,0.0,50,0,0.0,0.0,1,36634
ZAF,ZA,4466.0,43287.0,43287.0,gobhela,56844.0,30.58557,-30.54033,1,,,0.0,,,166,80,,,166,103,,,166,158,,,3,18158
ZAF,ZA,4469.0,43305.0,43305.0,goedgevonden primary school,,26.9,-26.1572,3,school,mapping,2017.0,5.0,16.0,49,4,25.0,0.0,49,11,0.0,0.0,49,0,0.0,0.0,1,36645
ZAF,ZA,4463.0,43267.0,43267.0,gogela primary school,,29.2348,-30.6397,3,school,mapping,2017.0,5.0,15.0,37,0,0.0,0.0,37,6,0.0,0.0,37,0,0.0,0.0,1,36279
ZAF,ZA,4469.0,43305.0,43305.0,gontse primary school,,25.9673,-27.223,3,school,mapping,2017.0,5.0,16.0,49,2,0.0,0.0,49,14,14.29,0.0,49,0,0.0,0.0,1,36646
ZAF,ZA,4465.0,43280.0,43280.0,greenfields primary school,,28.1322,-26.392,3,school,mapping,2017.0,5.0,16.0,49,1,0.0,0.0,49,3,0.0,0.0,49,0,0.0,0.0,1,36324
ZAF,ZA,4465.0,43284.0,43284.0,greenspark primary school,,27.3046,-26.2935,3,school,mapping,2017.0,5.0,16.0,48,1,0.0,0.0,48,11,0.0,0.0,48,0,0.0,0.0,1,36379
ZAF,ZA,4463.0,43268.0,43268.0,gubevu primary school,,27.4281,-32.2797,3,school,mapping,2017.0,5.0,15.0,48,0,0.0,0.0,48,22,4.54,0.0,48,1,0.0,0.0,1,36282
ZAF,ZA,4468.0,43301.0,43301.0,hambanathi primary school,,30.1712,-25.3425,3,school,mapping,2018.0,5.0,15.0,45,2,0.0,0.0,45,19,5.26,0.0,45,0,0.0,0.0,1,36596
ZAF,ZA,4465.0,43284.0,43284.0,hartzstraat primary school,,27.7173,-26.2053,3,school,mapping,2017.0,5.0,16.0,50,2,0.0,0.0,50,14,0.0,0.0,50,0,0.0,0.0,1,36380
ZAF,ZA,4465.0,43284.0,43284.0,hekpoort,56884.0,27.616667,-25.883333,1,,,0.0,,,0,0,,,144,7,,,144,4,,,3,18150
ZAF,ZA,4463.0,43270.0,43270.0,hillview primary school,,27.8267,-31.3306,3,school,mapping,2017.0,5.0,15.0,28,0,0.0,0.0,28,2,100.0,0.0,28,0,0.0,0.0,1,36293
ZAF,ZA,4465.0,43284.0,43284.0,hlangabeza primary school,,27.1926,-26.1937,4,school,mapping,2017.0,5.0,16.0,50,0,0.0,0.0,50,6,0.0,0.0,50,0,0.0,0.0,1,36381
ZAF,ZA,4466.0,43291.0,43291.0,holwane,56877.0,30.645,-28.6983,3,,,0.0,,,114,1,,,114,7,,,114,6,,,3,18191
ZAF,ZA,4469.0,43304.0,43304.0,i.b dammons combined school,,27.8492,-25.626,3,school,mapping,2017.0,5.0,16.0,46,6,33.33,33.33,46,17,0.0,0.0,46,0,0.0,0.0,1,36635
ZAF,ZA,4466.0,43287.0,43287.0,imbalencane,56845.0,30.368299,-30.6667,3,,,0.0,,,157,31,,,157,118,,,157,149,,,3,18154
ZAF,ZA,4466.0,43291.0,43291.0,inyathi,56878.0,31.623301,-28.85,3,,,0.0,,,111,2,,,111,6,,,111,34,,,3,18190
ZAF,ZA,4465.0,43284.0,43284.0,ipeleng primary school,,25.618,-25.8412,4,school,mapping,2017.0,5.0,16.0,50,1,0.0,0.0,50,18,0.0,0.0,50,0,0.0,0.0,1,36382
ZAF,ZA,4468.0,43302.0,43302.0,isabella dale primary school,,30.5794,-26.2191,3,school,mapping,2018.0,5.0,15.0,31,0,0.0,0.0,31,11,0.0,0.0,31,0,0.0,0.0,1,36610
ZAF,ZA,4465.0,43284.0,43284.0,isiqalo primary school,,27.708,-26.2882,3,school,mapping,2017.0,5.0,16.0,50,1,0.0,0.0,50,17,0.0,0.0,50,1,0.0,0.0,1,36383
ZAF,ZA,4469.0,43304.0,43304.0,itumeleng primary school,,27.8337,-25.4804,3,school,mapping,2017.0,5.0,16.0,50,5,40.0,0.0,50,16,0.0,0.0,50,0,0.0,0.0,1,36636
ZAF,ZA,4465.0,43280.0,43280.0,izibuko primary school,,28.1508,-26.3141,3,school,mapping,2017.0,5.0,16.0,47,4,0.0,0.0,47,24,0.0,4.17,47,0,0.0,0.0,1,36325
ZAF,ZA,4469.0,43306.0,43306.0,j.s masisi primary school,,25.3683,-26.5081,3,school,mapping,2017.0,5.0,16.0,40,3,0.0,0.0,40,12,0.0,0.0,40,0,0.0,0.0,1,36663
ZAF,ZA,4466.0,43289.0,43289.0,jangeni,56873.0,30.5357,-28.87105,1,,,0.0,,,114,0,,,114,6,,,114,10,,,3,18185
ZAF,ZA,4468.0,43303.0,43303.0,jeremiah mdaka primary school,,29.1316,-25.872,3,school,mapping,2018.0,5.0,15.0,46,1,0.0,0.0,46,14,0.0,7.14,46,0,0.0,0.0,1,36621
ZAF,ZA,4465.0,43284.0,43284.0,kagiso,56885.0,27.7871774,-26.1629979,1,,,0.0,,,0,0,,,76,10,,,76,2,,,3,18149
ZAF,ZA,4463.0,43267.0,43267.0,kennersley,56787.0,29.1067,-30.3567,3,,,0.0,,,35,0,,,35,3,,,35,2,,,3,18145
ZAF,ZA,4469.0,43304.0,43304.0,kgale primary school,,27.1677,-25.6018,3,school,mapping,2017.0,5.0,16.0,50,2,100.0,0.0,50,17,0.0,0.0,50,0,0.0,0.0,1,36637
ZAF,ZA,4468.0,43301.0,43301.0,khanyisile primary school,,30.9565,-25.8028,3,school,mapping,2018.0,5.0,15.0,49,6,0.0,16.66,49,12,0.0,0.0,49,0,0.0,0.0,1,36597
ZAF,ZA,4469.0,43304.0,43304.0,khayakhulu primary school,,26.6552,-25.107,3,school,mapping,2017.0,5.0,16.0,50,0,0.0,0.0,50,17,0.0,0.0,50,0,0.0,0.0,1,36638
ZAF,ZA,4463.0,43270.0,43270.0,khayalethu j. primary school,,27.6444,-32.9782,3,school,mapping,2017.0,5.0,15.0,11,0,0.0,0.0,11,0,0.0,0.0,11,0,0.0,0.0,1,36294
ZAF,ZA,4471.0,43314.0,43314.0,klaasvoogds,56805.0,19.9994692,-33.8008559,1,,,0.0,,,0,0,,,30,2,,,30,8,,,3,18244
ZAF,ZA,4471.0,43314.0,43314.0,klapmuts,56806.0,18.8625753,-33.8105624,1,,,0.0,,,0,0,,,583,122,,,583,157,,,3,18240
ZAF,ZA,4471.0,43317.0,43317.0,klipdal,56833.0,19.9720161,-34.3040917,1,,,0.0,,,0,0,,,30,2,,,30,8,,,3,18254
ZAF,ZA,4468.0,43303.0,43303.0,klipfontein laerskool,,29.2425,-25.9034,3,school,mapping,2018.0,5.0,15.0,23,2,100.0,0.0,23,5,0.0,0.0,23,0,0.0,0.0,1,36623
ZAF,ZA,4471.0,43318.0,43318.0,koelfontein,56882.0,17.865,-31.167,3,,,0.0,,,0,0,,,30,2,,,30,9,,,3,18258
ZAF,ZA,4469.0,43306.0,43306.0,koikoi primary school,,25.5934,-25.9359,3,school,mapping,2017.0,5.0,16.0,36,8,0.0,0.0,36,18,0.0,0.0,36,0,0.0,0.0,1,36664
ZAF,ZA,4469.0,43307.0,43307.0,kokomeng primary school,,25.0486,-27.6256,3,school,mapping,2017.0,5.0,16.0,50,0,0.0,0.0,50,12,0.0,0.0,50,0,0.0,0.0,1,36671
ZAF,ZA,4463.0,43267.0,43267.0,kopana senior primary school,,29.8513,-30.9403,3,school,mapping,2017.0,5.0,15.0,41,0,0.0,0.0,41,4,75.0,0.0,41,0,0.0,0.0,1,36280
ZAF,ZA,4469.0,43307.0,43307.0,kromelmboog primary school,,25.2265,-27.8139,3,school,mapping,2017.0,5.0,16.0,23,0,0.0,0.0,23,14,0.0,0.0,23,0,0.0,0.0,1,36672
ZAF,ZA,4471.0,43314.0,43314.0,kromfontein,56807.0,19.2479999,-32.9536699,1,,,0.0,,,0,0,,,30,0,,,30,5,,,3,18249
ZAF,ZA,4469.0,43307.0,43307.0,kwalo kitso primary school,,25.1224,-27.8922,3,school,mapping,2017.0,5.0,16.0,40,2,0.0,0.0,40,20,0.0,0.0,40,0,0.0,0.0,1,36673
ZAF,ZA,4466.0,43287.0,43287.0,kwandabenzinhle,56846.0,30.38,-30.7583,3,,,0.0,,,118,13,,,118,76,,,118,116,,,3,18161
ZAF,ZA,4471.0,43314.0,43314.0,kylemore,56808.0,18.9524518,-33.9193671,1,,,1991.0,,,0,0,,,34,16,,,34,23,,,3,18250
ZAF,ZA,4465.0,43284.0,43284.0,laerskool millenium,,27.7885,-26.1083,3,school,mapping,2017.0,5.0,16.0,26,2,0.0,0.0,26,0,0.0,0.0,26,0,0.0,0.0,1,36384
ZAF,ZA,4465.0,43283.0,43283.0,laerskool uniefees,,28.2483,-25.5487,3,school,mapping,2017.0,5.0,16.0,5,0,0.0,0.0,5,2,0.0,50.0,5,0,0.0,0.0,1,36365
ZAF,ZA,4471.0,43318.0,43318.0,langebaan,56883.0,18.0657939,-33.0547004,1,,,2000.0,,,0,0,,,235,169,,,235,169,,,3,18257
ZAF,ZA,4465.0,43281.0,43281.0,lawley primary school,,27.8147,-26.3843,3,school,mapping,2017.0,5.0,16.0,48,0,0.0,0.0,48,13,0.0,0.0,48,0,0.0,0.0,1,36341
ZAF,ZA,4465.0,43280.0,43280.0,leeuwpoort primary school,,28.2061,-26.1869,3,school,mapping,2017.0,5.0,16.0,48,4,75.0,0.0,48,16,0.0,0.0,48,0,0.0,0.0,1,36326
ZAF,ZA,4469.0,43306.0,43306.0,legae thuto primary school,,26.139,-26.1775,3,school,mapping,2017.0,5.0,16.0,39,1,0.0,100.0,39,21,28.57,0.0,39,0,0.0,0.0,1,36665
ZAF,ZA,4469.0,43307.0,43307.0,lelispruit primary school,,24.9863,-27.0554,3,school,mapping,2017.0,5.0,16.0,20,0,0.0,0.0,20,4,0.0,0.0,20,0,0.0,0.0,1,36674
ZAF,ZA,4471.0,43314.0,43314.0,lemoenpoort,56809.0,19.4883299,-33.8363299,1,,,0.0,,,0,0,,,30,2,,,30,5,,,3,18241
ZAF,ZA,4465.0,43281.0,43281.0,leresche primary school,,27.9228,-26.2401,3,school,mapping,2017.0,5.0,16.0,49,0,0.0,0.0,49,15,0.0,0.0,49,0,0.0,0.0,1,36342
ZAF,ZA,4465.0,43281.0,43281.0,lufherng primary school,,28.0135,-26.293,3,school,mapping,2017.0,5.0,16.0,49,1,0.0,100.0,49,9,0.0,0.0,49,0,0.0,0.0,1,36343
ZAF,ZA,4469.0,43306.0,43306.0,lobatla primary school,,25.8411,-25.178,3,school,mapping,2017.0,5.0,16.0,32,2,0.0,0.0,32,12,0.0,0.0,32,0,0.0,0.0,1,36666
ZAF,ZA,4463.0,43273.0,43273.0,mabhetshe primary school,,29.0461,-31.7284,3,school,mapping,2017.0,5.0,15.0,43,0,0.0,0.0,43,16,0.0,0.0,43,0,0.0,0.0,1,36310
ZAF,ZA,4468.0,43302.0,43302.0,mabola primary school,,30.3848,-27.2534,3,school,mapping,2018.0,5.0,15.0,47,6,50.0,0.0,47,7,0.0,0.0,47,0,0.0,0.0,1,36611
ZAF,ZA,4466.0,43288.0,43288.0,madeya,56852.0,32.1767,-27.05,3,,,0.0,,,88,12,,,88,13,,,88,28,,,3,18182
ZAF,ZA,4469.0,43307.0,43307.0,madipelesa primary school,,24.3995,-27.8996,3,school,mapping,2017.0,5.0,16.0,48,1,0.0,0.0,48,15,0.0,0.0,48,0,0.0,0.0,1,36675
ZAF,ZA,4463.0,43273.0,43273.0,magubungela primary school,,29.1002,-31.126,3,school,mapping,2017.0,5.0,15.0,40,1,0.0,0.0,40,3,0.0,0.0,40,0,0.0,0.0,1,36311
ZAF,ZA,4466.0,43288.0,43288.0,makhanis,56853.0,32.2742,-26.9961,3,,,1998.0,,,196,140,,,196,25,,,196,93,,,3,18163
ZAF,ZA,4463.0,43274.0,43274.0,makukhanye primary school,,24.915399999999998,-34.0092,3,school,mapping,2017.0,5.0,15.0,39,1,0.0,0.0,39,12,0.0,0.0,39,0,0.0,0.0,1,36317
ZAF,ZA,4469.0,43307.0,43307.0,manthe primary school,,24.8884,-27.5485,3,school,mapping,2017.0,5.0,16.0,50,2,0.0,0.0,50,22,0.0,0.0,50,0,0.0,0.0,1,36676
ZAF,ZA,4466.0,43291.0,43291.0,mantshan,56879.0,31.865,-28.915,3,,,0.0,,,110,52,,,110,93,,,110,108,,,3,18194
ZAF,ZA,4466.0,43288.0,43288.0,maqhawe,56854.0,32.2369,-27.0369,3,,,1998.0,,,35,28,,,35,4,,,35,15,,,3,18168
ZAF,ZA,4468.0,43301.0,43301.0,maqhekeza primary school,,31.8543,-25.6705,3,school,mapping,2018.0,5.0,15.0,44,0,0.0,0.0,44,21,4.76,0.0,44,0,0.0,0.0,1,36598
ZAF,ZA,4465.0,43283.0,43283.0,molokotwa dube primary school,,28.0409,-25.2633,4,school,mapping,2017.0,5.0,16.0,50,5,40.0,0.0,50,8,0.0,0.0,50,0,0.0,0.0,1,36367
ZAF,ZA,4465.0,43280.0,43280.0,montic primary factory school,,28.2114,-26.422,3,school,mapping,2017.0,5.0,16.0,49,0,0.0,0.0,49,10,0.0,10.0,49,0,0.0,0.0,1,36329
ZAF,ZA,4469.0,43304.0,43304.0,mashilomatsho primary school,,27.9305,-25.0859,3,school,mapping,2017.0,5.0,16.0,50,1,0.0,0.0,50,10,0.0,0.0,50,0,0.0,0.0,1,36639
ZAF,ZA,4463.0,43267.0,43267.0,matshemula,56788.0,28.89117,-30.33217,1,,,0.0,,,52,0,,,52,3,,,52,3,,,3,18143
ZAF,ZA,4463.0,43268.0,43268.0,mavatha junior s school,,28.2824,-32.2095,3,school,mapping,2017.0,5.0,15.0,51,0,0.0,0.0,51,5,0.0,0.0,51,0,0.0,0.0,1,36284
ZAF,ZA,4466.0,43288.0,43288.0,mbodla,56855.0,32.2086579,-27.0736955,1,,,0.0,,,88,41,,,88,10,,,88,13,,,3,18171
ZAF,ZA,4466.0,43288.0,43288.0,mbodla,56856.0,32.2086579,-27.0736955,1,,,1998.0,,,94,75,,,94,6,,,94,28,,,3,18166
ZAF,ZA,4468.0,43301.0,43301.0,mdzimba primary school,,31.5363,-25.7038,3,school,mapping,2018.0,5.0,15.0,50,1,100.0,0.0,50,15,0.0,0.0,50,0,0.0,0.0,1,36599
ZAF,ZA,4463.0,43267.0,43267.0,meadowbrook,56789.0,29.065001,-30.3283,3,,,0.0,,,37,0,,,37,1,,,37,0,,,3,18144
ZAF,ZA,4465.0,43280.0,43280.0,mehlareng combined farm school,,28.2916,-26.6091,3,school,mapping,2017.0,5.0,16.0,48,1,0.0,100.0,48,4,0.0,0.0,48,0,0.0,0.0,1,36328
ZAF,ZA,4463.0,43272.0,43272.0,melumuzi primary school,,25.4026,-33.8254,3,school,mapping,2017.0,5.0,15.0,31,0,0.0,0.0,31,7,0.0,0.0,31,0,0.0,0.0,1,36302
ZAF,ZA,4466.0,43288.0,43288.0,mengu,56857.0,32.2710602,-27.1049356,1,,,1998.0,,,81,80,,,81,47,,,81,68,,,3,18179
ZAF,ZA,4469.0,43306.0,43306.0,methusele primary school,,25.2648,-25.8077,3,school,mapping,2017.0,5.0,16.0,29,2,100.0,0.0,29,6,0.0,0.0,29,0,0.0,0.0,1,36667
ZAF,ZA,4465.0,43282.0,43282.0,meyerton primary school,,28.0204,-26.5533,3,school,mapping,2017.0,5.0,16.0,24,0,0.0,0.0,24,7,0.0,0.0,24,0,0.0,0.0,1,36350
ZAF,ZA,4471.0,43313.0,43313.0,mfuleni,56795.0,18.6858533,-34.006485,1,,,2000.0,,,0,0,,,94,13,,,94,13,,,3,18234
ZAF,ZA,4468.0,43301.0,43301.0,mhlaba primary school,,31.6374,-25.7496,3,school,mapping,2018.0,5.0,15.0,40,0,0.0,0.0,40,11,0.0,0.0,40,0,0.0,0.0,1,36600
ZAF,ZA,4463.0,43272.0,43272.0,mjuleni primary school,,25.3759,-33.8129,3,school,mapping,2017.0,5.0,15.0,44,0,0.0,0.0,44,16,0.0,0.0,44,0,0.0,0.0,1,36303
ZAF,ZA,4468.0,43302.0,43302.0,mlamlankunzi primary school,,28.7727,-26.7582,3,school,mapping,2018.0,5.0,15.0,48,0,0.0,0.0,48,4,0.0,0.0,48,0,0.0,0.0,1,36612
ZAF,ZA,4463.0,43273.0,43273.0,mneliswa sr primary school,,29.5656,-30.0954,4,school,mapping,2017.0,5.0,15.0,43,0,0.0,0.0,43,12,33.33,0.0,43,0,0.0,0.0,1,36312
ZAF,ZA,4469.0,43307.0,43307.0,modisakoma primary school,,24.5357,-27.0785,3,school,mapping,2017.0,5.0,16.0,46,2,50.0,0.0,46,17,0.0,0.0,46,0,0.0,0.0,1,36677
ZAF,ZA,4469.0,43307.0,43307.0,moeti primary school,,24.7367,-26.7441,3,school,mapping,2017.0,5.0,16.0,35,7,14.29,0.0,35,1,0.0,0.0,35,0,0.0,0.0,1,36678
ZAF,ZA,4469.0,43307.0,43307.0,molale primary school,,24.6829,-27.4081,3,school,mapping,2017.0,5.0,16.0,48,7,0.0,14.29,48,7,0.0,0.0,48,0,0.0,0.0,1,36679
ZAF,ZA,4466.0,43288.0,43288.0,monzilloa,56858.0,32.2911,-28.4522,3,,,0.0,,,161,129,,,161,119,,,161,158,,,3,18178
ZAF,ZA,4463.0,43271.0,43271.0,morulane primary school,,28.562,-30.5082,3,school,mapping,2017.0,5.0,15.0,44,1,0.0,0.0,44,9,0.0,0.0,44,0,0.0,0.0,1,36298
ZAF,ZA,4468.0,43301.0,43301.0,mphithi primary school,,31.2098,-25.7192,3,school,mapping,2018.0,5.0,15.0,47,0,0.0,0.0,47,2,0.0,0.0,47,0,0.0,0.0,1,36601
ZAF,ZA,4469.0,43305.0,43305.0,mponeng primary school,,27.3593,-26.8255,3,school,mapping,2017.0,5.0,16.0,36,3,0.0,0.0,36,1,0.0,0.0,36,0,0.0,0.0,1,36649
ZAF,ZA,4466.0,43288.0,43288.0,mseleni,56860.0,32.53931,-27.36706,1,,,0.0,,,101,90,,,101,74,,,101,84,,,3,18162
ZAF,ZA,4466.0,43288.0,43288.0,mseleni,56859.0,32.53931,-27.36706,1,,,0.0,,,358,223,,,358,171,,,358,204,,,3,18165
ZAF,ZA,4465.0,43283.0,43283.0,mshuluzani primary school,,28.7196,-25.7752,3,school,mapping,2017.0,5.0,16.0,50,5,0.0,0.0,50,7,0.0,0.0,50,0,0.0,0.0,1,36368
ZAF,ZA,4466.0,43291.0,43291.0,mthwana,56880.0,29.7266776,-30.4577027,1,,,0.0,,,113,37,,,113,53,,,113,106,,,3,18192
ZAF,ZA,4468.0,43301.0,43301.0,muchuchi primary school,,31.1492,-25.1262,3,school,mapping,2018.0,5.0,15.0,49,0,0.0,0.0,49,4,0.0,0.0,49,0,0.0,0.0,1,36602
ZAF,ZA,4468.0,43303.0,43303.0,musi primary school,,29.2435,-25.9034,3,school,mapping,2018.0,5.0,15.0,50,0,0.0,0.0,50,20,0.0,0.0,50,0,0.0,0.0,1,36626
ZAF,ZA,4466.0,43291.0,43291.0,musia,56881.0,31.897499,-28.8589,3,,,0.0,,,157,94,,,157,124,,,157,141,,,3,18193
ZAF,ZA,4466.0,43288.0,43288.0,mziki,56861.0,30.1381012,-30.4260804,1,,,1998.0,,,70,54,,,70,9,,,70,40,,,3,18176
ZAF,ZA,4463.0,43271.0,43271.0,ncembu primary school,,28.4029,-31.3943,3,school,mapping,2017.0,5.0,15.0,47,1,0.0,0.0,47,4,0.0,0.0,47,0,0.0,0.0,1,36299
ZAF,ZA,4468.0,43302.0,43302.0,ndawonye primary school,,30.7817,-27.0225,3,school,mapping,2018.0,5.0,15.0,46,0,0.0,0.0,46,20,0.0,0.0,46,0,0.0,0.0,1,36613
ZAF,ZA,4468.0,43301.0,43301.0,nelsville primary school,,31.1289,-25.3494,3,school,mapping,2018.0,5.0,15.0,42,3,33.3,0.0,42,12,0.0,0.0,42,0,0.0,0.0,1,36603
ZAF,ZA,4463.0,43270.0,43270.0,new horizon s.p.s,,27.6978,-31.5322,3,school,mapping,2017.0,5.0,15.0,39,0,0.0,0.0,39,9,0.0,0.0,39,0,0.0,0.0,1,36295
ZAF,ZA,4466.0,43289.0,43289.0,ngongolo,56874.0,30.3833,-28.7867,3,,,0.0,,,61,1,,,61,0,,,61,5,,,3,18186
ZAF,ZA,4468.0,43301.0,43301.0,njanji primary school,,31.2375,-24.986,3,school,mapping,2018.0,5.0,15.0,42,0,0.0,0.0,42,6,0.0,0.0,42,0,0.0,0.0,1,36604
ZAF,ZA,4466.0,43288.0,43288.0,nkungwini,56862.0,32.004179,-27.020654,1,,,0.0,,,88,3,,,88,9,,,88,38,,,3,18180
ZAF,ZA,4463.0,43272.0,43272.0,nokhwezi primary school,,25.377,-33.8291,3,school,mapping,2017.0,5.0,15.0,47,1,100.0,0.0,47,7,0.0,0.0,47,0,0.0,0.0,1,36304
ZAF,ZA,4465.0,43282.0,43282.0,nomnekane primary school,,28.7701,-26.3489,3,school,mapping,2017.0,5.0,16.0,36,6,0.0,0.0,36,16,0.0,0.0,36,1,0.0,0.0,1,36351
ZAF,ZA,4465.0,43282.0,43282.0,nonediba primary school,,27.6996,-26.6695,3,school,mapping,2017.0,5.0,16.0,28,3,0.0,0.0,28,11,0.0,0.0,28,0,0.0,0.0,1,36352
ZAF,ZA,4463.0,43272.0,43272.0,noninzi primary school,,25.3686,-33.8111,3,school,mapping,2017.0,5.0,15.0,43,3,0.0,0.0,43,8,0.0,0.0,43,0,0.0,0.0,1,36305
ZAF,ZA,4463.0,43272.0,43272.0,nosipho primary school,,25.4004,-33.8187,3,school,mapping,2017.0,5.0,15.0,33,0,0.0,0.0,33,20,0.0,0.0,33,0,0.0,0.0,1,36306
ZAF,ZA,4463.0,43268.0,43268.0,nqayiya junior s school,,28.853,-32.0209,3,school,mapping,2017.0,5.0,15.0,44,1,100.0,0.0,44,12,8.33,0.0,44,0,0.0,0.0,1,36285
ZAF,ZA,4466.0,43288.0,43288.0,ntokozweni,56863.0,32.271801,-27.0392,3,,,1998.0,,,95,90,,,95,21,,,95,66,,,3,18169
ZAF,ZA,4463.0,43271.0,43271.0,ntywenka j.s.s primary school,,28.5934,-31.1941,3,school,mapping,2017.0,5.0,15.0,37,0,0.0,0.0,37,8,12.5,0.0,37,0,0.0,0.0,1,36300
ZAF,ZA,4466.0,43286.0,43286.0,oatsland,56824.0,29.3,-30.55,1,,,0.0,,,30,0,,,30,8,,,30,1,,,3,18151
ZAF,ZA,4465.0,43281.0,43281.0,olifantsvlei primary school,,27.910800000000002,-26.3413,3,school,mapping,2017.0,5.0,16.0,50,3,0.0,0.0,50,26,0.0,0.0,50,1,0.0,0.0,1,36344
ZAF,ZA,4465.0,43283.0,43283.0,onderstepoort primary school,,28.1794,-25.6386,3,school,mapping,2017.0,5.0,16.0,50,1,0.0,0.0,50,10,0.0,30.0,50,0,0.0,0.0,1,36369
ZAF,ZA,4469.0,43307.0,43307.0,olebile primary school,,24.8149,-27.6354,3,school,mapping,2017.0,5.0,16.0,48,1,0.0,0.0,48,13,0.0,0.0,48,0,0.0,0.0,1,36680
ZAF,ZA,4465.0,43282.0,43282.0,oospark primary school,,27.8444,-26.6907,3,school,mapping,2017.0,5.0,16.0,25,1,0.0,0.0,25,6,0.0,0.0,25,0,0.0,0.0,1,36353
ZAF,ZA,4465.0,43283.0,43283.0,orefile primary school,,28.1108,-25.9121,3,school,mapping,2017.0,5.0,16.0,50,8,25.0,12.5,50,11,0.0,0.0,50,0,0.0,0.0,1,36370
ZAF,ZA,4471.0,43317.0,43317.0,ouplaas,56834.0,20.433333,-34.366667,1,,,0.0,,,0,0,,,25,1,,,25,7,,,3,18255
ZAF,ZA,4463.0,43274.0,43274.0,palmietvier primary school,,25.2448,-33.55,3,school,mapping,2017.0,5.0,15.0,13,3,66.67,0.0,13,3,0.0,0.0,13,0,0.0,0.0,1,36318
ZAF,ZA,4465.0,43280.0,43280.0,pheasant folly primary school,,28.1622,-26.4217,3,school,mapping,2017.0,5.0,16.0,47,2,0.0,0.0,47,6,0.0,0.0,47,0,0.0,0.0,1,36331
ZAF,ZA,4463.0,43272.0,43272.0,phindubuye primary school,,25.3984,-33.8309,3,school,mapping,2017.0,5.0,15.0,20,0,0.0,0.0,20,5,0.0,0.0,20,0,0.0,0.0,1,36307
ZAF,ZA,4469.0,43305.0,43305.0,phogole primary school,,25.98,-27.3249,3,school,mapping,2017.0,5.0,16.0,49,3,0.0,0.0,49,20,0.0,0.0,49,0,0.0,0.0,1,36650
ZAF,ZA,4465.0,43280.0,43280.0,phumula primary school,,28.1967,-26.3204,3,school,mapping,2017.0,5.0,16.0,48,2,0.0,0.0,48,16,0.0,0.0,48,0,0.0,0.0,1,36332
ZAF,ZA,4469.0,43305.0,43305.0,promosa primary school,,27.0265,-26.7022,3,school,mapping,2017.0,5.0,16.0,49,4,25.0,0.0,49,12,0.0,0.0,49,0,0.0,0.0,1,36651
ZAF,ZA,4471.0,43317.0,43317.0,protem,56835.0,20.083333,-34.266667,1,,,0.0,,,0,0,,,29,3,,,29,10,,,3,18253
ZAF,ZA,4465.0,43282.0,43282.0,qhaqholla primary school,,28.3256,-26.5506,3,school,mapping,2017.0,5.0,16.0,39,3,66.67,0.0,39,7,0.0,0.0,39,0,0.0,0.0,1,36354
ZAF,ZA,4463.0,43269.0,43269.0,qhuru junior primary school,,27.5161,-33.0242,3,school,mapping,2017.0,5.0,15.0,40,0,0.0,0.0,40,12,0.0,0.0,40,1,0.0,0.0,1,36290
ZAF,ZA,4465.0,43282.0,43282.0,radipeu primary farm school,,27.7964,-26.5839,3,school,mapping,2017.0,5.0,16.0,45,8,12.5,12.5,45,0,0.0,0.0,45,0,0.0,0.0,1,36355
ZAF,ZA,4469.0,43306.0,43306.0,ramosadi primary school,,25.6242,-25.854,3,school,mapping,2017.0,5.0,16.0,31,6,0.0,0.0,31,4,0.0,0.0,31,0,0.0,0.0,1,36668
ZAF,ZA,4471.0,43314.0,43314.0,rawsonville,56810.0,19.3143778,-33.681831,1,,,0.0,,,0,0,,,30,5,,,30,13,,,3,18242
ZAF,ZA,4465.0,43283.0,43283.0,refano primary school,,28.9688,-25.6558,3,school,mapping,2017.0,5.0,16.0,51,7,42.86,0.0,51,0,0.0,0.0,51,0,0.0,0.0,1,36371
ZAF,ZA,4469.0,43304.0,43304.0,retief primary school,,27.4769,-25.7391,3,school,mapping,2017.0,5.0,16.0,50,4,50.0,25.0,50,15,0.0,0.0,50,0,0.0,0.0,1,36640
ZAF,ZA,4465.0,43283.0,43283.0,robert hicks primary school,,28.2091,-25.7257,3,school,mapping,2017.0,5.0,16.0,49,12,8.33,8.33,49,10,0.0,0.0,49,0,0.0,0.0,1,36372
ZAF,ZA,4465.0,43284.0,43284.0,rockland primary school,,27.3821,-26.4029,3,school,mapping,2017.0,5.0,16.0,50,1,100.0,0.0,50,15,0.0,6.67,50,0,0.0,0.0,1,36385
ZAF,ZA,4465.0,43280.0,43280.0,rondebult primary school,,28.2298,-26.2957,3,school,mapping,2017.0,5.0,16.0,46,1,0.0,0.0,46,6,0.0,0.0,46,0,0.0,0.0,1,36333
ZAF,ZA,4465.0,43284.0,43284.0,rooipoort primary farm school,,27.3793,-26.3136,3,school,mapping,2017.0,5.0,16.0,49,0,0.0,0.0,49,14,0.0,0.0,49,0,0.0,0.0,1,36386
ZAF,ZA,4469.0,43307.0,43307.0,roshanville primary school,,25.3158,-27.1947,3,school,mapping,2017.0,5.0,16.0,42,3,33.33,0.0,42,15,0.0,0.0,42,0,0.0,0.0,1,36681
ZAF,ZA,4471.0,43314.0,43314.0,rwasonville,56812.0,19.3143778,-33.681831,1,,,0.0,,,0,0,,,462,162,,,462,199,,,3,18245
ZAF,ZA,4466.0,43287.0,43287.0,sakhayedwa,56848.0,30.0117,-30.6033,3,,,0.0,,,57,0,,,57,7,,,57,24,,,3,18159
ZAF,ZA,4466.0,43294.0,43294.0,sakhesetu,56897.0,31.4972,-29.1917,3,,,0.0,,,168,112,,,168,121,,,168,156,,,3,18206
ZAF,ZA,4463.0,43274.0,43274.0,sandwater farm primary school,,24.6643,-34.1659,3,school,mapping,2017.0,5.0,15.0,25,2,50.0,0.0,25,17,52.94,0.0,25,0,0.0,0.0,1,36319
ZAF,ZA,4471.0,43314.0,43314.0,saron,56813.0,19.0096562,-33.1866915,1,,,0.0,,,0,0,,,29,1,,,29,13,,,3,18237
ZAF,ZA,4468.0,43302.0,43302.0,sasolia primary school,,29.1133,-26.4727,3,school,mapping,2018.0,5.0,15.0,43,0,0.0,0.0,43,10,0.0,0.0,43,0,0.0,0.0,1,36614
ZAF,ZA,4465.0,43284.0,43284.0,sedimosang primary school,,27.4119,-26.1354,3,school,mapping,2017.0,5.0,16.0,21,0,0.0,0.0,21,2,0.0,0.0,21,0,0.0,0.0,1,36387
ZAF,ZA,4469.0,43304.0,43304.0,setumo sephethe primary school,,27.9613,-25.1538,3,school,mapping,2017.0,5.0,16.0,50,1,100.0,0.0,50,18,0.0,0.0,50,0,0.0,0.0,1,36641
ZAF,ZA,4468.0,43301.0,43301.0,shalamuka primary school,,31.3688,-24.9522,3,school,mapping,2018.0,5.0,15.0,38,0,0.0,0.0,38,9,11.11,0.0,38,0,0.0,0.0,1,36605
ZAF,ZA,4465.0,43282.0,43282.0,shalimar ridge primary school,,28.3536,-26.5136,3,school,mapping,2017.0,5.0,16.0,37,0,0.0,0.0,37,10,0.0,0.0,37,0,0.0,0.0,1,36356
ZAF,ZA,4466.0,43288.0,43288.0,shemula,56864.0,32.2313539,-27.1098544,1,,,1998.0,,,99,85,,,99,8,,,99,40,,,3,18177
ZAF,ZA,4468.0,43302.0,43302.0,shukuma primary school,,29.1863,-27.0022,3,school,mapping,2018.0,5.0,15.0,44,0,0.0,0.0,44,10,0.0,0.0,44,0,0.0,0.0,1,36615
ZAF,ZA,4465.0,43282.0,43282.0,sicelo primary school,,27.9834,-26.5533,3,school,mapping,2017.0,5.0,16.0,54,0,0.0,0.0,54,11,0.0,0.0,54,0,0.0,0.0,1,36357
ZAF,ZA,4466.0,43288.0,43288.0,sihangwane,56865.0,32.4166669,-27.033333,1,,,1998.0,,,58,55,,,58,21,,,58,41,,,3,18183
ZAF,ZA,4463.0,43272.0,43272.0,sikhothina primary school,,25.3873,-33.8246,3,school,mapping,2017.0,5.0,15.0,49,0,0.0,0.0,49,19,52.63,0.0,49,0,0.0,0.0,1,36308
ZAF,ZA,4466.0,43294.0,43294.0,sizani,56898.0,31.2278,-29.4861,3,,,0.0,,,168,98,,,168,113,,,168,148,,,3,18207
ZAF,ZA,4465.0,43282.0,43282.0,skansdam primary farm school,,28.0732,-26.459600000000002,3,school,mapping,2017.0,5.0,16.0,50,0,0.0,0.0,50,12,0.0,0.0,50,0,0.0,0.0,1,36358
ZAF,ZA,4465.0,43283.0,43283.0,st camillus primary school,,28.3012,-25.3906,3,school,mapping,2017.0,5.0,16.0,50,4,75.0,0.0,50,0,0.0,0.0,50,0,0.0,0.0,1,36373
ZAF,ZA,4466.0,43288.0,43288.0,st phillips,56866.0,32.258301,-26.9228,3,,,1998.0,,,162,124,,,162,28,,,162,88,,,3,18175
ZAF,ZA,4463.0,43271.0,43271.0,st thomas j.s.s primary school,,28.5199,-30.6736,3,school,mapping,2017.0,5.0,15.0,47,0,0.0,0.0,47,11,0.0,0.0,47,0,0.0,0.0,1,36301
ZAF,ZA,4466.0,43288.0,43288.0,star of the sea,56867.0,30.8737737,-30.058407,1,,,0.0,,,153,136,,,153,111,,,153,135,,,3,18172
ZAF,ZA,4469.0,43304.0,43304.0,swartregens primary school,,26.683,-25.6367,3,school,mapping,2017.0,5.0,16.0,50,3,33.33,0.0,50,13,0.0,0.0,50,0,0.0,0.0,1,36642
ZAF,ZA,4465.0,43280.0,43280.0,tamaho primary school,,28.1475,-26.3048,3,school,mapping,2017.0,5.0,16.0,49,1,0.0,0.0,49,22,0.0,13.64,49,1,0.0,0.0,1,36334
ZAF,ZA,4471.0,43314.0,43314.0,tandfontein,56814.0,19.2500586,-32.7672767,1,,,0.0,,,0,0,,,29,0,,,29,3,,,3,18248
ZAF,ZA,4466.0,43295.0,43295.0,tendela,56901.0,29.7583,-29.4117,3,,,0.0,,,136,0,,,136,17,,,136,8,,,3,18211
ZAF,ZA,4468.0,43302.0,43302.0,thandanani primary school,,28.933,-25.3185,3,school,mapping,2018.0,5.0,15.0,48,0,0.0,0.0,48,15,0.0,0.0,48,0,0.0,0.0,1,36616
ZAF,ZA,4466.0,43286.0,43286.0,tigervlei,56825.0,29.3617,-30.3767,3,,,0.0,,,105,0,,,105,46,,,105,18,,,3,18152
ZAF,ZA,4463.0,43273.0,43273.0,transkei primary school,,28.7824,-31.5918,3,school,mapping,2017.0,5.0,15.0,31,0,0.0,0.0,31,8,0.0,0.0,31,0,0.0,0.0,1,36313
ZAF,ZA,4468.0,43301.0,43301.0,tsandzanani primary school,,31.3548,-25.5217,3,school,mapping,2018.0,5.0,15.0,49,3,33.3,33.33,49,19,0.0,0.0,49,0,0.0,0.0,1,36606
ZAF,ZA,4469.0,43307.0,43307.0,tshwaraganelo primary school,,25.307,-27.2003,3,school,mapping,2017.0,5.0,16.0,26,1,0.0,0.0,26,13,0.0,0.0,26,0,0.0,0.0,1,36683
ZAF,ZA,4465.0,43284.0,43284.0,tsitsiboga primary school,,27.326,-26.3161,3,school,mapping,2017.0,5.0,16.0,50,1,0.0,0.0,50,18,0.0,0.0,50,0,0.0,0.0,1,36389
ZAF,ZA,4471.0,43314.0,43314.0,uitnood,56815.0,19.8756029,-33.80225,1,,,0.0,,,0,0,,,23,0,,,23,8,,,3,18247
ZAF,ZA,4465.0,43280.0,43280.0,umnyezane primary school,,28.4302,-26.0971,3,school,mapping,2017.0,5.0,16.0,49,7,14.29,0.0,49,16,0.0,0.0,49,0,0.0,0.0,1,36335
ZAF,ZA,4466.0,43295.0,43295.0,umsilinga,56902.0,30.5233,-29.5483,3,,,0.0,,,90,0,,,90,60,,,90,34,,,3,18210
ZAF,ZA,4465.0,43284.0,43284.0,unity primary school,,27.6674,-26.0931,3,school,mapping,2017.0,5.0,16.0,50,3,0.0,0.0,50,17,0.0,5.88,50,0,0.0,0.0,1,36390
ZAF,ZA,4463.0,43270.0,43270.0,upper langana senior primary,,27.5886,-31.6676,3,school,mapping,2017.0,5.0,15.0,23,1,0.0,0.0,23,3,33.33,0.0,23,0,0.0,0.0,1,36296
ZAF,ZA,4466.0,43288.0,43288.0,velabusha,56868.0,32.72678,-27.1341,1,,,0.0,,,88,36,,,88,66,,,88,69,,,3,18181
ZAF,ZA,4471.0,43317.0,43317.0,viljoenshof,56836.0,19.7011308,-34.6690732,1,,,0.0,,,0,0,,,30,5,,,30,13,,,3,18256
ZAF,ZA,4468.0,43302.0,43302.0,volskrust primary school,,29.8855,-27.3588,3,school,mapping,2018.0,5.0,15.0,43,0,0.0,0.0,43,12,0.0,0.0,43,0,0.0,0.0,1,36617
ZAF,ZA,4471.0,43313.0,43313.0,welgemoed,56801.0,18.6145938,-33.8723559,1,,,0.0,,,0,0,,,30,0,,,30,2,,,3,18229
ZAF,ZA,4463.0,43274.0,43274.0,willowmore primary school,,23.1601,-32.8911,3,school,mapping,2017.0,5.0,15.0,21,3,0.0,0.0,21,8,0.0,0.0,21,0,0.0,0.0,1,36320
ZAF,ZA,4469.0,43305.0,43305.0,witpoort primary school,,27.3412,-26.6423,3,school,mapping,2017.0,5.0,16.0,10,1,0.0,0.0,10,7,0.0,0.0,10,0,0.0,0.0,1,36654
ZAF,ZA,4471.0,43314.0,43314.0,worcester,56816.0,19.4616074,-33.65389,1,,,0.0,,,0,0,,,30,1,,,30,5,,,3,18238
ZAF,ZA,4466.0,43288.0,43288.0,zama zama,56869.0,30.9586882,-29.8563945,1,,,0.0,,,88,45,,,88,74,,,88,61,,,3,18167
ZAF,ZA,4466.0,43288.0,43288.0,zama zama,56870.0,30.9586882,-29.8563945,1,,,1998.0,,,127,115,,,127,28,,,127,103,,,3,18170
ZAF,ZA,4468.0,43301.0,43301.0,zwide primary school,,31.6254,-25.7446,3,school,mapping,2018.0,5.0,15.0,48,1,0.0,0.0,48,7,0.0,0.0,48,1,0.0,0.0,1,36607
