iso3,iso2,admin1_id,admin2_id,iu_id,location,site_id,longitude,latitude,georeliability,location_type,survey_type,year,age_start,age_end,hk_examined,hk_positive,asc_examined,asc_positive,tt_examined,tt_positive,quality,sn,hk_prevalence,asc_prevalence,tt_prevalence,sth_prevalence
ZWE,ZW,5549.0,52902.0,52902.0,aisleby,18052.0,28.5823513,-20.0661435,1,,,2010.0,,,0,0,0,0,0,0,1,18375,,,,
ZWE,ZW,5549.0,52902.0,52902.0,baines infant,18053.0,28.5832632,-20.1338602,1,,,2010.0,,,0,0,0,0,0,0,1,18367,,,,
ZWE,ZW,5551.0,52907.0,52907.0,bandanyenje,18197.0,31.9627778,-18.8630556,1,,,2010.0,,,0,0,0,0,0,0,1,18409,,,,
ZWE,ZW,5550.0,52903.0,52903.0,batanai,18136.0,31.0171812,-17.8852773,1,,,2010.0,,,0,0,0,0,0,0,1,18378,,,,
ZWE,ZW,5553.0,52926.0,52926.0,beatrice township,18274.0,30.8527655,-18.251033,1,,,2010.0,,,0,0,0,0,0,0,1,18434,,,,
ZWE,ZW,5552.0,52916.0,52916.0,bemberi,18231.0,31.36847,-16.7639,3,,,2010.0,,,0,0,0,0,0,0,1,18420,,,,
ZWE,ZW,5556.0,52946.0,52946.0,bidi,18219.0,28.33297,-21.202,3,,,2010.0,,,0,0,0,0,0,0,1,18467,,,,
ZWE,ZW,5554.0,52930.0,52930.0,bumbe,18180.0,30.415,-18.5841667,1,,,2010.0,,,0,0,0,0,0,0,1,18440,,,,
ZWE,ZW,5551.0,52908.0,52908.0,burma,,32.783298,-19.1833,3,,,1987.0,1.0,99.0,99,71,99,7,0,0,3,29424,0.7171717171717171,0.0707070707070707,,
ZWE,ZW,5551.0,52908.0,52908.0,burma valley,,32.783298,-19.1833,3,,,1990.0,5.0,16.0,815,430,0,0,0,0,3,31706,0.5276073619631901,,,
ZWE,ZW,5551.0,52908.0,52908.0,burma valley,,32.783298,-19.1833,3,,,1982.0,16.0,99.0,200,177,200,87,200,27,3,29418,0.885,0.435,0.135,0.8903741745283018
ZWE,ZW,5554.0,52931.0,52931.0,charara estate,,28.9528,-16.5517,3,,,1990.0,1.0,16.0,56,44,0,0,0,0,3,31190,0.7857142857142857,,,
ZWE,ZW,5556.0,52941.0,52941.0,chaswingo,18031.0,30.0647222,-19.9586111,1,,,2010.0,,,0,0,0,0,0,0,1,20163,,,,
ZWE,ZW,5555.0,52934.0,52934.0,chedutu,18034.0,31.2944444,-20.6088889,1,,,2010.0,,,0,0,0,0,0,0,1,20138,,,,
ZWE,ZW,5555.0,52939.0,52939.0,chesvingo,18256.0,31.4727778,-19.5486111,1,,,2010.0,,,0,0,0,0,0,0,1,20157,,,,
ZWE,ZW,5552.0,52918.0,52918.0,chihuri,18278.0,31.42212,-16.89432,3,,,2010.0,,,0,0,0,0,0,0,1,18423,,,,
ZWE,ZW,5550.0,52903.0,52903.0,chinamano,18137.0,31.0497152,-17.8173117,2,,,2010.0,,,0,0,0,0,0,0,1,18387,,,,
ZWE,ZW,5558.0,52956.0,52956.0,chinyenyetu,18110.0,29.0166667,-17.8833333,2,,,2010.0,,,0,0,0,0,0,0,1,18474,,,,
ZWE,ZW,5555.0,52934.0,52934.0,chinyika,18035.0,31.4572222,-19.5236111,1,,,2010.0,,,0,0,0,0,0,0,1,20137,,,,
ZWE,ZW,5555.0,52940.0,52940.0,chipinda,18295.0,31.9333333,-21.3,1,,,2010.0,,,0,0,0,0,0,0,1,18459,,,,
ZWE,ZW,5558.0,52956.0,52956.0,chireya,18111.0,28.60325,-17.54927,3,,,2010.0,,,0,0,0,0,0,0,1,18475,,,,
ZWE,ZW,5550.0,52903.0,52903.0,chirodzo,18138.0,31.0308888,-17.8572269,1,,,2010.0,,,0,0,0,0,0,0,1,20037,,,,
ZWE,ZW,5551.0,52906.0,52906.0,chisumbanje,18085.0,32.2285171,-20.7683931,1,,,2010.0,,,0,0,0,0,0,0,1,18406,,,,
ZWE,ZW,5550.0,52903.0,52903.0,chizungu,18139.0,31.1630513,-17.906642,1,,,2010.0,,,0,0,0,0,0,0,1,18390,,,,
ZWE,ZW,5550.0,52903.0,52903.0,courteney selous,18140.0,31.0594431,-17.8218953,2,,,2010.0,,,0,0,0,0,0,0,1,20041,,,,
ZWE,ZW,5553.0,52920.0,52920.0,crowhill,18116.0,31.1332342,-17.7161878,1,,,2010.0,,,0,0,0,0,0,0,1,18428,,,,
ZWE,ZW,5550.0,52903.0,52903.0,daniel academy,18141.0,31.03351,-17.8251657,2,,,2010.0,,,0,0,0,0,0,0,1,18383,,,,
ZWE,ZW,5553.0,52920.0,52920.0,domboshawa,18117.0,31.14324,-17.61179,1,,,2010.0,,,0,0,0,0,0,0,1,18427,,,,
ZWE,ZW,5553.0,52922.0,52922.0,dombotombo,18209.0,31.1091667,-19.0522222,1,,,2010.0,,,0,0,0,0,0,0,1,20097,,,,
ZWE,ZW,5556.0,52946.0,52946.0,donkwe donkwe,18220.0,28.3833333,-20.9180556,1,,,2010.0,,,0,0,0,0,0,0,1,18466,,,,
ZWE,ZW,5550.0,52903.0,52903.0,donny brook,18142.0,31.1815497,-17.8389997,1,,,2010.0,,,0,0,0,0,0,0,1,18393,,,,
ZWE,ZW,5551.0,52908.0,52908.0,eldorado,,32.866699,-19.116699,3,,,1987.0,1.0,99.0,75,60,75,0,0,0,3,29425,0.8,0.0,,
ZWE,ZW,5549.0,52902.0,52902.0,emakhandeni,18054.0,28.5228877,-20.111457,1,,,2010.0,,,0,0,0,0,0,0,1,18373,,,,
ZWE,ZW,5550.0,52903.0,52903.0,epworth,,31.147499,-17.889999,3,,,1982.0,1.0,99.0,242,3,242,2,242,1,3,29417,0.012396694214876033,0.008264462809917356,0.004132231404958678,0.023213191589598312
ZWE,ZW,5553.0,52926.0,52926.0,epworth primary,18275.0,31.1595842,-17.8979649,1,,,2010.0,,,0,0,0,0,0,0,1,20111,,,,
ZWE,ZW,5549.0,52902.0,52902.0,fairbridge,18055.0,28.6057508,-20.1833624,1,,,2010.0,,,0,0,0,0,0,0,1,18365,,,,
ZWE,ZW,5554.0,52928.0,52928.0,gadzema,18072.0,30.1488264,-18.0300149,1,,,2010.0,,,0,0,0,0,0,0,1,18437,,,,
ZWE,ZW,5550.0,52903.0,52903.0,glen view 3,18143.0,30.9497721,-17.9089495,1,,,2010.0,,,0,0,0,0,0,0,1,18399,,,,
ZWE,ZW,5550.0,52903.0,52903.0,glen view 8,18144.0,30.952925,-17.901764,1,,,2010.0,,,0,0,0,0,0,0,1,18400,,,,
ZWE,ZW,5554.0,52928.0,52928.0,gonza,18074.0,30.60092,-18.17614,3,,,2010.0,,,0,0,0,0,0,0,1,18436,,,,
ZWE,ZW,5552.0,52913.0,52913.0,gota,18121.0,30.76498,-16.81919,3,,,2010.0,,,0,0,0,0,0,0,1,18418,,,,
ZWE,ZW,5550.0,52903.0,52903.0,greystone park,18145.0,31.1166193,-17.7446398,1,,,2010.0,,,0,0,0,0,0,0,1,18384,,,,
ZWE,ZW,5551.0,52908.0,52908.0,gwindingwi,,32.849998,-19.116699,3,,,1987.0,1.0,99.0,63,53,63,0,0,0,3,29421,0.8412698412698413,0.0,,
ZWE,ZW,5549.0,52902.0,52902.0,hope foundtain,18056.0,28.65767,-20.2187658,2,,,2010.0,,,0,0,0,0,0,0,1,20035,,,,
ZWE,ZW,5550.0,52903.0,52903.0,hopely,18146.0,31.1379008,-17.8179895,1,,,2010.0,,,0,0,0,0,0,0,1,18388,,,,
ZWE,ZW,5555.0,52935.0,52935.0,humani,18095.0,32.0280556,-20.3394444,1,,,2010.0,,,0,0,0,0,0,0,1,18447,,,,
ZWE,ZW,5549.0,52902.0,52902.0,hyde pack,18057.0,28.5415078,-20.153057,1,,,2010.0,,,0,0,0,0,0,0,1,18372,,,,
ZWE,ZW,5553.0,52922.0,52922.0,igava,18210.0,31.622789,-18.461519,1,,,2010.0,,,0,0,0,0,0,0,1,18432,,,,
ZWE,ZW,5557.0,52950.0,52950.0,ingagula,18172.0,26.5166667,-18.4166667,1,,,2010.0,,,0,0,0,0,0,0,1,18470,,,,
ZWE,ZW,5556.0,52944.0,52944.0,insiza,18177.0,29.1928451,-19.7822953,1,,,2010.0,,,0,0,0,0,0,0,1,18464,,,,
ZWE,ZW,5549.0,52902.0,52902.0,j w mthimkhukulu,18058.0,28.4914085,-20.1280203,1,,,2010.0,,,0,0,0,0,0,0,1,18370,,,,
ZWE,ZW,5552.0,52916.0,52916.0,karuyana,18233.0,31.53151,-16.6925,3,,,2010.0,,,0,0,0,0,0,0,1,18419,,,,
ZWE,ZW,5551.0,52908.0,52908.0,kaswa,,32.4873,-19.1158,3,,,2004.0,5.0,16.0,131,29,131,0,131,4,2,31191,0.22137404580152673,0.0,0.030534351145038167,0.2312725321676069
ZWE,ZW,5551.0,52908.0,52908.0,kusena,18245.0,32.46258,-19.57669,3,,,2010.0,,,0,0,0,0,0,0,1,18411,,,,
ZWE,ZW,5553.0,52925.0,52925.0,kushinga,18254.0,31.2443045,-17.8954093,1,,,2010.0,,,0,0,0,0,0,0,1,20106,,,,
ZWE,ZW,5550.0,52903.0,52903.0,kuwadzana 3,18147.0,30.929004,-17.8253107,1,,,2010.0,,,0,0,0,0,0,0,1,18382,,,,
ZWE,ZW,5550.0,52903.0,52903.0,kuwadzana 5,18148.0,30.9144491,-17.8320935,1,,,2010.0,,,0,0,0,0,0,0,1,18381,,,,
ZWE,ZW,5550.0,52903.0,52903.0,kuwadzana 8,18149.0,30.8979497,-17.8325495,1,,,2010.0,,,0,0,0,0,0,0,1,18380,,,,
ZWE,ZW,5550.0,52903.0,52903.0,louis mt batten,18150.0,31.0259844,-17.8386948,1,,,2010.0,,,0,0,0,0,0,0,1,18389,,,,
ZWE,ZW,5558.0,52962.0,52962.0,lundi,18308.0,30.0172222,-20.2369444,1,,,2010.0,,,0,0,0,0,0,0,1,20205,,,,
ZWE,ZW,5555.0,52940.0,52940.0,madondo,18299.0,31.52659,-20.27908,3,,,2010.0,,,0,0,0,0,0,0,1,18458,,,,
ZWE,ZW,5553.0,52920.0,52920.0,makumbi,18118.0,31.37933,-17.5236745,1,,,2010.0,,,0,0,0,0,0,0,1,18430,,,,
ZWE,ZW,5558.0,52962.0,52962.0,makwakwe,18309.0,29.8236554,-18.9201331,2,,,2010.0,,,0,0,0,0,0,0,1,20204,,,,
ZWE,ZW,5555.0,52936.0,52936.0,mandiva,18106.0,30.6847019,-20.5709943,1,,,2010.0,,,0,0,0,0,0,0,1,18451,,,,
ZWE,ZW,5551.0,52906.0,52906.0,manesa,18090.0,32.35897,-20.10659,3,,,2010.0,,,0,0,0,0,0,0,1,18405,,,,
ZWE,ZW,5557.0,52951.0,52951.0,manganganga,18189.0,27.48558,-18.64715,3,,,2010.0,,,0,0,0,0,0,0,1,18471,,,,
ZWE,ZW,5551.0,52908.0,52908.0,manyera,,32.766701,-19.2167,3,,,1987.0,1.0,99.0,59,34,59,0,0,0,3,29427,0.576271186440678,0.0,,
ZWE,ZW,5551.0,52910.0,52910.0,mapako,18267.0,32.60055,-18.06088,3,,,2010.0,,,0,0,0,0,0,0,1,18416,,,,
ZWE,ZW,5555.0,52935.0,52935.0,mareya,18097.0,32.0965,-20.9046,3,,,2010.0,,,0,0,0,0,0,0,1,18446,,,,
ZWE,ZW,5553.0,52922.0,52922.0,marondera,18211.0,31.5427093,-18.1929582,1,,,2010.0,,,0,0,0,0,0,0,1,18431,,,,
ZWE,ZW,5549.0,52902.0,52902.0,masiyephambili,18060.0,28.639241,-20.1705301,2,,,2010.0,,,0,0,0,0,0,0,1,18366,,,,
ZWE,ZW,5551.0,52904.0,52904.0,masocha,18046.0,31.75912,-19.21122,3,,,2010.0,,,0,0,0,0,0,0,1,18402,,,,
ZWE,ZW,5553.0,52924.0,52924.0,masunzwe,18242.0,31.9361111,-17.8125,1,,,2010.0,,,0,0,0,0,0,0,1,18433,,,,
ZWE,ZW,5555.0,52937.0,52937.0,matizha,18127.0,30.97084,-19.46986,3,,,2010.0,,,0,0,0,0,0,0,1,18452,,,,
ZWE,ZW,5552.0,52917.0,52917.0,mazoe bridge,18272.0,30.9747258,-17.5069121,1,,,2010.0,,,0,0,0,0,0,0,1,20086,,,,
ZWE,ZW,5557.0,52953.0,52953.0,mbiriya,18285.0,27.25,-19.666667,1,,,2010.0,,,0,0,0,0,0,0,1,18472,,,,
ZWE,ZW,5557.0,52954.0,52954.0,mbizo,18289.0,28.866667,-21.516666999999998,1,,,2010.0,,,0,0,0,0,0,0,1,20189,,,,
ZWE,ZW,5549.0,52902.0,52902.0,mbuyazwe,18062.0,28.5137271,-20.1446225,1,,,2010.0,,,0,0,0,0,0,0,1,18368,,,,
ZWE,ZW,5554.0,52932.0,52932.0,mhangura,18194.0,30.1647036,-16.8986791,1,,,2010.0,,,0,0,0,0,0,0,1,18442,,,,
ZWE,ZW,5556.0,52941.0,52941.0,msane,18032.0,29.7,-21.53333,3,,,2010.0,,,0,0,0,0,0,0,1,18460,,,,
ZWE,ZW,5551.0,52908.0,52908.0,msapa,,32.4281,-19.1149,3,,,2004.0,5.0,16.0,166,52,166,0,166,0,2,31194,0.3132530120481928,0.0,0.0,0.29552170947942713
ZWE,ZW,5549.0,52902.0,52902.0,mthombowesizwe,18063.0,28.5414952,-20.1173342,1,,,2010.0,,,0,0,0,0,0,0,1,18371,,,,
ZWE,ZW,5549.0,52902.0,52902.0,mthshede,18064.0,28.5298201,-20.1376734,1,,,2010.0,,,0,0,0,0,0,0,1,18374,,,,
ZWE,ZW,5551.0,52904.0,52904.0,mukamba,18048.0,31.56392,-19.2136,3,,,2010.0,,,0,0,0,0,0,0,1,18403,,,,
ZWE,ZW,5555.0,52937.0,52937.0,mukoroverwa,18128.0,31.16765,-19.57141,3,,,2010.0,,,0,0,0,0,0,0,1,18455,,,,
ZWE,ZW,5550.0,52903.0,52903.0,mukurumbira,18151.0,30.9234456,-17.8592936,1,,,2010.0,,,0,0,0,0,0,0,1,18391,,,,
ZWE,ZW,5555.0,52934.0,52934.0,mupakwa,18038.0,31.63491,-19.98965,3,,,2010.0,,,0,0,0,0,0,0,1,18444,,,,
ZWE,ZW,5551.0,52909.0,52909.0,muparutsa,18249.0,32.8827,-18.45569,3,,,2010.0,,,0,0,0,0,0,0,1,18415,,,,
ZWE,ZW,5555.0,52935.0,52935.0,mupinga,18098.0,32.13773,-21.05879,3,,,2010.0,,,0,0,0,0,0,0,1,18449,,,,
ZWE,ZW,5554.0,52933.0,52933.0,murombedzi,18304.0,30.1978952,-17.7054419,1,,,2010.0,,,0,0,0,0,0,0,1,18443,,,,
ZWE,ZW,5555.0,52940.0,52940.0,musarava,18301.0,31.5465868,-20.4048518,1,,,2010.0,,,0,0,0,0,0,0,1,18457,,,,
ZWE,ZW,5558.0,52960.0,52960.0,musume,18226.0,30.2272222,-20.8797222,1,,,2010.0,,,0,0,0,0,0,0,1,18476,,,,
ZWE,ZW,5550.0,52903.0,52903.0,mutasa,18152.0,30.9477073,-17.8186394,2,,,2010.0,,,0,0,0,0,0,0,1,20039,,,,
ZWE,ZW,5555.0,52937.0,52937.0,mutendeure,18130.0,31.08557,-19.94614,3,,,2010.0,,,0,0,0,0,0,0,1,18454,,,,
ZWE,ZW,5555.0,52936.0,52936.0,mutote,18107.0,30.73569,-20.82315,3,,,2010.0,,,0,0,0,0,0,0,1,18450,,,,
ZWE,ZW,5552.0,52912.0,52912.0,muzarabani,18071.0,31.1710389,-16.3301107,1,,,2010.0,,,0,0,0,0,0,0,1,18417,,,,
ZWE,ZW,5551.0,52904.0,52904.0,muzokomba,18050.0,31.9623835,-19.5776934,1,,,2010.0,,,0,0,0,0,0,0,1,18404,,,,
ZWE,ZW,5551.0,52908.0,52908.0,nahoon,,32.849998,-19.1667,3,,,1987.0,1.0,99.0,92,46,92,2,0,0,3,29434,0.5,0.021739130434782608,,
ZWE,ZW,5551.0,52904.0,52904.0,nemadziva,18051.0,32.2249,-19.77178,3,,,2010.0,,,0,0,0,0,0,0,1,18401,,,,
ZWE,ZW,5555.0,52937.0,52937.0,nerupiri,18131.0,31.03408,-19.84665,3,,,2010.0,,,0,0,0,0,0,0,1,18453,,,,
ZWE,ZW,5554.0,52928.0,52928.0,neuso,18076.0,30.533333,-18.533333,1,,,2010.0,,,0,0,0,0,0,0,1,18438,,,,
ZWE,ZW,5558.0,52961.0,52961.0,new gato,18282.0,30.28683,-19.95614,3,,,2010.0,,,0,0,0,0,0,0,1,18477,,,,
ZWE,ZW,5550.0,52903.0,52903.0,ngagariro,18153.0,31.03351,-17.8251657,2,,,2010.0,,,0,0,0,0,0,0,1,20043,,,,
ZWE,ZW,5551.0,52908.0,52908.0,nyamakari,,32.783298,-19.200001,3,,,1987.0,1.0,99.0,152,57,152,1,0,0,3,29423,0.375,0.006578947368421052,,
ZWE,ZW,5554.0,52928.0,52928.0,nyamaropa,,30.7166667,-17.9166667,1,,,2004.0,5.0,16.0,674,1,674,0,674,0,2,31192,0.001483679525222552,0.0,0.0,0.0013996976653042942
ZWE,ZW,5552.0,52917.0,52917.0,nyamatikiti,18273.0,32.9333333,-16.6833333,1,,,2010.0,,,0,0,0,0,0,0,1,20084,,,,
ZWE,ZW,5552.0,52916.0,52916.0,nyamuti,18234.0,30.2075,-16.2783333,1,,,2010.0,,,0,0,0,0,0,0,1,20082,,,,
ZWE,ZW,5556.0,52944.0,52944.0,rangmore,18179.0,28.4922355,-20.2049196,1,,,2010.0,,,0,0,0,0,0,0,1,20169,,,,
ZWE,ZW,5550.0,52903.0,52903.0,rukudzo,18154.0,30.9722161,-17.8527399,1,,,2010.0,,,0,0,0,0,0,0,1,18392,,,,
ZWE,ZW,5551.0,52907.0,52907.0,rukweza,18204.0,32.0880053,-18.8081735,1,,,2010.0,,,0,0,0,0,0,0,1,20061,,,,
ZWE,ZW,5558.0,52960.0,52960.0,rusvinge,18228.0,29.8666667,-20.2,1,,,2010.0,,,0,0,0,0,0,0,1,20201,,,,
ZWE,ZW,5550.0,52903.0,52903.0,rusvingo,18155.0,30.9794062,-17.8947117,1,,,2010.0,,,0,0,0,0,0,0,1,20040,,,,
ZWE,ZW,5550.0,52903.0,52903.0,ruveneko,18156.0,31.03351,-17.8251657,2,,,2010.0,,,0,0,0,0,0,0,1,18379,,,,
ZWE,ZW,5553.0,52920.0,52920.0,ruwa,18120.0,31.2368819,-17.9027344,1,,,2010.0,,,0,0,0,0,0,0,1,18429,,,,
ZWE,ZW,5555.0,52939.0,52939.0,ruzambu,18258.0,30.61,-20.7744444,1,,,2010.0,,,0,0,0,0,0,0,1,18456,,,,
ZWE,ZW,5556.0,52945.0,52945.0,sangulube,18207.0,28.0367768,-21.170866,1,,,2010.0,,,0,0,0,0,0,0,1,18465,,,,
ZWE,ZW,5555.0,52935.0,52935.0,sangwe,18100.0,31.21143,-22.31348,3,,,2010.0,,,0,0,0,0,0,0,1,18448,,,,
ZWE,ZW,5550.0,52903.0,52903.0,seke 7,18157.0,31.0392642,-17.8614141,1,,,2010.0,,,0,0,0,0,0,0,1,18397,,,,
ZWE,ZW,5550.0,52903.0,52903.0,shingirai,18158.0,31.03351,-17.8251657,1,,,2010.0,,,0,0,0,0,0,0,1,18385,,,,
ZWE,ZW,5557.0,52948.0,52948.0,siabuwa,18041.0,28.0566638,-17.4675493,1,,,2010.0,,,0,0,0,0,0,0,1,18469,,,,
ZWE,ZW,5556.0,52943.0,52943.0,simbumbumbu,18134.0,28.75,-20.7666667,1,,,2010.0,,,0,0,0,0,0,0,1,18462,,,,
ZWE,ZW,5556.0,52946.0,52946.0,simpati,18221.0,28.29042,-21.40662,3,,,2010.0,,,0,0,0,0,0,0,1,18468,,,,
ZWE,ZW,5556.0,52943.0,52943.0,sinkukwe,18135.0,29.0477778,-20.6027778,1,,,2010.0,,,0,0,0,0,0,0,1,18463,,,,
ZWE,ZW,5550.0,52903.0,52903.0,st aidans,18159.0,31.03351,-17.8251657,2,,,2010.0,,,0,0,0,0,0,0,1,20036,,,,
ZWE,ZW,5554.0,52928.0,52928.0,st eric's,18077.0,30.6746677,-17.8834061,1,,,2010.0,,,0,0,0,0,0,0,1,18435,,,,
ZWE,ZW,5551.0,52907.0,52907.0,st faith,18205.0,32.2192972,-18.4884258,1,,,2010.0,,,0,0,0,0,0,0,1,18408,,,,
ZWE,ZW,5550.0,52903.0,52903.0,st john's retreat,18160.0,31.0575879,-17.9054166,2,,,2010.0,,,0,0,0,0,0,0,1,18386,,,,
ZWE,ZW,5550.0,52903.0,52903.0,st peters,18161.0,30.9829717,-17.9050038,1,,,2010.0,,,0,0,0,0,0,0,1,18396,,,,
ZWE,ZW,5555.0,52936.0,52936.0,st. martins,18108.0,31.0614584,-17.8618326,1,,,2010.0,,,0,0,0,0,0,0,1,20145,,,,
ZWE,ZW,5558.0,52956.0,52956.0,tafara,18113.0,31.2139841,-17.8276998,1,,,2010.0,,,0,0,0,0,0,0,1,20194,,,,
ZWE,ZW,5550.0,52903.0,52903.0,tamuka,18162.0,30.9230472,-17.8113095,1,,,2010.0,,,0,0,0,0,0,0,1,18377,,,,
ZWE,ZW,5550.0,52903.0,52903.0,tendayi,18163.0,31.03351,-17.8251657,2,,,2010.0,,,0,0,0,0,0,0,1,18395,,,,
ZWE,ZW,5556.0,52942.0,52942.0,tokwana,18069.0,27.62337,-20.2537,3,,,2010.0,,,0,0,0,0,0,0,1,18461,,,,
ZWE,ZW,5550.0,52903.0,52903.0,tongoville,18164.0,31.03351,-17.8251657,2,,,2010.0,,,0,0,0,0,0,0,1,20042,,,,
ZWE,ZW,5549.0,52902.0,52902.0,umgusa,18066.0,28.57242,-20.05604,3,,,2010.0,,,0,0,0,0,0,0,1,18369,,,,
ZWE,ZW,5551.0,52908.0,52908.0,valhalla,,32.849998,-19.133301,3,,,1987.0,1.0,99.0,66,41,66,9,0,0,3,29422,0.6212121212121212,0.13636363636363635,,
ZWE,ZW,5551.0,52908.0,52908.0,valhalla,,32.849998,-19.133301,3,,,2004.0,5.0,16.0,278,56,278,12,278,9,2,31193,0.2014388489208633,0.04316546762589928,0.03237410071942446,0.24589232992749424
ZWE,ZW,5551.0,52908.0,52908.0,valhalla school,,32.849998,-19.133301,3,,,1987.0,5.0,15.0,137,88,137,9,0,0,3,29428,0.6423357664233577,0.06569343065693431,,
ZWE,ZW,5551.0,52908.0,52908.0,vooruitzig,,32.733299,-19.233299,3,,,1987.0,1.0,99.0,44,34,44,0,0,0,3,29433,0.7727272727272727,0.0,,
ZWE,ZW,5553.0,52919.0,52919.0,warikandwa,18080.0,31.489,-18.79441,3,,,2010.0,,,0,0,0,0,0,0,1,18426,,,,
ZWE,ZW,5550.0,52903.0,52903.0,warren pack 4,18165.0,31.03351,-17.8251657,2,,,2010.0,,,0,0,0,0,0,0,1,18398,,,,
ZWE,ZW,5550.0,52903.0,52903.0,warren pack 5,18166.0,31.03351,-17.8251657,2,,,2010.0,,,0,0,0,0,0,0,1,18376,,,,
ZWE,ZW,5550.0,52903.0,52903.0,zengeza 5,18168.0,31.063714,-18.0024172,1,,,2010.0,,,0,0,0,0,0,0,1,18394,,,,
