iso3,iso2,admin1_id,admin2_id,iu_id,location,site_id,longitude,latitude,georeliability,location_type,survey_type,year,age_start,age_end,hk_examined,hk_positive,hk_perc_highinfection,hk_perc_moderateinfection,asc_examined,asc_positive,asc_perc_highinfection,asc_perc_moderateinfection,tt_examined,tt_positive,tt_perc_highinfection,tt_perc_moderateinfection,quality,sn,geometry,shortest,id,src,dst,self
BWA,BW,482.0,4299.0,4299.0,artesia primary,10063,26.3113112,-24.0325508,3,,,2015,,,49,0,,,49,0,,,49,0,,,1,2455,POINT (2928961.764887356 -2757375.067983949),47922.99542203728,0,0,254,True
BWA,BW,481.0,4298.0,4298.0,bokspits primary school,10058,20.6831788,-26.8668794,3,,,2015,,,46,0,,,46,0,,,46,0,,,1,2449,POINT (2302440.932002231 -3106849.911092702),136795.6187382484,1,1,255,True
BWA,BW,486.0,4308.0,4308.0,bothakga primary,10075,25.69039667,-25.20587333,3,,,2015,,,46,1,,,46,0,,,46,0,,,1,2497,POINT (2859841.87558161 -2901052.786815837),1450.1092632796974,2,2,256,True
BWA,BW,479.0,4293.0,4293.0,botshabelo,10114,27.87153167,-21.978385,3,,,2015,,,48,0,,,48,3,,,48,0,,,1,18742,POINT (3102644.713132998 -2508930.293742095),1246.1954700683789,3,3,257,True
BWA,BW,486.0,4307.0,4307.0,camp primary school,10023,25.94184667,-24.666965,3,,,2015,,,54,0,,,54,2,,,54,0,,,1,2494,POINT (2887833.16154158 -2834893.885404499),3610.1342249911954,4,4,258,True
BWA,BW,485.0,4305.0,4305.0,chanoga primary school,10098,23.6407748,-20.1446924,3,,,2015,,,44,2,,,44,7,,,44,0,,,1,18812,POINT (2631679.012694454 -2290179.628668806),30650.942730894418,5,5,259,True
BWA,BW,486.0,4308.0,4308.0,digawana,10076,25.5319754,-25.3688181,4,,,2015,,,48,1,,,48,1,,,48,1,,,1,2495,POINT (2842206.500474387 -2921114.057343826),16465.25182657348,6,6,260,True
BWA,BW,479.0,4295.0,4295.0,dukwi,10133,26.4981503,-20.5808072,3,,,2015,,,51,0,,,51,3,,,51,3,,,1,2428,POINT (2949760.598359629 -2341963.939457928),31088.67157042104,7,7,261,True
BWA,BW,485.0,4306.0,4306.0,etsha 13 primary school,10108,22.3193484,-19.0158991,3,,,2015,,,52,6,,,52,7,,,52,0,,,1,2490,POINT (2484578.498725665 -2156807.865932886),25338.005627280745,8,8,262,True
BWA,BW,480.0,4296.0,4296.0,gantsi,10027,21.64376333,-21.703485,3,,,2015,,,22,1,,,22,0,,,22,0,,,1,18767,POINT (2409372.712745727 -2475962.07712065),50045.275327725845,9,9,263,True
BWA,BW,487.0,4310.0,4310.0,good hope primary school,10036,25.44311667,-25.47561167,3,,,2015,,,52,0,,,52,6,,,52,0,,,1,2507,POINT (2832314.79189825 -2934276.831335552),16465.25182657348,10,10,264,True
BWA,BW,481.0,4297.0,4297.0,hunhukwe,10053,21.6027974,-23.413266,3,,,2015,,,49,1,,,49,0,,,49,0,,,1,2444,POINT (2404812.406278254 -2682073.268490025),74335.07973892952,11,11,265,True
BWA,BW,479.0,4293.0,4293.0,iapologang,10115,27.81451667,-21.98705833,3,,,2015,,,50,0,,,50,6,,,50,0,,,1,18744,POINT (3096297.832365419 -2509971.503741863),2281.4577085178626,12,12,266,True
BWA,BW,482.0,4299.0,4299.0,isang primary school,10064,26.1315544,-24.3893174,3,,,2015,,,50,0,,,50,0,,,50,0,,,1,2454,POINT (2908951.329444727 -2800920.40026672),24943.804744442292,13,13,267,True
BWA,BW,484.0,4303.0,4303.0,jackalas 2,10103,27.6114921,-20.9140415,3,,,2015,,,38,1,,,38,0,,,38,0,,,1,2470,POINT (3073697.240614496 -2381631.901647184),30615.271193645578,14,14,268,True
BWA,BW,484.0,4302.0,4302.0,john phooko,10016,27.44569333,-21.437085,4,,,2015,,,28,0,,,28,3,,,28,0,,,1,2464,POINT (3055240.605963945 -2444073.269771954),7254.606171697208,15,15,269,True
BWA,BW,480.0,4296.0,4296.0,kacgae,10028,22.207054,-22.8554457,3,,,2015,,,50,2,,,50,4,,,50,0,,,1,18763,POINT (2472077.943298729 -2614546.575738702),91712.63008734082,16,16,270,True
BWA,BW,485.0,4304.0,4304.0,kachikau p school,10011,24.5066171,-18.1488558,3,,,2015,,,48,4,,,48,8,,,48,15,,,1,2476,POINT (2728064.136637731 -2054979.231761541),24442.090453473633,17,17,271,True
BWA,BW,480.0,4296.0,4296.0,kalkfontein,10029,20.8773525,-22.1461799,3,,,2015,,,48,4,,,48,7,,,48,0,,,1,18765,POINT (2324056.249411677 -2529084.947879011),30414.32954233129,18,18,272,True
BWA,BW,481.0,4297.0,4297.0,kang primary school,10054,22.7966741,-23.6750115,3,,,2015,,,35,3,,,35,1,,,35,0,,,1,2445,POINT (2537714.152592208 -2713856.554536643),111815.01870374032,19,19,273,True
BWA,BW,480.0,4296.0,4296.0,karakubis,10030,20.6134111,-22.0807872,3,,,2015,,,47,3,,,47,1,,,47,0,,,1,18761,POINT (2294674.427164414 -2521227.469725065),26413.19760681637,20,20,274,True
BWA,BW,485.0,4304.0,4304.0,kasane primary school,10012,25.1569067,-17.798005,3,,,2015,,,50,0,,,50,4,,,50,0,,,1,2479,POINT (2800454.043777892 -2013918.86798174),14219.988871208438,21,21,275,True
BWA,BW,485.0,4306.0,4306.0,kathiana primary school,10109,21.8493909,-18.3795757,3,,,2015,,,52,8,,,52,10,,,52,0,,,1,2485,POINT (2432263.069131185 -2082025.424051946),34009.714750138475,22,22,276,True
BWA,BW,479.0,4291.0,4291.0,kedia primary school,10006,24.7323061,-21.3661946,3,,,2015,,,43,0,,,43,0,,,43,0,,,1,2401,POINT (2753187.721195374 -2435597.330661812),54145.689948428175,23,23,277,True
BWA,BW,486.0,4309.0,4309.0,ketshwerebothata,10129,25.852665,-24.87810167,3,,,2015,,,47,0,,,47,0,,,47,0,,,1,2503,POINT (2877905.503449086 -2860779.571881511),2631.32419666003,24,24,278,True
BWA,BW,487.0,4311.0,4311.0,kgalagadi primary,10040,24.7238972,-24.6031428,3,,,2015,,,43,0,,,43,0,,,43,0,,,1,2508,POINT (2752251.646729242 -2827077.821782073),13090.94898015865,25,25,279,True
BWA,BW,479.0,4313.0,4313.0,khakhia,10089,23.5073455,-24.7106408,4,,,2015,,,51,0,,,51,0,,,51,0,,,1,2523,POINT (2616825.730961551 -2840244.999695804),40226.53537192327,26,26,280,True
BWA,BW,480.0,4296.0,4296.0,kjoe primary school,10031,22.4190608,-22.1198647,3,,,2015,,,34,5,,,34,0,,,34,0,,,1,18760,POINT (2495678.43231944 -2525922.518984789),72069.33937161315,27,27,281,True
BWA,BW,487.0,4292.0,4292.0,kudumatse,10081,27.14215983,-23.41421948,4,,,2015,,,50,5,,,50,1,,,50,0,,,1,18731,POINT (3021451.411305245 -2682188.933316116),51014.97721847716,28,28,282,True
BWA,BW,480.0,4296.0,4296.0,kuke,10032,22.4163022,-21.0133072,3,,,2015,,,35,14,,,35,0,,,35,0,,,1,18764,POINT (2495371.346372138 -2393465.400111057),69994.29550376073,29,29,283,True
BWA,BW,481.0,4297.0,4297.0,ledibela,10055,21.7963186,-23.9984424,3,,,2015,,,32,1,,,32,2,,,32,0,,,1,2441,POINT (2426355.087719957 -2753218.310173155),8708.513151519053,30,30,284,True
BWA,BW,486.0,4307.0,4307.0,ledumang primary school,10024,25.94402167,-24.60814167,3,,,2015,,,43,0,,,43,0,,,43,0,,,1,2491,POINT (2888075.281434055 -2827689.870457182),6492.582061122067,31,31,285,True
BWA,BW,481.0,4297.0,4297.0,lekgwabe primary school,10056,21.7769813,-24.1084742,3,,,2015,,,68,7,,,68,5,,,68,0,,,1,2442,POINT (2424202.469330641 -2766631.744762674),13585.065086974068,32,32,286,True
BWA,BW,483.0,4300.0,4300.0,lekgwapheng primary school,10068,25.4680136,-24.4035375,3,,,2015,,,50,0,,,50,1,,,50,0,,,1,2456,POINT (2835086.305468166 -2802658.577413901),33377.56503735914,33,33,287,True
BWA,BW,487.0,4310.0,4310.0,leporung primary school,10037,24.96724167,-25.75854333,3,,,2015,,,45,0,,,45,0,,,45,0,,,1,2504,POINT (2779340.629217001 -2969206.10472555),14348.222299510975,34,34,288,True
BWA,BW,485.0,4304.0,4304.0,lesoma primary school,10013,25.22378833,-17.90159833,3,,,2015,,,50,2,,,50,9,,,50,27,,,1,2475,POINT (2807899.272772917 -2026034.009281326),14219.988871208438,35,35,289,True
BWA,BW,483.0,4301.0,4301.0,letlhakeng,10072,25.0385112,-24.1088067,3,,,2015,,,51,0,,,51,2,,,51,0,,,1,2462,POINT (2787274.317005677 -2766672.295641545),27834.711861319254,36,36,290,True
BWA,BW,482.0,4299.0,4299.0,letsebe primary,10065,26.4493814,-24.6036885,3,,,2015,,,50,1,,,50,14,,,50,0,,,1,2451,POINT (2944331.669245081 -2827144.634685433),44039.51538375603,37,37,291,True
BWA,BW,485.0,4305.0,4305.0,letsholathebe primary school,10099,23.4265553,-19.9822068,3,,,2015,,,42,0,,,42,9,,,42,0,,,1,18808,POINT (2607832.207036464 -2270923.197270371),30650.942730894418,38,38,292,True
BWA,BW,487.0,4312.0,4312.0,lotlhakane,10045,25.4758331,-25.1039031,3,,,2015,,,42,1,,,42,0,,,42,0,,,1,18843,POINT (2835956.768226424 -2888512.185104457),19522.912865368973,39,39,293,True
BWA,BW,484.0,4302.0,4302.0,mabesekwa,10017,26.87913333,-21.30684833,4,,,2015,,,51,0,,,51,5,,,51,0,,,1,2465,POINT (2992171.435260108 -2428504.808679657),57877.43548112117,40,40,294,True
BWA,BW,479.0,4290.0,4290.0,mabolwe,10001,28.82730833,-21.81929167,3,,,2015,,,48,0,,,48,0,,,48,1,,,1,2396,POINT (3209041.284236294 -2489842.818342583),43491.07266511944,41,41,295,True
BWA,BW,487.0,4310.0,4310.0,mabule primary school,10038,24.56497333,-25.76842833,3,,,2015,,,49,0,,,49,1,,,49,0,,,1,2505,POINT (2734560.322445946 -2970427.954722362),44796.97302189661,42,42,296,True
BWA,BW,479.0,4313.0,4313.0,mabutsane,10091,23.5935445,-24.3914388,4,,,2015,,,47,0,,,47,0,,,47,0,,,1,2522,POINT (2626421.35974844 -2801179.694676992),39211.058681120514,43,43,297,True
BWA,BW,479.0,4290.0,4290.0,madikwe primary school,10002,28.4305,-21.97628,3,,,2015,,,37,0,,,37,0,,,37,0,,,1,2398,POINT (3164868.782998164 -2508677.6037325),48020.40197995817,44,44,298,True
BWA,BW,486.0,4307.0,4307.0,mafitlhakgosi primary school,10025,25.97145,-24.65493,3,,,2015,,,53,0,,,53,0,,,53,0,,,1,2493,POINT (2891128.589162965 -2833419.698878084),3610.1342249911954,45,45,299,True
BWA,BW,487.0,4292.0,4292.0,mahalapye primary school,10092,26.8414303,-23.0965143,4,,,2015,,,50,11,,,50,0,,,50,0,,,1,18734,POINT (2987974.353159144 -2643694.589855234),36228.46193009042,46,46,300,True
BWA,BW,479.0,4313.0,4313.0,mahotshwane,10093,24.227881,-24.4194818,4,,,2015,,,45,0,,,45,0,,,45,0,,,1,2521,POINT (2697035.375920027 -2804607.742891168),35965.12501710068,47,47,301,True
BWA,BW,479.0,4295.0,4295.0,maitengwe p. school,10134,27.22032,-20.1274729,3,,,2015,,,50,0,,,50,0,,,50,0,,,1,2430,POINT (3030152.16162996 -2288137.971807139),47798.7909585996,48,48,302,True
BWA,BW,485.0,4305.0,4305.0,makakung,10100,22.33327167,-20.381585,3,,,2015,,,50,3,,,50,0,,,50,0,,,1,18811,POINT (2486128.430052242 -2318290.119890258),40974.039228226546,49,49,303,True
BWA,BW,484.0,4303.0,4303.0,makaleng primary school,10104,27.266974,-20.7994039,3,,,2015,,,45,0,,,45,0,,,45,0,,,1,2473,POINT (3035345.66115343 -2367975.655883586),29357.31391686351,50,50,304,True
BWA,BW,483.0,4300.0,4300.0,makgasane primary school,10069,25.8534263,-24.2438492,3,,,2015,,,43,0,,,43,0,,,43,0,,,1,2458,POINT (2877990.250977427 -2783150.473744796),35698.16057520242,51,51,305,True
BWA,BW,479.0,4294.0,4294.0,malatswae,10119,25.93810736,-21.81574413,3,,,2015,,,50,0,,,50,3,,,50,0,,,1,2424,POINT (2887416.903456462 -2489417.439028553),58215.32084237875,52,52,306,True
BWA,BW,483.0,4301.0,4301.0,mantshwabisi primary school,10073,25.27502,-24.18285667,3,,,2015,,,46,0,,,46,0,,,46,0,,,1,2461,POINT (2813602.356189806 -2775705.873953691),27834.711861319254,53,53,307,True
BWA,BW,479.0,4295.0,4295.0,manxotae p. school,10135,26.3656799,-20.0984406,3,,,2015,,,50,0,,,50,2,,,50,0,,,1,2431,POINT (2935014.060886448 -2284696.220943711),57414.48696567201,54,54,308,True
BWA,BW,487.0,4312.0,4312.0,manyana,10046,25.5936694,-24.771594,3,,,2015,,,48,0,,,48,0,,,48,0,,,1,18846,POINT (2849074.245139387 -2847716.062639681),14045.828116520566,55,55,309,True
BWA,BW,487.0,4311.0,4311.0,maokane primary,10041,24.6390715,-24.9117042,3,,,2015,,,47,2,,,47,0,,,47,0,,,1,2511,POINT (2742808.892999059 -2864903.365327514),13647.886740726506,56,56,310,True
BWA,BW,479.0,4294.0,4294.0,mapulane primary school,10120,27.1337926,-22.5490392,3,,,2015,,,49,6,,,49,0,,,49,0,,,1,2426,POINT (3020519.975522295 -2577572.894888239),0.0,57,57,59,False
BWA,BW,484.0,4303.0,4303.0,masunga primary school,10105,27.4442033,-20.6167297,3,,,2015,,,34,0,,,34,0,,,34,0,,,1,2471,POINT (3055074.736583078 -2346235.935022808),12899.159474460956,58,58,312,True
BWA,BW,479.0,4294.0,4294.0,maunatlala primary school,10121,27.1337926,-22.5490392,3,,,2015,,,48,1,,,48,3,,,48,0,,,1,2420,POINT (3020519.975522295 -2577572.894888239),0.0,59,59,57,False
BWA,BW,481.0,4298.0,4298.0,middlepits primary school,10059,21.8894789,-26.657619,3,,,2015,,,50,0,,,50,0,,,50,0,,,1,2447,POINT (2436725.644878106 -3080760.503398698),96535.93852924767,60,60,314,True
BWA,BW,479.0,4290.0,4290.0,mmadinare primary school,10003,27.75038833,-21.86496333,3,,,2015,,,18,0,,,18,0,,,18,0,,,1,2399,POINT (3089159.098211201 -2495320.169690988),15711.38726409164,61,61,315,True
BWA,BW,484.0,4302.0,4302.0,mmandunyane,10018,27.41513167,-21.38349833,4,,,2015,,,49,1,,,49,4,,,49,0,,,1,2467,POINT (3051838.497534947 -2437665.854618885),7254.606171697208,62,62,316,True
BWA,BW,479.0,4294.0,4294.0,mmashoro primary school,10122,26.4549824,-21.8895555,3,,,2015,,,49,8,,,49,7,,,49,0,,,1,2423,POINT (2944955.169713014 -2498270.206786218),58201.87875460362,63,63,317,True
BWA,BW,486.0,4309.0,4309.0,mogobane,10130,25.7202076,-24.9835833,3,,,2015,,,49,0,,,49,0,,,49,0,,,1,2501,POINT (2863160.413129285 -2873728.337323306),7260.389445375321,64,64,318,True
BWA,BW,485.0,4306.0,4306.0,mogotho primary school,10110,22.0234758,-18.6176681,3,,,2015,,,52,15,,,52,4,,,52,0,,,1,2486,POINT (2451642.111553983 -2109973.83030635),34009.714750138475,65,65,319,True
BWA,BW,479.0,4294.0,4294.0,moiyabana primary school,10123,26.4058039,-22.6312003,3,,,2015,,,50,0,,,50,8,,,50,0,,,1,2419,POINT (2939480.644135037 -2587479.063997411),45687.00353887091,66,66,320,True
BWA,BW,487.0,4312.0,4312.0,mokgadi,10047,25.354477,-24.982888,3,,,2015,,,53,0,,,53,0,,,53,0,,,1,18842,POINT (2822447.468969767 -2873642.947031601),899.0278583942596,67,67,321,True
BWA,BW,487.0,4311.0,4311.0,mokhomma primary,10042,24.59847,-24.76799333,3,,,2015,,,49,1,,,49,0,,,49,0,,,1,2509,POINT (2738289.154693616 -2847274.624953909),18198.9153937716,68,68,322,True
BWA,BW,484.0,4302.0,4302.0,monarch,10019,27.498005,-21.14786833,3,,,2015,,,16,0,,,16,0,,,16,0,,,1,2469,POINT (3061063.914430891 -2409519.065357376),5303.623963432017,69,69,323,True
BWA,BW,487.0,4292.0,4292.0,mookane primary school,10094,26.65976167,-23.68398,4,,,2015,,,46,4,,,46,0,,,46,0,,,1,18737,POINT (2967751.093774433 -2714946.707300503),57487.19705981847,70,70,324,True
BWA,BW,479.0,4294.0,4294.0,moreomabele primary school,10124,27.1337926,-22.5490392,3,,,2015,,,48,2,,,48,0,,,48,0,,,1,2417,POINT (3020519.975522295 -2577572.894888239),0.0,71,71,57,False
BWA,BW,479.0,4291.0,4291.0,mosu primary school,10007,26.0213,-21.21106333,3,,,2015,,,20,0,,,20,0,,,20,0,,,1,2404,POINT (2896677.86577901 -2417063.502548697),53449.2215757898,72,72,326,True
BWA,BW,479.0,4290.0,4290.0,motlhabaneng primary school,10004,28.87297667,-22.17904833,3,,,2015,,,42,0,,,42,0,,,42,0,,,1,2397,POINT (3214125.060590467 -2533035.741600259),43491.07266511944,73,73,327,True
BWA,BW,479.0,4291.0,4291.0,motopi primary school,10008,24.13166333,-20.21789,3,,,2015,,,44,0,,,44,1,,,44,0,,,1,2400,POINT (2686324.473890312 -2298860.931225834),55330.74591395557,74,74,328,True
BWA,BW,479.0,4293.0,4293.0,mount pleasant,10116,27.83439833,-21.982445,3,,,2015,,,29,1,,,29,12,,,29,0,,,1,18741,POINT (3098511.048632744 -2509417.677930074),1691.1578183913748,75,75,329,True
BWA,BW,480.0,4296.0,4296.0,ncojane primary school,10033,20.2885819,-23.1379576,3,,,2015,,,50,1,,,50,2,,,50,0,,,1,18768,POINT (2258514.606025627 -2648710.823385793),117727.82377714083,76,76,330,True
BWA,BW,486.0,4308.0,4308.0,new look,10077,25.6790852,-25.2117188,3,,,2015,,,49,4,,,49,0,,,49,0,,,1,2499,POINT (2858582.688501087 -2901771.998030776),1450.1092632796974,77,77,331,True
BWA,BW,479.0,4294.0,4294.0,newtown primary school,10125,26.7467409,-22.4201558,3,,,2015,,,50,0,,,50,19,,,50,0,,,1,2425,POINT (2977433.577367624 -2562045.284266438),19873.63995192967,78,78,332,True
BWA,BW,485.0,4306.0,4306.0,nokaneng primary school,10111,22.1963519,-19.6759132,3,,,2015,,,50,1,,,50,14,,,50,0,,,1,2489,POINT (2470886.59097631 -2234677.658585318),79064.35951520586,79,79,333,True
BWA,BW,487.0,4312.0,4312.0,ntlhantlhe,10048,25.4497891,-24.9280845,3,,,2015,,,48,0,,,48,0,,,48,0,,,1,18848,POINT (2833057.563408204 -2866914.007244136),11795.698974696963,80,80,334,True
BWA,BW,485.0,4306.0,4306.0,nxaunxau primary school,10112,21.3028793,-18.9732815,3,,,2015,,,51,28,,,51,2,,,51,1,,,1,2487,POINT (2371425.676106568 -2151790.497073282),90461.65008104799,81,81,335,True
BWA,BW,482.0,4299.0,4299.0,oliphant's drift,10066,26.86384,-24.18802333,3,,,2015,,,43,0,,,43,7,,,43,0,,,1,2452,POINT (2990468.989551974 -2776336.365805426),64363.5727800955,82,82,336,True
BWA,BW,481.0,4298.0,4298.0,omaweneno primary school,10060,22.5602615,-25.7826757,3,,,2015,,,50,0,,,50,0,,,50,0,,,1,2448,POINT (2511396.822343094 -2972189.200949157),35429.3091967908,83,83,337,True
BWA,BW,482.0,4299.0,4299.0,oodi primary,10067,26.024051,-24.5682473,4,,,2015,,,51,0,,,51,5,,,51,0,,,1,2453,POINT (2896984.105698182 -2822805.988011375),10159.697707783676,84,84,338,True
BWA,BW,486.0,4309.0,4309.0,otse,10131,25.7481993,-25.0369685,3,,,2015,,,42,0,,,42,0,,,42,0,,,1,2502,POINT (2866276.434919723 -2880286.055150418),7260.389445375321,85,85,339,True
BWA,BW,479.0,4294.0,4294.0,paje primary sch,10126,26.79156089,-22.2603162,3,,,2015,,,50,0,,,50,6,,,50,0,,,1,2421,POINT (2982422.915831783 -2542808.13097836),19873.63995192967,86,86,340,True
BWA,BW,479.0,4294.0,4294.0,palapye central,10127,27.129498,-22.550356,3,,,2015,,,47,0,,,47,0,,,47,0,,,1,2418,POINT (3020041.902837134 -2577731.614981236),503.7316351170523,87,87,341,True
BWA,BW,485.0,4304.0,4304.0,pandamatenga p school,10014,25.6331773,-18.5382107,3,,,2015,,,50,1,,,50,10,,,50,14,,,1,2478,POINT (2853472.244449699 -2100642.423225578),87426.03261460345,88,88,342,True
BWA,BW,485.0,4304.0,4304.0,parakarungu p school,10015,24.3205009,-18.038124,3,,,2015,,,49,1,,,49,6,,,49,13,,,1,2477,POINT (2707345.776025352 -2042011.374603506),24442.090453473633,89,89,343,True
BWA,BW,486.0,4308.0,4308.0,peleng west,10078,25.6581589,-25.2348921,3,,,2015,,,46,1,,,46,0,,,46,0,,,1,2496,POINT (2856253.1834409 -2904623.519809389),3682.08776095039,90,90,344,True
BWA,BW,484.0,4302.0,4302.0,pelotshwaana,10020,27.54200833,-21.16490167,3,,,2015,,,49,1,,,49,13,,,49,0,,,1,2468,POINT (3065962.342719699 -2411552.246963847),5303.623963432017,91,91,345,True
BWA,BW,487.0,4310.0,4310.0,phitshane molopo,10039,25.09413833,-25.73819333,3,,,2015,,,52,0,,,52,0,,,52,0,,,1,2506,POINT (2793466.700791568 -2966691.033150747),14348.222299510975,92,92,346,True
BWA,BW,486.0,4308.0,4308.0,pitikwe,10079,25.6916649,-25.1792929,3,,,2015,,,46,2,,,46,0,,,46,0,,,1,2498,POINT (2859983.05429942 -2897782.836211815),3272.9968504581934,93,93,347,True
BWA,BW,487.0,4312.0,4312.0,rachele primary,10049,25.3357958,-24.9595819,3,,,2015,,,44,1,,,44,0,,,44,0,,,1,18844,POINT (2820367.88729836 -2870780.987394301),3537.721426792887,94,94,348,True
BWA,BW,479.0,4294.0,4294.0,radisele primary school,10128,27.0061312,-22.797594,3,,,2015,,,47,7,,,47,3,,,47,0,,,1,2422,POINT (3006308.773480338 -2607559.338966832),32837.35616780715,95,95,349,True
BWA,BW,484.0,4303.0,4303.0,ramokgwebana,10106,27.6464235,-20.5953256,3,,,2015,,,45,0,,,45,2,,,45,0,,,1,2472,POINT (3077585.786275192 -2343690.383511018),22654.518108756973,96,96,350,True
BWA,BW,487.0,4312.0,4312.0,ranoi,10050,25.2873417,-24.8501775,3,,,2015,,,52,0,,,52,1,,,52,0,,,1,18841,POINT (2814974.001559513 -2857353.49535914),14470.367850128807,97,97,351,True
BWA,BW,479.0,4293.0,4293.0,reuben,10117,27.83675,-21.96852667,3,,,2015,,,49,2,,,49,13,,,49,0,,,1,18740,POINT (3098772.835339658 -2507746.904909347),1691.1578183913748,98,98,352,True
BWA,BW,479.0,4291.0,4291.0,seaseole,10009,25.58286167,-21.39341667,3,,,2015,,,49,0,,,49,0,,,49,0,,,1,2402,POINT (2847871.134139156 -2438851.623938417),53449.2215757898,99,99,353,True
BWA,BW,487.0,4312.0,4312.0,sebako,10051,25.3625473,-24.9826105,3,,,2015,,,41,0,,,41,0,,,41,0,,,1,18847,POINT (2823345.850656316 -2873608.86719237),899.0278583942596,100,100,354,True
BWA,BW,487.0,4292.0,4292.0,sefhare primary school,10095,27.520624,-23.0222224,4,,,2015,,,43,10,,,43,0,,,43,0,,,1,18732,POINT (3063581.849993144 -2634706.282265665),63381.08411593907,101,101,355,True
BWA,BW,487.0,4312.0,4312.0,segopotso primary,10052,25.3484738,-24.9912359,3,,,2015,,,46,1,,,46,0,,,46,0,,,1,18845,POINT (2821779.195802636 -2874668.190524177),1223.8109514848213,102,102,356,True
BWA,BW,485.0,4305.0,4305.0,sehithwa primary school,10101,22.6854361,-20.4819025,3,,,2015,,,50,0,,,50,8,,,50,0,,,1,18810,POINT (2525331.195075346 -2330207.12896215),35898.72098611265,103,103,357,True
BWA,BW,479.0,4313.0,4313.0,sekoma,10096,23.9206364,-24.5104194,4,,,2015,,,39,2,,,39,0,,,39,0,,,1,2525,POINT (2662833.063499045 -2815729.43532322),35965.12501710068,104,104,358,True
BWA,BW,485.0,4306.0,4306.0,seronga primary school,10113,22.4171492,-18.8214695,3,,,2015,,,50,14,,,50,3,,,50,0,,,1,2488,POINT (2495465.63398084 -2133928.075393992),25338.005627280745,105,105,359,True
BWA,BW,487.0,4311.0,4311.0,sese primary,10043,24.8226989,-24.6611163,3,,,2015,,,40,1,,,40,0,,,40,0,,,1,2512,POINT (2763250.201662752 -2834177.450967861),13090.94898015865,106,106,360,True
BWA,BW,484.0,4302.0,4302.0,shashe mooke,10021,27.38368333,-21.18988833,3,,,2015,,,49,0,,,49,4,,,49,0,,,1,2463,POINT (3048337.684339854 -2414535.198728651),10262.949907185852,107,107,361,True
BWA,BW,487.0,4292.0,4292.0,shoshong primary school,10088,26.5203433,-23.0476746,4,,,2015,,,42,10,,,42,0,,,42,0,,,1,18730,POINT (2952231.111818804 -2637785.093065638),36228.46193009042,108,108,362,True
BWA,BW,486.0,4309.0,4309.0,siga primary school,10132,25.87148,-24.89108167,3,,,2015,,,50,0,,,50,0,,,50,0,,,1,2500,POINT (2879999.979668361 -2862372.379589559),2631.32419666003,109,109,363,True
BWA,BW,483.0,4300.0,4300.0,sojwe primary school,10070,25.7653469,-23.4296352,3,,,2015,,,50,0,,,50,0,,,50,0,,,1,2457,POINT (2868185.29702005 -2684059.100387404),95231.35067320685,110,110,364,True
BWA,BW,479.0,4295.0,4295.0,sowa p. school,10136,26.2195793,-20.562263,3,,,2015,,,50,0,,,50,0,,,50,0,,,1,2429,POINT (2918750.216489856 -2339759.009458049),31088.67157042104,111,111,365,True
BWA,BW,484.0,4302.0,4302.0,tagala,10022,27.47567,-21.195645,3,,,2015,,,46,0,,,46,9,,,46,0,,,1,2466,POINT (3058577.593604023 -2415222.51165519),6221.823762062484,112,112,366,True
BWA,BW,483.0,4301.0,4301.0,takatokwane primary school:,10074,24.2981156,-24.013037,3,,,2015,,,49,3,,,49,0,,,49,0,,,1,2460,POINT (2704853.855828097 -2754996.805054526),50223.23945250925,113,113,367,True
BWA,BW,483.0,4300.0,4300.0,thamaga western primary school,10071,25.5378965,-24.6687857,3,,,2015,,,51,0,,,51,0,,,51,0,,,1,2459,POINT (2842865.634311323 -2835116.918261412),14045.828116520566,114,114,368,True
BWA,BW,487.0,4311.0,4311.0,thankane,10044,24.551642,-24.989631,3,,,2015,,,46,0,,,46,0,,,46,0,,,1,2510,POINT (2733076.285578749 -2874471.080064578),13647.886740726506,115,115,369,True
BWA,BW,479.0,4293.0,4293.0,tlhabololo,10118,27.86195,-21.98375333,3,,,2015,,,42,0,,,42,10,,,42,0,,,1,18743,POINT (3101578.086507649 -2509574.73985444),1246.1954700683789,116,116,370,True
BWA,BW,485.0,4305.0,4305.0,toteng primary school,10102,22.9756119,-20.3500498,3,,,2015,,,52,6,,,52,6,,,52,0,,,1,18809,POINT (2557633.417371877 -2314545.564444379),35898.72098611265,117,117,371,True
BWA,BW,481.0,4298.0,4298.0,tsabong primary school,10061,22.4041198,-26.0321368,3,,,2015,,,50,1,,,50,0,,,50,0,,,1,2446,POINT (2494015.207807498 -3003061.76848569),35429.3091967908,118,118,372,True
BWA,BW,479.0,4290.0,4290.0,tsetsebjwe,10005,28.39949667,-22.41341167,3,,,2015,,,41,0,,,41,0,,,41,0,,,1,2395,POINT (3161417.508089669 -2561233.162665091),52668.75803748443,119,119,373,True
BWA,BW,481.0,4297.0,4297.0,tshane,10057,21.86846,-24.02608167,3,,,2015,,,48,0,,,48,2,,,48,0,,,1,2443,POINT (2434385.831633071 -2756586.596608742),8708.513151519053,120,120,374,True
BWA,BW,486.0,4307.0,4307.0,tshwaragano primary school,10026,25.89937833,-24.68963167,3,,,2015,,,50,0,,,50,0,,,50,0,,,1,2492,POINT (2883105.607557944 -2837670.748535665),5482.767140543319,121,121,375,True
BWA,BW,479.0,4291.0,4291.0,tsienyane primary school,10010,24.40389833,-21.03168167,3,,,2015,,,41,0,,,41,1,,,41,0,,,1,2403,POINT (2716629.53546642 -2395656.689753101),54145.689948428175,122,122,376,True
BWA,BW,479.0,4295.0,4295.0,tutume central,10137,27.034821,-20.490646,3,,,2015,,,50,0,,,50,6,,,50,10,,,1,2427,POINT (3009502.507407299 -2331246.163576088),44910.17925496054,123,123,377,True
BWA,BW,481.0,4298.0,4298.0,werda primary school,10062,23.28273,-25.27469167,3,,,2015,,,50,5,,,50,0,,,50,0,,,1,2450,POINT (2591821.647877275 -2909522.206932655),73651.44678431611,124,124,378,True
BWA,BW,480.0,4296.0,4296.0,west hanahai,10034,21.771898,-22.103295,3,,,2015,,,33,18,,,33,3,,,33,0,,,1,18762,POINT (2423636.598963091 -2523931.558383282),50045.275327725845,125,125,379,True
BWA,BW,480.0,4296.0,4296.0,xanagas primary school,10035,20.3951296,-22.1669549,3,,,2015,,,42,5,,,42,0,,,42,0,,,1,18766,POINT (2270375.441734822 -2531582.000854441),26413.19760681637,126,126,380,True
BWA,BW,484.0,4303.0,4303.0,zwenshambe,10107,27.4422347,-20.5082527,3,,,2015,,,43,0,,,43,0,,,43,0,,,1,2474,POINT (3054855.593033502 -2333338.637195269),12899.159474460956,127,127,381,True
