iso3,iso2,admin1_id,admin2_id,iu_id,location,site_id,longitude,latitude,georeliability,location_type,survey_type,year,age_start,age_end,hk_examined,hk_positive,hk_perc_highinfection,hk_perc_moderateinfection,asc_examined,asc_positive,asc_perc_highinfection,asc_perc_moderateinfection,tt_examined,tt_positive,tt_perc_highinfection,tt_perc_moderateinfection,quality,sn,geometry,shortest,id,src,dst,self
MLI,ML,3119.0,30034.0,30034.0,agouni,55484.0,-2.9944999,17.0541,3,,,2004.0,,,69,0,,,69,0,,,69,0,,,2,9344,POINT (-333346.2040485086 1927123.508247442),46161.478637132015,0,0,440,True
MLI,ML,3115.0,30002.0,30002.0,alasso,55445.0,-8.0240188,14.9229085,1,,,2004.0,,,65,0,,,65,0,,,65,0,,,2,9256,POINT (-893229.6869316541 1680317.218918458),28477.326802407544,1,1,441,True
MLI,ML,3112.0,29979.0,29979.0,almoustarat,55314.0,0.0725377,17.3613875,1,,,2004.0,,,71,0,,,71,0,,,71,0,,,2,9155,POINT (8074.859827315239 1962933.560841035),24857.394784613123,2,2,442,True
MLI,ML,3112.0,29980.0,29980.0,arhabou,55360.0,0.0025,16.1696,3,,,2004.0,,,70,0,,,70,0,,,70,0,,,2,9156,POINT (278.2987269831839 1824371.765412293),21878.78016638522,3,3,443,True
MLI,ML,3119.0,30030.0,30030.0,arham,55346.0,-3.3778,16.378201,3,,,2004.0,,,70,0,,,70,0,,,70,0,,,2,9334,POINT (-376014.9760015195 1848562.381930971),40515.41182958982,4,4,444,True
MLI,ML,3113.0,29982.0,29982.0,babaroto,55296.0,-10.8219,13.8079,3,,,2004.0,,,70,0,,,70,0,,,70,0,,,2,9162,POINT (-1204688.397415727 1552186.582945378),1418.425350539327,5,5,445,True
MLI,ML,3111.0,29975.0,29975.0,baco dijcoroni,,-8.0107411,12.5953273,1,,,1993.0,6.0,11.0,580,30,,,580,0,,,580,0,,,3,30599,POINT (-891751.6201287484 1413536.635590961),0.0,6,6,64,False
MLI,ML,3111.0,29976.0,29976.0,badala,55330.0,-7.9846681,12.625425,1,,,2004.0,,,78,0,,,78,0,,,78,0,,,2,9139,POINT (-888849.1870452951 1416969.91648011),1447.3296789164558,7,7,447,True
MLI,ML,3113.0,29982.0,29982.0,bafoulabe,13336.0,-10.8345647,13.8092603,1,,,2014.0,,,122,0,,,122,0,,,122,0,,,1,9160,POINT (-1206098.225370777 1552342.517586216),1418.425350539327,8,8,448,True
MLI,ML,3115.0,29999.0,29999.0,baguineda,55378.0,-7.7715529,12.6090319,1,,,2004.0,,,74,4,,,74,1,,,74,0,,,2,9232,POINT (-865125.3115009884 1415099.885788776),10893.105720244355,9,9,449,True
MLI,ML,3113.0,29986.0,29986.0,balandougou,55404.0,-9.5519961,13.3559918,1,,,2004.0,,,69,2,,,69,0,,,69,0,,,2,9195,POINT (-1063323.341911335 1500432.958924345),10191.95860014036,10,10,450,True
MLI,ML,3111.0,29973.0,29973.0,bamako,,-7.987999999999999,12.657,3,,,1980.0,1.0,65.0,548,274,,,548,0,,,548,0,,,3,30597,POINT (-889220.0924566691 1420572.149006737),640.9956751918736,11,11,451,True
MLI,ML,3112.0,29979.0,29979.0,bamba ii,55315.0,-1.4036179,17.0358391,1,,,2004.0,,,70,0,,,70,0,,,70,0,,,2,9150,POINT (-156250.029896324 1924997.321364776),57406.03553477396,12,12,452,True
MLI,ML,3113.0,29986.0,29986.0,bamgassikoto,55405.0,-9.2608004,13.3824,3,,,2004.0,,,70,1,,,70,0,,,70,0,,,2,9196,POINT (-1030907.584866144 1503454.591568754),19479.324387217013,13,13,453,True
MLI,ML,3115.0,29994.0,29994.0,banamba,13337.0,-7.4435441,13.5543249,1,,,2016.0,,,126,0,,,126,0,,,126,0,,,1,9219,POINT (-828611.5389092759 1523134.413044311),27340.758268219975,14,14,454,True
MLI,ML,3115.0,29998.0,29998.0,banankoro,55376.0,-7.933333,12.466667,1,,,2004.0,,,68,16,,,68,0,,,68,0,,,2,9229,POINT (-883134.5898534734 1398864.730373229),6461.331577601633,15,15,455,True
MLI,ML,3115.0,30000.0,30000.0,banankoro1,55421.0,-7.7367001,13.7365,3,,,2004.0,,,71,2,,,71,0,,,71,0,,,2,9247,POINT (-861245.5155522687 1544003.094639069),31278.18896112528,16,16,456,True
MLI,ML,3118.0,30021.0,30021.0,banasso,55369.0,-6.0317998,10.8811,3,,,2004.0,,,66,7,,,66,0,,,66,0,,,2,9312,POINT (-671456.8823029693 1218625.891462753),33025.83888130481,17,17,457,True
MLI,ML,3111.0,29972.0,29972.0,banconi,55320.0,-7.9660975,12.6730992,1,,,2004.0,,,65,3,,,65,1,,,65,2,,,2,9123,POINT (-886781.9173095697 1422408.997086267),1317.4048992608195,18,18,458,True
MLI,ML,3116.0,30004.0,30004.0,bandiagara,13338.0,-3.609117,14.3489479,1,,,2014.0,,,132,0,,,132,0,,,132,0,,,1,9265,POINT (-401765.0666533471 1614281.102112019),25317.965605658515,19,19,459,True
MLI,ML,3112.0,29978.0,29978.0,bara,55292.0,0.32609999,15.8175,3,,,2004.0,,,71,0,,,71,0,,,71,0,,,2,9149,POINT (36301.28483449161 1783597.85364979),28681.583410997824,20,20,460,True
MLI,ML,3113.0,29985.0,29985.0,batama,55397.0,-11.1766,13.0634,3,,,2004.0,,,62,1,,,62,0,,,62,0,,,2,9189,POINT (-1244173.420800101 1466976.499773243),25776.71387172278,21,21,461,True
MLI,ML,3117.0,30017.0,30017.0,belenitieni,55466.0,-4.9166002,13.3792,3,,,2004.0,,,115,4,,,115,0,,,115,0,,,2,9299,POINT (-547313.430698107 1503088.429164245),9902.711068564531,22,22,462,True
MLI,ML,3112.0,29979.0,29979.0,bia,55316.0,-0.26480001,16.8368,3,,,2004.0,,,69,0,,,69,0,,,69,0,,,2,9153,POINT (-29477.40227525375 1901835.84313394),16470.645383861258,23,23,463,True
MLI,ML,3113.0,29986.0,29986.0,biliko,55406.0,-9.8646203,12.8739673,1,,,2004.0,,,70,34,,,70,1,,,70,1,,,2,9199,POINT (-1098124.50866499 1445336.97531531),17590.664726180188,24,24,464,True
MLI,ML,3116.0,30007.0,30007.0,boni,55351.0,-2.2199773,15.0756229,1,,,2004.0,,,61,1,,,61,0,,,61,0,,,2,9276,POINT (-247126.7426086263 1697916.951899663),31791.767654523534,25,25,465,True
MLI,ML,3112.0,29979.0,29979.0,bormo,55317.0,-0.889,17.004101,3,,,2004.0,,,70,0,,,70,1,,,70,0,,,2,9154,POINT (-98963.0273152202 1921302.426089894),57406.03553477396,26,26,466,True
MLI,ML,3115.0,30002.0,30002.0,bouabougou,55446.0,-8.23,12.69,1,,,2004.0,,,61,0,,,61,0,,,61,0,,,2,9260,POINT (-916159.4092286415 1424337.429086476),16611.293032894577,27,27,467,True
MLI,ML,3115.0,30000.0,30000.0,bouadiana,55422.0,-7.6734865,13.4704069,1,,,2004.0,,,70,0,,,70,0,,,70,0,,,2,9243,POINT (-854208.6097890589 1513526.758540916),26773.972682579642,28,28,468,True
MLI,ML,3115.0,29999.0,29999.0,bougoula 1c,55379.0,-7.8002,12.3119,3,,,2004.0,,,69,2,,,69,0,,,69,0,,,2,9235,POINT (-868314.2920856925 1381225.362904764),23038.847857764118,29,29,469,True
MLI,ML,3118.0,30026.0,30026.0,bougoulaba,55473.0,-5.6775999,11.3177,3,,,2004.0,,,61,7,,,61,0,,,61,1,,,2,9327,POINT (-632027.529795941 1268154.557326689),2375.4912132410395,30,30,470,True
MLI,ML,3118.0,30020.0,30020.0,bougouni,13339.0,-7.4705935,11.4182881,1,,,2016.0,,,183,0,,,183,0,,,183,0,,,1,9308,POINT (-831622.6643435393 1279576.048215537),73938.5010723074,31,31,471,True
MLI,ML,3115.0,30002.0,30002.0,boulal,55447.0,-8.4252996,15.079,3,,,2004.0,,,69,0,,,69,0,,,69,0,,,2,9257,POINT (-937900.0612527716 1698306.291697275),33436.00405267907,32,32,472,True
MLI,ML,3113.0,29986.0,29986.0,boulouli,55407.0,-9.5510998,13.2669,3,,,2004.0,,,70,1,,,70,0,,,70,0,,,2,9194,POINT (-1063223.566251737 1490241.488720065),10191.95860014036,33,33,473,True
MLI,ML,3112.0,29979.0,29979.0,bourem iv,55318.0,-0.3442448999999999,16.9562322,1,,,2004.0,,,72,0,,,72,0,,,72,0,,,2,9151,POINT (-38321.16697618137 1915730.805720271),16470.645383861258,34,34,474,True
MLI,ML,3113.0,29984.0,29984.0,boutinguisse,55388.0,-11.6461,15.1383,3,,,2004.0,,,32,1,,,32,0,,,32,0,,,2,9184,POINT (-1296437.921727543 1705143.891147609),19963.214523557912,35,35,475,True
MLI,ML,3111.0,29973.0,29973.0,bozola,55323.0,-7.9885791,12.6375243,1,,,2004.0,,,74,0,,,74,0,,,74,1,,,2,9126,POINT (-889284.5575737876 1418350.211992815),1447.3296789164558,36,36,476,True
MLI,ML,3111.0,29972.0,29972.0,commune 1,13340.0,-7.956562,12.6662607,1,,,2014.0,,,122,0,,,122,0,,,122,0,,,1,9124,POINT (-885720.4303051103 1421628.740072226),1317.4048992608195,37,37,477,True
MLI,ML,3111.0,29973.0,29973.0,commune 2,13341.0,-7.9749531,12.6564501,1,,,2014.0,,,120,0,,,120,0,,,120,0,,,1,9127,POINT (-887767.7181922385 1420509.409877575),841.0471675500165,38,38,478,True
MLI,ML,3111.0,29974.0,29974.0,commune 3,13342.0,-8.0097045,12.6347543,1,,,2014.0,,,119,0,,,119,0,,,119,1,,,1,9130,POINT (-891636.2263445918 1418034.2029398),914.5978849749064,39,39,479,True
MLI,ML,3111.0,29975.0,29975.0,commune 4,13343.0,-8.0274274,12.6299491,1,,,2014.0,,,119,0,,,119,0,,,119,0,,,1,9133,POINT (-893609.130547972 1417486.020917715),1830.7093871735437,40,40,480,True
MLI,ML,3111.0,29976.0,29976.0,commune 5,13344.0,-8.0013996,12.6075427,1,,,2014.0,,,119,0,,,119,0,,,119,0,,,1,9138,POINT (-890711.7291055027 1414930.012338697),857.8886864924417,41,41,481,True
MLI,ML,3111.0,29977.0,29977.0,commune 6,13345.0,-7.964251,12.6012134,1,,,2014.0,,,120,0,,,120,0,,,120,0,,,1,9145,POINT (-886576.3658698199 1414208.038378086),450.6488996358115,42,42,482,True
MLI,ML,3113.0,29984.0,29984.0,dakassenou,55389.0,-12.0155942,14.2911656,1,,,2004.0,,,69,0,,,69,0,,,69,0,,,2,9178,POINT (-1337569.827922611 1607642.540218396),21616.484201626015,43,43,483,True
MLI,ML,3115.0,30002.0,30002.0,dalibougou,55448.0,-7.269000099999999,14.316,3,,,2004.0,,,66,4,,,66,0,,,66,3,,,2,9254,POINT (-809181.3897082545 1610495.535033291),53832.90459251842,44,44,484,True
MLI,ML,3111.0,29974.0,29974.0,darsalam,55325.0,-8.0042522,12.6520099,1,,,2004.0,,,66,0,,,66,0,,,66,0,,,2,9131,POINT (-891029.2790849397 1420002.824030218),1465.7114689524756,45,45,485,True
MLI,ML,3116.0,30007.0,30007.0,debere,55352.0,-3.0112312,15.1057238,1,,,2004.0,,,70,1,,,70,0,,,70,0,,,2,9273,POINT (-335208.7238448181 1701387.448809619),25535.26126075214,46,46,486,True
MLI,ML,3113.0,29987.0,29987.0,diabaguela,55457.0,-9.0167999,15.0455,3,,,2004.0,,,67,0,,,67,0,,,67,0,,,2,9213,POINT (-1003745.57345284 1694444.410114362),53191.690414838005,47,47,487,True
MLI,ML,3113.0,29984.0,29984.0,diakalel,55390.0,-11.4452717,14.4367876,1,,,2004.0,,,55,0,,,55,0,,,55,0,,,2,9182,POINT (-1274081.817634664 1624376.218061317),0.0,48,48,106,False
MLI,ML,3113.0,29983.0,29983.0,dianguirde,55338.0,-9.0144988,14.4936841,1,,,2004.0,,,61,1,,,61,0,,,61,0,,,2,9173,POINT (-1003489.416172576 1630917.262942648),19207.622005484413,49,49,489,True
MLI,ML,3113.0,29982.0,29982.0,diatawali,55297.0,-10.9518161,13.7195326,1,,,2004.0,,,59,1,,,59,0,,,59,0,,,2,9169,POINT (-1219150.591513575 1542058.74854866),9885.796925497047,50,50,490,True
MLI,ML,3117.0,30013.0,30013.0,diebala,55311.0,-5.6185002,12.9917,3,,,2004.0,,,140,89,,,140,1,,,140,1,,,2,9295,POINT (-625448.5812859057 1458784.032232972),36535.81320010084,51,51,491,True
MLI,ML,3113.0,29983.0,29983.0,diema,13346.0,-9.1926741,14.5390184,1,,,2014.0,,,119,0,,,119,0,,,119,0,,,1,9175,POINT (-1023323.799840514 1636130.273673116),20508.004689948884,52,52,492,True
MLI,ML,3115.0,30002.0,30002.0,dilly 1c,55449.0,-7.6697323,14.9981492,1,,,2004.0,,,67,1,,,67,0,,,67,0,,,2,9255,POINT (-853790.6941567229 1688986.842461929),12569.421691217565,53,53,493,True
MLI,ML,3113.0,29984.0,29984.0,dindimaye,55391.0,-11.5923,14.9731,3,,,2004.0,,,38,0,,,38,0,,,38,0,,,2,9177,POINT (-1290448.933122865 1686100.205852829),19963.214523557912,54,54,494,True
MLI,ML,3115.0,29995.0,29995.0,dioila,55343.0,-6.797592,12.4957874,1,,,2004.0,,,67,2,,,67,0,,,67,0,,,2,9220,POINT (-756704.48006043 1402184.863650801),0.0,55,55,56,False
MLI,ML,3115.0,29995.0,29995.0,dioila,13347.0,-6.797592,12.4957874,1,,,2005.0,,,250,0,,,250,0,,,250,0,,,2,9222,POINT (-756704.48006043 1402184.863650801),0.0,56,56,55,False
MLI,ML,3116.0,30007.0,30007.0,diona,55353.0,-3.2368,15.3244,3,,,2004.0,,,69,0,,,69,0,,,69,0,,,2,9277,POINT (-360318.9277996679 1726614.665069741),30565.68943131729,57,57,497,True
MLI,ML,3116.0,30010.0,30010.0,diondori,55479.0,-4.7740002,14.6113,3,,,2004.0,,,70,0,,,70,0,,,70,0,,,2,9290,POINT (-531439.2713109861 1644444.180291587),12614.906230865543,58,58,498,True
MLI,ML,3115.0,29999.0,29999.0,diorila,55380.0,-8.0921268,12.107766,1,,,2004.0,,,66,2,,,66,0,,,66,0,,,2,9238,POINT (-900811.4348106025 1357975.332126032),24368.538733194855,59,59,499,True
MLI,ML,3116.0,30010.0,30010.0,dioura,55480.0,-5.2490795,14.8255736,1,,,2004.0,,,70,0,,,70,0,,,70,0,,,2,9291,POINT (-584324.857073411 1669106.285288574),58353.27415250323,60,60,500,True
MLI,ML,3112.0,29980.0,29980.0,djebock,55361.0,0.27950001,16.3442,3,,,2004.0,,,66,0,,,66,0,,,66,0,,,2,9157,POINT (31113.79878991487 1844617.666408173),33506.17560122858,61,61,501,True
MLI,ML,3113.0,29986.0,29986.0,djeguila,55408.0,-8.9299002,13.1091,3,,,2004.0,,,70,2,,,70,0,,,70,0,,,2,9197,POINT (-994071.9430987518 1472199.438642209),36809.17176448891,62,62,502,True
MLI,ML,3116.0,30006.0,30006.0,djenne,13348.0,-4.5559954000000005,13.9053952,1,,,2014.0,,,121,0,,,121,0,,,121,0,,,1,9269,POINT (-507171.0879844968 1563365.015508849),22131.67246552429,63,63,503,True
MLI,ML,3111.0,29975.0,29975.0,djicoroni,55328.0,-8.0107411,12.5953273,1,,,2004.0,,,70,0,,,70,0,,,70,0,,,2,9135,POINT (-891751.6201287484 1413536.635590961),0.0,64,64,6,False
MLI,ML,3113.0,29982.0,29982.0,djimekourou,55298.0,-11.0138809,13.5057066,1,,,2004.0,,,70,3,,,70,0,,,70,0,,,2,9166,POINT (-1226059.613445762 1517567.759872166),25446.868381229597,65,65,505,True
MLI,ML,3117.0,30013.0,30013.0,djina,55312.0,-5.9088122,13.140833,1,,,2004.0,,,140,2,,,140,0,,,140,0,,,2,9296,POINT (-657765.9652970826 1475826.694491751),10882.586005705287,66,66,506,True
MLI,ML,3116.0,30004.0,30004.0,dologou,55307.0,-3.4216001,14.4736,3,,,2004.0,,,65,0,,,65,0,,,65,0,,,2,9264,POINT (-380890.7808302139 1628608.12461439),25317.965605658515,67,67,507,True
MLI,ML,3115.0,29999.0,29999.0,doucoura coro,55381.0,-7.8621998,12.645,3,,,2004.0,,,98,9,,,98,0,,,98,0,,,2,9241,POINT (-875216.0782509773 1419203.077062618),6402.7746588243135,68,68,508,True
MLI,ML,3115.0,29999.0,29999.0,dougan,55382.0,-8.2640555,12.9548192,1,,,2004.0,,,70,2,,,70,0,,,70,0,,,2,9240,POINT (-919950.4501473517 1454570.940890827),18953.319790437374,69,69,509,True
MLI,ML,3117.0,30018.0,30018.0,dougoukouna,55468.0,-6.3724999,13.3713,3,,,2004.0,,,108,13,,,108,0,,,108,3,,,2,9303,POINT (-709383.4439481867 1502184.486552201),8173.542532193817,70,70,510,True
MLI,ML,3111.0,29972.0,29972.0,doumazana,55321.0,-7.9436088,12.6788606,1,,,2004.0,,,74,0,,,74,0,,,74,0,,,2,9125,POINT (-884278.486676967 1423066.375737666),2036.1723240654621,71,71,511,True
MLI,ML,3117.0,30013.0,30013.0,douna,55313.0,-5.9257814,13.2345699,1,,,2004.0,,,135,1,,,135,0,,,135,0,,,2,9294,POINT (-659654.9680002518 1486544.079758642),10882.586005705287,72,72,512,True
MLI,ML,3116.0,30007.0,30007.0,douna,55354.0,-1.7348196,15.1101002,1,,,2004.0,,,135,1,,,135,0,,,135,0,,,2,9275,POINT (-193119.2344901905 1701892.068786917),25185.27534718861,73,73,513,True
MLI,ML,3119.0,30031.0,30031.0,echell,55364.0,-3.9405999,16.2705,3,,,2004.0,,,69,0,,,69,0,,,69,0,,,2,9337,POINT (-438665.5742880247 1836069.521236582),37562.17013571993,74,74,514,True
MLI,ML,3115.0,29996.0,29996.0,falako,55359.0,-7.182274,12.5693164,1,,,2004.0,,,68,3,,,68,0,,,68,0,,,2,9225,POINT (-799527.0844177682 1410569.865535632),36175.534098850054,75,75,515,True
MLI,ML,3115.0,29996.0,29996.0,fana,13349.0,-6.9477532,12.7887878,1,,,2015.0,,,193,0,,,193,0,,,193,0,,,1,9224,POINT (-773420.348381337 1435611.982076795),36175.534098850054,76,76,516,True
MLI,ML,3113.0,29985.0,29985.0,faraba,55398.0,-10.8980744,12.4328642,1,,,2004.0,,,64,4,,,64,0,,,64,1,,,2,9187,POINT (-1213168.09283521 1395011.205725851),36282.775310140176,77,77,517,True
MLI,ML,3118.0,30027.0,30027.0,farabacoura,55463.0,-8.2517996,11.6432,3,,,2004.0,,,61,0,,,61,0,,,61,0,,,2,9330,POINT (-918586.1296001385 1305128.861268808),38644.05337093708,78,78,518,True
MLI,ML,3113.0,29982.0,29982.0,fore,55299.0,-10.7116547,13.1376158,1,,,2004.0,,,69,26,,,69,0,,,69,0,,,2,9170,POINT (-1192415.946757375 1475458.929551135),4175.069542150299,79,79,519,True
MLI,ML,3113.0,29987.0,29987.0,fosse kaarta,55458.0,-9.7014999,15.2432,3,,,2004.0,,,66,0,,,66,0,,,66,0,,,2,9215,POINT (-1079966.028798995 1717244.103413111),12391.464073164463,80,80,520,True
MLI,ML,3113.0,29986.0,29986.0,founticouroula,55409.0,-9.3917999,13.1957,3,,,2004.0,,,61,5,,,61,0,,,61,0,,,2,9207,POINT (-1045490.382500318 1482099.400638779),19513.05727673176,81,81,521,True
MLI,ML,3116.0,30007.0,30007.0,gallou,55355.0,-1.5721,15.2618,3,,,2004.0,,,66,0,,,66,0,,,66,0,,,2,9280,POINT (-175005.3714761054 1719390.241863575),25185.27534718861,82,82,522,True
MLI,ML,3112.0,29978.0,29978.0,golea,55293.0,0.46000001,15.6056,3,,,2004.0,,,71,0,,,71,0,,,71,0,,,2,9147,POINT (51206.96687810075 1759093.693395318),28681.583410997824,83,83,523,True
MLI,ML,3119.0,30032.0,30032.0,gossi,55366.0,-1.3011431,15.822218,1,,,2004.0,,,68,0,,,68,0,,,68,0,,,2,9338,POINT (-144842.5873411814 1784143.735050526),71433.94449897416,84,84,524,True
MLI,ML,3113.0,29984.0,29984.0,gouele,55392.0,-11.8529854,14.3939982,1,,,2004.0,,,70,0,,,70,0,,,70,0,,,2,9181,POINT (-1319468.299108106 1619458.082686552),21616.484201626015,85,85,525,True
MLI,ML,3119.0,30032.0,30032.0,gourma rharous,55367.0,-1.9209164,16.8782186,1,,,2004.0,,,68,0,,,68,0,,,68,0,,,2,9339,POINT (-213835.4355044482 1906653.563423477),60436.51540634308,86,86,526,True
MLI,ML,3113.0,29985.0,29985.0,guenegore,55399.0,-11.0188593,12.7283228,1,,,2004.0,,,60,0,,,60,0,,,60,0,,,2,9191,POINT (-1226613.806398727 1428710.65039448),27544.82960976253,87,87,527,True
MLI,ML,3113.0,29986.0,29986.0,guetala,55410.0,-9.5517783,13.9925225,1,,,2004.0,,,70,0,,,70,0,,,70,0,,,2,9206,POINT (-1063299.09652624 1573358.688098898),34917.76167882682,88,88,528,True
MLI,ML,3116.0,30004.0,30004.0,guinedia,55308.0,-3.1513,14.654,3,,,2004.0,,,71,0,,,71,0,,,71,0,,,2,9266,POINT (-350801.111336843 1649356.863735181),24169.355516443888,89,89,529,True
MLI,ML,3116.0,30008.0,30008.0,guiri,55427.0,-2.1888355,14.3230877,1,,,2004.0,,,70,0,,,70,0,,,70,0,,,2,9285,POINT (-243660.0532902404 1611309.8332768),65741.57338483265,90,90,530,True
MLI,ML,3112.0,29980.0,29980.0,hamakouladji,55362.0,-0.1145,16.6143,3,,,2004.0,,,70,0,,,70,0,,,70,0,,,2,9159,POINT (-12746.08169582983 1875973.095280635),30802.902701776286,91,91,531,True
MLI,ML,3111.0,29975.0,29975.0,hamdallaye,55329.0,-8.0315179,12.6454919,1,,,2004.0,,,74,2,,,74,0,,,74,1,,,2,9134,POINT (-894064.482925062 1419259.196338525),1830.7093871735437,92,92,532,True
MLI,ML,3119.0,30032.0,30032.0,hamzakoma,55368.0,-2.4438,16.7225,3,,,2004.0,,,68,0,,,68,0,,,68,0,,,2,9340,POINT (-272042.571600602 1888546.176671651),60958.57730866405,93,93,533,True
MLI,ML,3119.0,30031.0,30031.0,hangabera,55365.0,-3.7291999,16.593201,3,,,2004.0,,,69,0,,,69,0,,,69,0,,,2,9336,POINT (-415132.6339343267 1873522.171287379),44232.344246242756,94,94,534,True
MLI,ML,3116.0,30004.0,30004.0,iriguili,55309.0,-3.6127999,14.6517,3,,,2004.0,,,69,0,,,69,0,,,69,1,,,2,9267,POINT (-402175.0452059897 1649092.22175636),29540.110794300843,95,95,535,True
MLI,ML,3116.0,30007.0,30007.0,isseye,55356.0,-2.0265999,14.8726,3,,,2004.0,,,51,1,,,51,0,,,51,0,,,2,9279,POINT (-225600.0689096992 1674522.106098523),31791.767654523534,96,96,536,True
MLI,ML,3118.0,30021.0,30021.0,kadiolo,13350.0,-5.7563151,10.550504,1,,,2015.0,,,166,0,,,166,0,,,166,0,,,1,9314,POINT (-640790.0657776316 1181170.90151541),12516.704715601363,97,97,537,True
MLI,ML,3118.0,30021.0,30021.0,kai,55370.0,-5.6893555,10.9701558,1,,,2004.0,,,70,13,,,70,0,,,70,0,,,2,9310,POINT (-633336.1572019104 1228722.550545162),6990.684305871573,98,98,538,True
MLI,ML,3111.0,29976.0,29976.0,kalaban,55331.0,-7.9838097,12.5913864,1,,,2004.0,,,97,2,,,97,0,,,97,0,,,2,9137,POINT (-888753.6303943982 1413087.122238935),1914.8889283942306,99,99,539,True
MLI,ML,3115.0,29997.0,29997.0,kalabancoro,13351.0,-8.0301544,12.5757646,1,,,2015.0,,,119,0,,,119,0,,,119,0,,,1,9227,POINT (-893912.6987993653 1411305.310978036),3106.295309341935,100,100,540,True
MLI,ML,3118.0,30028.0,30028.0,kalana b,55486.0,-8.193961,10.7873458,1,,,2004.0,,,70,1,,,70,0,,,70,0,,,2,9331,POINT (-912147.5660999427 1207999.812163392),44534.73259541428,101,101,541,True
MLI,ML,3113.0,29982.0,29982.0,kale pc,55300.0,-10.6564,13.7188,3,,,2004.0,,,80,5,,,80,0,,,80,0,,,2,9163,POINT (-1186265.021689441 1541974.800848359),21064.217686611035,102,102,542,True
MLI,ML,3115.0,30002.0,30002.0,kaloumba,55450.0,-7.4964588,14.8599232,1,,,2004.0,,,67,0,,,67,0,,,67,2,,,2,9252,POINT (-834501.9763687546 1673062.059507017),25013.063508193933,103,103,543,True
MLI,ML,3113.0,29983.0,29983.0,kandiare,55340.0,-9.4324999,14.6334,3,,,2004.0,,,64,0,,,64,0,,,64,0,,,2,9172,POINT (-1050021.085775604 1646986.691021867),28280.504651541843,104,104,544,True
MLI,ML,3115.0,29998.0,29998.0,kangaba,13352.0,-8.4156809,11.9427677,1,,,2015.0,,,126,0,,,126,0,,,126,0,,,1,9230,POINT (-936829.3124666783 1339195.694697142),30507.246113920584,105,105,545,True
MLI,ML,3113.0,29984.0,29984.0,kayes,13353.0,-11.4452717,14.4367876,1,,,2014.0,,,123,0,,,123,0,,,123,0,,,1,9179,POINT (-1274081.817634664 1624376.218061317),0.0,106,106,48,False
MLI,ML,3118.0,30021.0,30021.0,kebeni,55371.0,-6.1210692,10.2572187,1,,,2004.0,,,67,53,,,67,0,,,67,0,,,2,9313,POINT (-681394.3064543904 1147976.758358797),40187.553563536785,107,107,547,True
MLI,ML,3113.0,29985.0,29985.0,kenieba,13354.0,-11.2353772,12.8451283,1,,,2016.0,,,121,0,,,121,0,,,121,0,,,1,9188,POINT (-1250716.468774356 1442044.040984923),25776.71387172278,108,108,548,True
MLI,ML,3113.0,29982.0,29982.0,kenieba bafing,55301.0,-10.5717,13.299,3,,,2004.0,,,68,10,,,68,0,,,68,0,,,2,9164,POINT (-1176836.26081925 1493913.069162187),20117.200165259128,109,109,549,True
MLI,ML,3115.0,29998.0,29998.0,keniegoue,55377.0,-8.6224279,11.7667163,1,,,2004.0,,,70,34,,,70,1,,,70,0,,,2,9231,POINT (-959844.2832297152 1319170.630746385),30507.246113920584,110,110,550,True
MLI,ML,3113.0,29985.0,29985.0,keniekenieba,55400.0,-11.8649365,13.3739337,1,,,2004.0,,,59,0,,,59,0,,,59,0,,,2,9190,POINT (-1320798.689474526 1502485.83941839),53167.91972012101,111,111,551,True
MLI,ML,3115.0,29999.0,29999.0,kobala,55383.0,-8.0558333,14.6775,1,,,2004.0,,,1,1,,,1,0,,,1,0,,,2,9237,POINT (-896771.2608714966 1652060.973664714),9557.50473173668,112,112,552,True
MLI,ML,3115.0,29999.0,29999.0,kokoun,55384.0,-6.467147,11.884201,1,,,2004.0,,,97,0,,,97,0,,,97,0,,,2,9234,POINT (-719919.5109252468 1332532.558059304),27755.136238293406,113,113,553,True
MLI,ML,3118.0,30026.0,30026.0,kokouna,55474.0,-5.5661026,12.3451287,1,,,2004.0,,,72,4,,,72,0,,,72,0,,,2,9324,POINT (-619615.707135116 1385011.679526746),18991.120460611757,114,114,554,True
MLI,ML,3117.0,30014.0,30014.0,kokrybozoi,55440.0,-5.4851999,13.9703,3,,,2004.0,,,99,0,,,99,0,,,99,0,,,2,9298,POINT (-610609.659767315 1570809.364862957),13970.60225231643,115,115,555,True
MLI,ML,3115.0,29999.0,29999.0,kolena,55385.0,-8.9077055,12.3872699,1,,,2004.0,,,68,0,,,68,0,,,68,0,,,2,9239,POINT (-991601.2403964425 1389814.241834607),64693.18435684605,116,116,556,True
MLI,ML,3115.0,30000.0,30000.0,kolokani e,55423.0,-8.0328815,13.5733993,1,,,2004.0,,,60,0,,,60,0,,,60,0,,,2,9246,POINT (-894216.2781827076 1525318.686875597),37896.9429097446,117,117,557,True
MLI,ML,3118.0,30023.0,30023.0,kolondieba,13355.0,-6.8914024,11.0915371,1,,,2016.0,,,183,3,,,183,0,,,183,0,,,1,9316,POINT (-767147.4060195434 1242489.002400554),71409.4082231112,118,118,558,True
MLI,ML,3118.0,30024.0,30024.0,kolonina,55435.0,-5.9421,12.3538,3,,,2004.0,,,69,34,,,69,4,,,69,1,,,2,9317,POINT (-661471.5462427109 1385999.828718075),29764.592673226798,119,119,559,True
MLI,ML,3115.0,29999.0,29999.0,komi komi,55386.0,-8.3269997,12.8006,3,,,2004.0,,,68,1,,,68,0,,,68,0,,,2,9233,POINT (-926957.3664397418 1436960.391349429),16611.293032894577,120,120,560,True
MLI,ML,3118.0,30029.0,30029.0,kona,55488.0,-6.1765638,12.479319,1,,,2004.0,,,66,30,,,66,0,,,66,0,,,2,9333,POINT (-687571.9370681669 1400307.189612438),29764.592673226798,121,121,561,True
MLI,ML,3116.0,30008.0,30008.0,koporo pen,55428.0,-3.3038001,14.231,3,,,2004.0,,,70,1,,,70,0,,,70,0,,,2,9282,POINT (-367777.3448147663 1600731.974945456),30806.524057349663,122,122,562,True
MLI,ML,3116.0,30009.0,30009.0,korientze,55441.0,-3.781919,15.3972927,1,,,2004.0,,,68,0,,,68,0,,,68,0,,,2,9288,POINT (-421001.2973014064 1735029.655601751),25112.10291423437,123,123,563,True
MLI,ML,3115.0,30002.0,30002.0,koron,55451.0,-7.989299799999999,14.625,3,,,2004.0,,,69,1,,,69,0,,,69,0,,,2,9258,POINT (-889364.7855308021 1646020.276707834),9557.50473173668,124,124,564,True
MLI,ML,3113.0,29986.0,29986.0,kotouba,55411.0,-8.7247663,13.476433,1,,,2004.0,,,70,2,,,70,0,,,70,0,,,2,9209,POINT (-971236.5418063137 1514216.565719781),41246.0246280309,125,125,565,True
MLI,ML,3116.0,30006.0,30006.0,kouakourou,55348.0,-4.4915652,14.2222772,1,,,2004.0,,,68,1,,,68,0,,,68,0,,,2,9271,POINT (-499998.750928788 1599730.235125964),30565.160046849727,126,126,566,True
MLI,ML,3116.0,30010.0,30010.0,koubi,55481.0,-4.8669435,14.3946258,1,,,2004.0,,,70,0,,,70,0,,,70,0,,,2,9293,POINT (-541785.6721396326 1619530.211064194),26976.913699875768,127,127,567,True
MLI,ML,3115.0,30001.0,30001.0,koulikoro,13356.0,-7.5599321,12.8662046,1,,,2016.0,,,125,0,,,125,0,,,125,0,,,1,9250,POINT (-841567.7918037233 1444450.566812076),32048.64706260182,128,128,568,True
MLI,ML,3119.0,30033.0,30033.0,koumaira,55454.0,-3.8641574,15.7838642,1,,,2004.0,,,70,0,,,70,0,,,70,1,,,2,9341,POINT (-430156.0341130599 1779706.497605787),45605.1468317365,129,129,569,True
MLI,ML,3113.0,29986.0,29986.0,koumakire,55412.0,-9.9952002,12.7872,3,,,2004.0,,,68,27,,,68,0,,,68,0,,,2,9204,POINT (-1112660.596640826 1435430.733249439),17590.664726180188,130,130,570,True
MLI,ML,3113.0,29982.0,29982.0,koundia,55302.0,-10.6814,13.1592,3,,,2004.0,,,63,36,,,63,1,,,63,0,,,2,9161,POINT (-1189048.008959272 1477926.357497378),4175.069542150299,131,131,571,True
MLI,ML,3113.0,29987.0,29987.0,kouroukere,55459.0,-9.4973001,15.4227,3,,,2004.0,,,68,0,,,68,0,,,68,2,,,2,9214,POINT (-1057234.611042906 1737963.456222261),24306.012818764993,132,132,572,True
MLI,ML,3113.0,29984.0,29984.0,koussane,55393.0,-11.2339605,14.8849445,1,,,2004.0,,,62,1,,,62,0,,,62,0,,,2,9185,POINT (-1250558.762451749 1675943.962584822),41162.78651269519,133,133,573,True
MLI,ML,3113.0,29989.0,29989.0,kremis,55487.0,-10.3501,15.3541,3,,,2004.0,,,29,0,,,29,0,,,29,0,,,2,9216,POINT (-1152167.861659461 1730042.9829162),36595.27920279311,134,134,574,True
MLI,ML,3119.0,30033.0,30033.0,lere a,55455.0,-4.9013473,15.7184406,1,,,2004.0,,,70,0,,,70,0,,,70,0,,,2,9342,POINT (-545615.4856369863 1772139.430240242),48019.08051331642,135,135,575,True
MLI,ML,3113.0,29986.0,29986.0,limakole,55413.0,-9.5223125,12.3494797,1,,,2004.0,,,70,14,,,70,0,,,70,0,,,2,9203,POINT (-1060018.978674424 1385507.499258753),27798.34834184891,136,136,576,True
MLI,ML,3117.0,30014.0,30014.0,macina,13357.0,-5.3599355,13.96284,1,,,2014.0,,,119,0,,,119,0,,,119,0,,,1,9297,POINT (-596665.2905447902 1569953.622916847),13970.60225231643,137,137,577,True
MLI,ML,3113.0,29987.0,29987.0,makana ii,55460.0,-9.6622412,14.7382979,1,,,2004.0,,,54,0,,,54,0,,,54,0,,,2,9210,POINT (-1075595.770305789 1659058.246618699),28280.504651541843,138,138,578,True
MLI,ML,3116.0,30007.0,30007.0,manko,55357.0,-3.4442999,15.1509,3,,,2004.0,,,66,0,,,66,0,,,66,0,,,2,9278,POINT (-383417.7110073231 1706596.983267457),30565.68943131729,139,139,579,True
MLI,ML,3113.0,29986.0,29986.0,mansala,55414.0,-10.3122676,13.5442161,1,,,2004.0,,,69,14,,,69,0,,,69,0,,,2,9200,POINT (-1147956.378155973 1521976.89137281),40269.414444639006,140,140,580,True
MLI,ML,3115.0,29995.0,29995.0,mansara,55344.0,-6.8316998,11.8507,3,,,2004.0,,,70,4,,,70,0,,,70,1,,,2,9221,POINT (-760501.3429885089 1328721.792322904),39328.289168700474,141,141,581,True
MLI,ML,3111.0,29977.0,29977.0,missabougou,55334.0,-7.9184327,12.6332066,1,,,2004.0,,,87,3,,,87,0,,,87,1,,,2,9142,POINT (-881475.8960448063 1417857.638650894),5677.788039092874,142,142,582,True
MLI,ML,3111.0,29973.0,29973.0,missira,55324.0,-7.9824471,12.6555133,1,,,2004.0,,,153,4,,,153,0,,,153,1,,,2,9128,POINT (-888601.9464562433 1420402.528908364),640.9956751918736,143,143,583,True
MLI,ML,3115.0,30000.0,30000.0,missira,55424.0,-8.4437853,13.7111917,1,,,2004.0,,,153,4,,,153,0,,,153,1,,,2,9244,POINT (-939957.8799637286 1541102.990936856),41246.0246280309,144,144,584,True
MLI,ML,3113.0,29985.0,29985.0,monea,55401.0,-11.4511,13.6058,3,,,2004.0,,,63,2,,,63,0,,,63,0,,,2,9193,POINT (-1274730.621022855 1529029.402790654),50002.36231379891,145,145,585,True
MLI,ML,3113.0,29986.0,29986.0,moro moro,55415.0,-9.0861392,13.3927631,1,,,2004.0,,,70,0,,,70,0,,,70,0,,,2,9201,POINT (-1011464.389020802 1504640.430471008),19479.324387217013,146,146,586,True
MLI,ML,3116.0,30006.0,30006.0,mougna,55349.0,-4.8183684,13.8815825,1,,,2004.0,,,61,0,,,61,0,,,61,0,,,2,9270,POINT (-536378.3167424003 1560634.307645545),27283.844523835167,147,147,587,True
MLI,ML,3113.0,29984.0,29984.0,mouline,55394.0,-10.949619,14.5265158,1,,,2004.0,,,64,0,,,64,0,,,64,0,,,2,9180,POINT (-1218906.011460353 1634692.487620679),13878.870286916055,148,148,588,True
MLI,ML,3113.0,29984.0,29984.0,moussala,55395.0,-10.9107601,14.4118077,1,,,2004.0,,,69,0,,,69,0,,,69,0,,,2,9183,POINT (-1214580.258499566 1621504.959354803),13878.870286916055,149,149,589,True
MLI,ML,3117.0,30018.0,30018.0,mpeba,55469.0,-6.1914001,13.4948,3,,,2004.0,,,86,2,,,86,0,,,86,1,,,2,9304,POINT (-689223.506429423 1516319.142012336),4662.429728388105,150,150,590,True
MLI,ML,3118.0,30024.0,30024.0,nankorola,55436.0,-5.7477999,12.6636,3,,,2004.0,,,68,22,,,68,0,,,68,0,,,2,9320,POINT (-639842.1580496288 1421325.166019963),22575.473159059533,151,151,591,True
MLI,ML,3115.0,30002.0,30002.0,nara,13358.0,-7.6114217,15.0915263,1,,,2015.0,,,122,0,,,122,0,,,122,0,,,1,9253,POINT (-847299.5878568727 1699750.48035326),0.0,152,152,153,False
MLI,ML,3115.0,30002.0,30002.0,nara 1erc,55452.0,-7.6114217,15.0915263,1,,,2004.0,,,69,0,,,69,0,,,69,0,,,2,9259,POINT (-847299.5878568727 1699750.48035326),0.0,153,153,152,False
MLI,ML,3118.0,30026.0,30026.0,nebadougou,55475.0,-5.3713002,11.4361,3,,,2004.0,,,71,18,,,71,0,,,71,1,,,2,9326,POINT (-597930.4031618085 1281598.959525467),36651.95759010122,154,154,594,True
MLI,ML,3117.0,30018.0,30018.0,nerekoro,55470.0,-6.1532001,13.5115,3,,,2004.0,,,98,1,,,98,0,,,98,0,,,2,9302,POINT (-684971.1018811201 1518231.027607692),4662.429728388105,155,155,595,True
MLI,ML,3116.0,30006.0,30006.0,ngola,55350.0,-4.632,13.727,3,,,2004.0,,,62,0,,,62,0,,,62,0,,,2,9272,POINT (-515631.8813544431 1542914.443348826),22131.67246552429,156,156,596,True
MLI,ML,3115.0,29997.0,29997.0,ngolobougou,55374.0,-6.7158059,12.1771318,1,,,2004.0,,,63,15,,,63,0,,,63,0,,,2,9226,POINT (-747600.0930544623 1365873.805445697),32966.23703292342,157,157,597,True
MLI,ML,3118.0,30021.0,30021.0,ngolona,55372.0,-5.8294031,10.4664925,1,,,2004.0,,,66,17,,,66,0,,,66,0,,,2,9311,POINT (-648926.1847207304 1171659.252579431),12516.704715601363,158,158,598,True
MLI,ML,3116.0,30007.0,30007.0,ngono,55358.0,-2.7864001,15.0618,3,,,2004.0,,,69,0,,,69,0,,,69,0,,,2,9274,POINT (-310180.6402783265 1696323.398983286),25535.26126075214,159,159,599,True
MLI,ML,3111.0,29977.0,29977.0,niamakoro,55335.0,-7.9620107,12.5863409,1,,,2004.0,,,90,2,,,90,0,,,90,1,,,2,9144,POINT (-886326.9768145957 1412511.624283974),1714.6473921967236,160,160,600,True
MLI,ML,3115.0,29994.0,29994.0,niare,55306.0,-7.3183999,13.8494,3,,,2004.0,,,66,0,,,66,0,,,66,0,,,2,9218,POINT (-814680.5502895442 1556944.243267654),36567.4317344594,161,161,601,True
MLI,ML,3118.0,30025.0,30025.0,niena,13359.0,-6.3491975,11.4277395,1,,,2015.0,,,59,0,,,59,0,,,59,0,,,1,9322,POINT (-706789.4326459256 1280649.435220487),19981.58278624438,162,162,602,True
MLI,ML,3118.0,30024.0,30024.0,niguila,55437.0,-5.6489,12.4908,3,,,2004.0,,,66,19,,,66,0,,,66,0,,,2,9318,POINT (-628832.6715421231 1401616.203713528),18991.120460611757,163,163,603,True
MLI,ML,3111.0,29974.0,29974.0,niomihiranbougou,55326.0,-8.0028892,12.6392316,1,,,2004.0,,,86,0,,,86,0,,,86,0,,,2,9129,POINT (-890877.5506189886 1418544.98707677),914.5978849749064,164,164,604,True
MLI,ML,3113.0,29987.0,29987.0,nioro,13360.0,-9.5907514,15.2323839,1,,,2016.0,,,126,0,,,126,0,,,126,0,,,1,9211,POINT (-1067637.562172876 1715996.188141468),12391.464073164463,165,165,605,True
MLI,ML,3115.0,30000.0,30000.0,nonkon 1c,55425.0,-7.8660998,13.2295,3,,,2004.0,,,69,0,,,69,0,,,69,0,,,2,9245,POINT (-875650.2242650711 1485964.308776453),34920.35893796771,166,166,606,True
MLI,ML,3118.0,30026.0,30026.0,ouahibera,55476.0,-5.6647691,11.0712452,1,,,2004.0,,,71,33,,,71,0,,,71,0,,,2,9323,POINT (-630599.2116734707 1240187.201661509),11786.818741509798,167,167,607,True
MLI,ML,3115.0,30002.0,30002.0,ouainka,55453.0,-8.6188002,15.3007,3,,,2004.0,,,70,0,,,70,0,,,70,0,,,2,9261,POINT (-959440.4495129645 1723879.286058728),33436.00405267907,168,168,608,True
MLI,ML,3115.0,30003.0,30003.0,ouelessebougou,13361.0,-7.9102647,11.9886052,1,,,2015.0,,,116,0,,,116,0,,,116,0,,,1,9263,POINT (-880566.6384440068 1344411.63425022),24368.538733194855,169,169,609,True
MLI,ML,3116.0,30009.0,30009.0,oumere,55442.0,-4.483689,15.6145806,1,,,2004.0,,,67,0,,,67,0,,,67,0,,,2,9286,POINT (-499121.976355402 1760131.695731702),31847.146110907484,170,170,610,True
MLI,ML,3113.0,29988.0,29988.0,oussoubidiagna,13362.0,-10.4635418,14.251575,1,,,2016.0,,,185,0,,,185,0,,,185,0,,,1,19618,POINT (-1164796.145070133 1603094.992975032),39961.49681694923,171,171,611,True
MLI,ML,3111.0,29976.0,29976.0,sabalibougou,55332.0,-8.0001633,12.5965928,1,,,2004.0,,,90,0,,,90,0,,,90,0,,,2,9136,POINT (-890574.1048190352 1413680.984577638),1186.3300276751338,172,172,612,True
MLI,ML,3117.0,30017.0,30017.0,san,13363.0,-4.8987523,13.2944016,1,,,2014.0,,,119,2,,,119,0,,,119,0,,,1,9300,POINT (-545326.6115583777 1493387.076876369),6953.153702640224,173,173,613,True
MLI,ML,3118.0,30024.0,30024.0,sanguela,55438.0,-5.2867298,12.0025109,1,,,2004.0,,,66,3,,,66,0,,,66,0,,,2,9319,POINT (-588516.069297625 1345994.166316344),49757.38025222693,174,174,614,True
MLI,ML,3113.0,29982.0,29982.0,saorane,55303.0,-10.8189,14.3215,3,,,2004.0,,,69,0,,,69,0,,,69,0,,,2,9167,POINT (-1204354.438943347 1611127.421893467),14569.168451142947,175,175,615,True
MLI,ML,3116.0,30009.0,30009.0,sare mala,55443.0,-4.2349,14.3168,3,,,2004.0,,,64,0,,,64,0,,,64,0,,,2,9287,POINT (-471426.9115604342 1610587.444887156),30565.160046849727,176,176,616,True
MLI,ML,3117.0,30018.0,30018.0,sebougou,55471.0,-6.2482149,13.4316597,2,,,2004.0,,,91,2,,,91,0,,,91,0,,,2,9306,POINT (-695548.1010349446 1509091.784432221),0.0,177,177,179,False
MLI,ML,3113.0,29986.0,29986.0,sefeto,55416.0,-9.8264435,14.1394692,1,,,2004.0,,,70,0,,,70,0,,,70,0,,,2,9202,POINT (-1093874.686728873 1590222.35805594),34917.76167882682,178,178,618,True
MLI,ML,3117.0,30018.0,30018.0,segou,13364.0,-6.2482149,13.4316597,1,,,2014.0,,,120,0,,,120,0,,,120,0,,,1,9305,POINT (-695548.1010349446 1509091.784432221),0.0,179,179,177,False
MLI,ML,3113.0,29986.0,29986.0,segouna,55417.0,-9.7448681,12.4600941,1,,,2004.0,,,64,4,,,64,0,,,64,0,,,2,9205,POINT (-1084793.754739615 1398115.379392002),27798.34834184891,180,180,620,True
MLI,ML,3118.0,30022.0,30022.0,segueneni,55403.0,-6.001562,11.7629036,1,,,2004.0,,,60,0,,,60,0,,,60,1,,,2,9315,POINT (-668090.8258042606 1318737.095564331),50718.51864354685,181,181,621,True
MLI,ML,3115.0,30003.0,30003.0,seliban,55462.0,-7.6540999,12.0433,3,,,2004.0,,,67,1,,,67,0,,,67,1,,,2,9262,POINT (-852050.5033488462 1350636.623321519),29187.67633271336,182,182,622,True
MLI,ML,3113.0,29982.0,29982.0,selinkegny,55304.0,-10.7841335,14.0949746,1,,,2004.0,,,52,0,,,52,0,,,52,0,,,2,9168,POINT (-1200484.249866683 1585114.992867092),26298.760946883413,183,183,623,True
MLI,ML,3113.0,29986.0,29986.0,semko,55418.0,-9.3559999,12.813,3,,,2004.0,,,69,17,,,69,0,,,69,0,,,2,9208,POINT (-1041505.144729919 1438375.968269498),43904.67695175233,184,184,624,True
MLI,ML,3116.0,30009.0,30009.0,sendegue,55444.0,-3.9502001,15.2524,3,,,2004.0,,,60,1,,,60,0,,,60,0,,,2,9289,POINT (-439734.2636635383 1718305.610515399),25112.10291423437,185,185,625,True
MLI,ML,3111.0,29977.0,29977.0,senou,55336.0,-7.9211555,12.5220743,1,,,2004.0,,,1,1,,,1,0,,,1,0,,,2,9141,POINT (-881778.9967543384 1405182.259408009),6461.331577601633,186,186,626,True
MLI,ML,3112.0,29980.0,29980.0,seyna publique,55363.0,-0.021199999,16.356899,3,,,2004.0,,,69,0,,,69,0,,,69,2,,,2,9158,POINT (-2359.973093497909 1846090.893925432),21878.78016638522,187,187,627,True
MLI,ML,3115.0,29999.0,29999.0,siby a,55387.0,-8.3266396,12.3776847,1,,,2004.0,,,60,28,,,60,0,,,60,0,,,2,9236,POINT (-926917.2802911071 1388721.809996798),37204.89366921574,188,188,628,True
MLI,ML,3117.0,30017.0,30017.0,sienso,55467.0,-4.8814001,13.236,3,,,2004.0,,,107,34,,,107,0,,,107,1,,,2,9301,POINT (-543394.9734902346 1486707.621749921),6953.153702640224,189,189,629,True
MLI,ML,3118.0,30026.0,30026.0,sikasso,13365.0,-5.6983979,11.3223834,1,,,2015.0,,,119,0,,,119,0,,,119,0,,,1,9328,POINT (-634342.7525654593 1268686.254638784),2375.4912132410395,190,190,630,True
MLI,ML,3115.0,30001.0,30001.0,sikouna,55433.0,-7.506299999999999,13.3022,3,,,2004.0,,,67,0,,,67,0,,,67,0,,,2,9251,POINT (-835597.4937415493 1494279.110043667),26773.972682579642,191,191,631,True
MLI,ML,3116.0,30008.0,30008.0,simerou,55430.0,-3.0892999,14.4526,3,,,2004.0,,,70,0,,,70,1,,,70,1,,,2,9283,POINT (-343899.2917757109 1626193.905529765),24169.355516443888,192,192,632,True
MLI,ML,3115.0,29997.0,29997.0,siracoro meguetana,55375.0,-7.0599942,13.2983189,1,,,2004.0,,,65,0,,,65,0,,,65,1,,,2,9228,POINT (-785914.9593474648 1493835.160272076),42378.81902220319,193,193,633,True
MLI,ML,3113.0,29985.0,29985.0,siribaya,55402.0,-11.2615964,12.3611187,1,,,2004.0,,,63,3,,,63,0,,,63,0,,,2,9192,POINT (-1253635.176767363 1386833.866117649),41285.03076224761,194,194,634,True
MLI,ML,3113.0,29982.0,29982.0,sitafoula,55305.0,-10.8989261,13.7888248,1,,,2004.0,,,66,1,,,66,0,,,66,0,,,2,9165,POINT (-1213262.903645519 1550000.040157744),7537.891965494183,195,195,635,True
MLI,ML,3111.0,29977.0,29977.0,sogoniko,55337.0,-7.9660975,12.6047292,1,,,2004.0,,,96,1,,,96,0,,,96,1,,,2,9143,POINT (-886781.9173095697 1414609.078321682),450.6488996358115,196,196,636,True
MLI,ML,3117.0,30018.0,30018.0,somonodougouni,55472.0,-6.4387002,13.3404,3,,,2004.0,,,73,0,,,73,0,,,73,0,,,2,9307,POINT (-716752.8276345487 1498649.096671472),8173.542532193817,197,197,637,True
MLI,ML,3116.0,30010.0,30010.0,sossobe,55482.0,-4.6732835,14.5610324,1,,,2004.0,,,70,0,,,70,0,,,70,0,,,2,9292,POINT (-520227.5395526073 1638662.058692063),12614.906230865543,198,198,638,True
MLI,ML,3119.0,30033.0,30033.0,soumpi,55456.0,-4.3244079,15.843328,1,,,2004.0,,,69,0,,,69,0,,,69,0,,,2,9343,POINT (-481390.8854104094 1786586.357500658),31847.146110907484,199,199,639,True
MLI,ML,3115.0,30001.0,30001.0,tafalam,55434.0,-7.3501,13.0583,3,,,2004.0,,,68,0,,,68,0,,,68,0,,,2,9249,POINT (-818209.38927964 1466393.693527886),32048.64706260182,200,200,640,True
MLI,ML,3112.0,29979.0,29979.0,tarkint,55319.0,-0.114,17.4785,3,,,2004.0,,,66,0,,,66,0,,,66,0,,,2,9152,POINT (-12690.42195043319 1976597.130951691),24857.394784613123,201,201,641,True
MLI,ML,3113.0,29983.0,29983.0,tassara,55341.0,-9.7616997,14.5086,3,,,2004.0,,,62,0,,,62,0,,,62,0,,,2,9174,POINT (-1086667.439880851 1632632.330860515),28651.542555995435,202,202,642,True
MLI,ML,3112.0,29978.0,29978.0,tassiga,55294.0,0.7093397,15.4745144,1,,,2004.0,,,67,0,,,67,0,,,67,0,,,2,9148,POINT (78963.33420345344 1743947.618214006),31619.922841428106,203,203,643,True
MLI,ML,3112.0,29978.0,29978.0,tessit,55295.0,0.291356,15.2236812,1,,,2004.0,,,70,0,,,70,0,,,70,0,,,2,9146,POINT (32433.60155956501 1714992.154478524),47931.04401338142,204,204,644,True
MLI,ML,3115.0,30000.0,30000.0,tiecourala,55426.0,-8.0143003,13.9355,3,,,2004.0,,,65,1,,,65,0,,,65,0,,,2,9242,POINT (-892147.8284603796 1566817.668605724),38411.687392651176,205,205,645,True
MLI,ML,3118.0,30021.0,30021.0,tieni,55373.0,-5.7399998,10.9337,3,,,2004.0,,,67,39,,,67,0,,,67,0,,,2,9309,POINT (-638973.854889492 1224589.02519169),6990.684305871573,206,206,646,True
MLI,ML,3119.0,30030.0,30030.0,tindirma,55347.0,-3.6357134,16.1316694,1,,,2004.0,,,70,0,,,70,0,,,70,1,,,2,9335,POINT (-404725.7643582814 1819975.860147891),37562.17013571993,207,207,647,True
MLI,ML,3113.0,29984.0,29984.0,tintiba,55396.0,-11.3348982,14.2787937,1,,,2004.0,,,71,0,,,71,0,,,71,0,,,2,9186,POINT (-1261795.095817593 1606221.364493377),21921.729883461256,208,208,648,True
MLI,ML,3118.0,30026.0,30026.0,tiorona,55477.0,-6.4211001,11.5889,3,,,2004.0,,,71,7,,,71,0,,,71,1,,,2,9325,POINT (-714793.593464638 1298957.822922077),19981.58278624438,209,209,649,True
MLI,ML,3113.0,29983.0,29983.0,torodo,55342.0,-8.8429745,14.5118271,1,,,2004.0,,,64,0,,,64,0,,,64,0,,,2,9176,POINT (-984395.4184379029 1633003.406181709),19207.622005484413,210,210,650,True
MLI,ML,3111.0,29976.0,29976.0,torokorobougou,55333.0,-8.0015262,12.6150623,1,,,2004.0,,,88,0,,,88,0,,,88,1,,,2,9140,POINT (-890725.8221530373 1415787.785259943),857.8886864924417,211,211,651,True
MLI,ML,3115.0,29995.0,29995.0,toubala,55345.0,-6.4246001,12.1245,3,,,2004.0,,,50,2,,,50,0,,,50,0,,,2,9223,POINT (-715183.2116824145 1359880.593767351),27755.136238293406,212,212,652,True
MLI,ML,3113.0,29986.0,29986.0,toukoto ii,55419.0,-9.8738907,13.4359554,1,,,2004.0,,,70,0,,,70,0,,,70,0,,,2,9198,POINT (-1099156.48487244 1509583.431542586),36983.04048625725,213,213,653,True
MLI,ML,3116.0,30005.0,30005.0,toun,55310.0,-3.9082822,13.5472349,1,,,2004.0,,,72,32,,,72,0,,,72,5,,,2,9268,POINT (-435067.9843804149 1522322.557952712),82965.90186087496,214,214,654,True
MLI,ML,3119.0,30034.0,30034.0,toya,55485.0,-3.0529001,16.6612,3,,,2004.0,,,67,0,,,67,0,,,67,0,,,2,9345,POINT (-339847.284574734 1881422.107153406),46161.478637132015,215,215,655,True
MLI,ML,3113.0,29987.0,29987.0,wassamangatere2,55461.0,-10.2951,14.7993,3,,,2004.0,,,69,0,,,69,0,,,69,0,,,2,9212,POINT (-1146045.289665831 1666080.984440121),48099.16280796471,216,216,656,True
MLI,ML,3118.0,30024.0,30024.0,yafola,55439.0,-5.1199013,12.4078148,1,,,2004.0,,,66,12,,,66,0,,,66,0,,,2,9321,POINT (-569944.8056278195 1392155.893485843),49757.38025222693,217,217,657,True
MLI,ML,3118.0,30028.0,30028.0,yanfolila,13367.0,-8.1529749,11.1780136,1,,,2016.0,,,188,0,,,188,0,,,188,0,,,1,9332,POINT (-907585.0143183406 1252300.213161411),44534.73259541428,218,218,658,True
MLI,ML,3113.0,29989.0,29989.0,yelimane,13368.0,-10.5718086,15.1199067,1,,,2016.0,,,122,0,,,122,0,,,122,1,,,1,9217,POINT (-1176848.35011595 1703022.843214868),36595.27920279311,219,219,659,True
MLI,ML,3116.0,30008.0,30008.0,zon,55431.0,-3.1244553,13.8533957,1,,,2004.0,,,70,5,,,70,0,,,70,0,,,2,9281,POINT (-347812.7730023448 1557402.364771704),47707.85307957792,220,220,660,True
