iso3,iso2,admin1_id,admin2_id,iu_id,location,site_id,longitude,latitude,georeliability,location_type,survey_type,year,age_start,age_end,hk_examined,hk_positive,hk_perc_highinfection,hk_perc_moderateinfection,asc_examined,asc_positive,asc_perc_highinfection,asc_perc_moderateinfection,tt_examined,tt_positive,tt_perc_highinfection,tt_perc_moderateinfection,quality,sn,geometry,shortest,id,src,dst
UGA,UG,5183.0,49766.0,49766.0,2 primary schools,,32.867001,3.295,3,,,1986.0,7.0,17.0,104,65,,,104,4,,,104,1,,,3,29159,POINT (3658737.815222013 367000.0707751503),836.2643884152325,0,0,0
UGA,UG,5151.0,49734.0,49734.0,abaka,,32.3659072,3.1615112,1,,,2009.0,5.0,18.0,62,0,,,62,0,,,62,0,,,1,29805,POINT (3602956.308566347 352116.5436927647),0.0,1,1,2
UGA,UG,5151.0,49734.0,49734.0,abaka,17301.0,32.3659072,3.1615112,1,,,2008.0,,,63,0,,,63,0,,,63,0,,,1,16577,POINT (3602956.308566347 352116.5436927647),0.0,2,2,1
UGA,UG,5131.0,49714.0,49714.0,abako,58383.0,33.22443,2.1428399,3,,,2007.0,,,182,15,,,182,2,,,182,1,,,1,16310,POINT (3698526.629496762 238595.4748171299),212.08970903847282,3,3,3
UGA,UG,5131.0,49714.0,49714.0,abako com,58384.0,33.2236838,2.1445917,1,,,2012.0,,,61,0,,,61,0,,,61,0,,,1,16318,POINT (3698443.562892733 238790.6208751866),212.08970903847282,4,4,4
UGA,UG,5126.0,49709.0,49709.0,abeko,17128.0,33.566667,2.0,3,,,2013.0,,,50,0,,,50,0,,,50,0,,,1,16187,POINT (3736624.27806738 222684.2085055445),1020.8823762276766,5,5,5
UGA,UG,5171.0,49754.0,49754.0,abele,17551.0,30.9670689,3.3987398,1,,,2010.0,,,62,5,,,62,0,,,62,0,,,1,17038,POINT (3447238.341308219 378568.0645226033),0.0,6,6,7
UGA,UG,5171.0,49754.0,49754.0,abele,58798.0,30.9670689,3.3987398,1,,,2010.0,,,64,5,,,64,0,,,64,0,,,1,17058,POINT (3447238.341308219 378568.0645226033),0.0,7,7,6
UGA,UG,5219.0,49802.0,49802.0,aber,59261.0,32.6863681,2.3160602,1,,,2012.0,,,63,2,,,63,1,,,63,0,,,1,17843,POINT (3638629.852773501 257892.884889516),5166.905107114131,8,8,8
UGA,UG,5126.0,49709.0,49709.0,abia,17129.0,33.61003,1.97602,3,,,2013.0,,,50,0,,,50,0,,,50,0,,,1,16191,POINT (3741451.425146649 220013.1594147234),3196.960671323616,9,9,9
UGA,UG,5184.0,49767.0,49767.0,abilonono com,17577.0,32.640499,2.2269101,3,,,2012.0,,,67,6,,,67,5,,,67,1,,,1,17240,POINT (3633523.727918355 247960.9360615271),0.0,10,10,11
UGA,UG,5184.0,49767.0,49767.0,abilonono com,58918.0,32.640499,2.2269101,3,,,2012.0,,,67,5,,,67,5,,,67,1,,,1,17243,POINT (3633523.727918355 247960.9360615271),0.0,11,11,10
UGA,UG,5220.0,49803.0,49803.0,abilonyero com,17840.0,33.23411,2.40515,3,,,2012.0,,,57,1,,,57,0,,,57,0,,,1,17855,POINT (3699604.202167641 267818.7402787351),3810.8798510086663,12,12,12
UGA,UG,5167.0,49742.0,49742.0,abirabila p/s,17395.0,33.22383,1.69766,4,,,2011.0,,,50,0,,,50,0,,,50,0,,,1,16780,POINT (3698459.837802286 189010.3048295638),0.0,13,13,14
UGA,UG,5167.0,49742.0,49742.0,abirabira,17396.0,33.22383,1.69766,4,,,2005.0,,,16,10,,,16,0,,,16,0,,,2,16778,POINT (3698459.837802286 189010.3048295638),0.0,14,14,13
UGA,UG,5131.0,49714.0,49714.0,abirabira,,33.3731,2.1628,3,,,2005.0,5.0,16.0,75,16,,,75,0,,,75,1,,,2,30868,POINT (3715076.498192999 240818.9923820511),1866.2417661556876,15,15,15
UGA,UG,5140.0,49723.0,49723.0,abkiel,,34.023701,0.41391,3,,,2009.0,5.0,18.0,57,11,,,57,0,,,57,0,,,1,29834,POINT (3787501.070222593 46076.65120693362),8500.312869501064,16,16,16
UGA,UG,5231.0,49814.0,49814.0,abkiel,17946.0,34.18085,0.6782273999999999,1,,,2008.0,,,65,15,,,65,0,,,65,0,,,1,18050,POINT (3804994.816881265 75501.69206820706),0.0,17,17,428
UGA,UG,5130.0,49713.0,49713.0,abone,,33.146301,2.7914,3,,,2009.0,5.0,18.0,60,0,,,60,0,,,60,0,,,1,29828,POINT (3689829.349000575 310860.224791561),3.2282652324065566,18,18,18
UGA,UG,5222.0,49805.0,49805.0,abone p/s,17848.0,33.14633,2.7914,3,,,2008.0,,,62,0,,,62,0,,,62,0,,,1,17896,POINT (3689832.577265807 310860.224791561),3.2282652324065566,19,19,19
UGA,UG,5126.0,49709.0,49709.0,abuket kuju,17130.0,33.6007892,2.0373372,1,,,2013.0,,,60,2,,,60,0,,,60,0,,,1,16193,POINT (3740422.743996126 226843.1476972761),0.0,20,20,23
UGA,UG,5128.0,49711.0,49711.0,abwal a com,17169.0,32.557739,2.08301,3,,,2012.0,,,58,6,,,58,0,,,58,0,,,1,16258,POINT (3624310.926860304 231930.7091516917),0.0,21,21,22
UGA,UG,5128.0,49711.0,49711.0,abwal a com,58335.0,32.557739,2.08301,3,,,2012.0,,,58,4,,,58,0,,,58,0,,,1,16245,POINT (3624310.926860304 231930.7091516917),0.0,22,22,21
UGA,UG,5126.0,49709.0,49709.0,abwanget kuju,17131.0,33.6007892,2.0373372,2,,,2013.0,,,50,0,,,50,0,,,50,0,,,1,16190,POINT (3740422.743996126 226843.1476972761),0.0,23,23,20
UGA,UG,5128.0,49711.0,49711.0,acandyang com,17170.0,32.60387,2.0090301,3,,,2012.0,,,61,0,,,61,0,,,61,0,,,1,16247,POINT (3629446.206290088 223690.0501413002),3669.1931518619585,24,24,24
UGA,UG,5131.0,49714.0,49714.0,acede,58386.0,33.202419,2.1859,3,,,2007.0,,,180,5,,,180,1,,,180,0,,,1,16315,POINT (3696076.376184911 243392.3254324849),165.1195174571441,25,25,25
UGA,UG,5151.0,49734.0,49734.0,acet,,32.660301,2.6870000000000003,3,,,1998.0,8.0,13.0,59,32,,,59,4,,,59,0,,,3,30851,POINT (3635728.076475043 299225.1742732428),7295.696312903698,26,26,26
UGA,UG,5233.0,49816.0,49816.0,achilake p/s,59409.0,31.24619,3.56665,3,,,2008.0,,,226,38,,,226,0,,,226,0,,,1,18116,POINT (3478309.960029877 397294.3330568497),3667.19205114545,27,27,27
UGA,UG,5222.0,49805.0,49805.0,acholi bur,,32.9127726,3.1418571,1,,,2009.0,5.0,18.0,63,0,,,63,0,,,63,0,,,1,29705,POINT (3663833.086426806 349925.3450501805),0.0,28,28,29
UGA,UG,5222.0,49805.0,49805.0,acholi bur p/s,17849.0,32.9127726,3.1418571,1,,,2008.0,,,65,0,,,65,0,,,65,0,,,1,17902,POINT (3663833.086426806 349925.3450501805),0.0,29,29,28
UGA,UG,5219.0,49802.0,49802.0,acimi ikongo com,59262.0,32.25848,2.3884699,3,,,2007.0,,,183,84,,,183,2,,,183,0,,,1,17844,POINT (3590997.567365 265960.2941909021),13160.133393992577,30,30,30
UGA,UG,5227.0,49810.0,49810.0,acomia,17939.0,33.47148,1.398591,3,,,2005.0,,,34,13,,,34,0,,,34,0,,,2,17994,POINT (3726028.10969724 155705.9015828139),9696.687763270866,31,31,31
UGA,UG,5215.0,49798.0,49798.0,acomia,,33.785702,1.66425,3,,,2005.0,5.0,16.0,65,21,,,65,0,,,65,0,,,2,30953,POINT (3761007.142733284 185289.5194085248),5450.930433981866,32,32,32
UGA,UG,5126.0,49709.0,49709.0,acowa,,33.801498,2.07183,3,,,1998.0,7.0,14.0,41,29,,,41,0,,,41,0,,,3,30948,POINT (3762765.545409855 230685.3387320119),16464.109835347695,33,33,33
UGA,UG,5221.0,49804.0,49804.0,adal p/s,59276.0,33.675499,1.25299,3,,,2011.0,,,50,0,,,50,0,,,50,0,,,1,17879,POINT (3748739.400889394 139493.3278640311),4770.0195897100575,34,34,34
UGA,UG,5201.0,49784.0,49784.0,adhu com,59089.0,30.91989,3.27386,3,,,2010.0,,,64,6,,,64,6,,,64,0,,,1,17533,POINT (3441986.410184032 364642.9048990582),3388.08792579958,35,35,35
UGA,UG,5168.0,49751.0,49751.0,adodoi,,33.8522,1.7178300000000002,3,,,1998.0,7.0,14.0,40,28,,,40,0,,,40,0,,,3,30860,POINT (3768409.666232056 191256.6166904899),7946.742844419532,36,36,36
UGA,UG,5171.0,49754.0,49754.0,adrumaga,58799.0,31.0622957,3.3859933,1,,,2010.0,,,59,3,,,59,0,,,59,0,,,1,17050,POINT (3457838.940194091 377146.6398968612),2484.3740562203243,37,37,37
UGA,UG,5131.0,49714.0,49714.0,adyanglim,17121.0,33.2140971,2.0974511,1,,,2012.0,,,61,0,,,61,0,,,61,0,,,1,16326,POINT (3697376.376330344 233539.3554036942),2747.276672494182,38,38,38
UGA,UG,5126.0,49709.0,49709.0,aeket camp,,33.682999,2.32558,3,,,1998.0,7.0,14.0,42,30,,,42,0,,,42,0,,,3,30901,POINT (3749574.297070344 258953.4941480915),14882.621604688093,39,39,39
UGA,UG,5176.0,49759.0,49759.0,african child,,32.634899,0.255,3,,,2006.0,9.0,15.0,60,8,,,60,1,,,60,6,,,1,31122,POINT (3632900.338769913 28386.56386475468),1591.517746105856,40,40,40
UGA,UG,5129.0,49712.0,49712.0,agomvususu p/s,58348.0,31.40896,2.9975801,3,,,2011.0,,,50,0,,,50,0,,,50,0,,,1,16282,POINT (3496429.433546298 333841.4199792913),1001.4248429209259,41,41,41
UGA,UG,5222.0,49805.0,49805.0,agora,,32.965099,2.83623,3,,,1998.0,8.0,15.0,58,30,,,58,0,,,58,0,,,3,30909,POINT (3669658.034629852 315856.7017952351),10838.258105099161,42,42,42
UGA,UG,5215.0,49798.0,49798.0,agu,,33.7,1.466667,1,,,2009.0,5.0,18.0,60,2,,,60,0,,,60,0,,,1,29671,POINT (3751466.83973332 163286.4572603038),8532.034262733292,43,43,43
UGA,UG,5229.0,49812.0,49812.0,aguara port com,17919.0,33.45528,1.4970088,1,,,2011.0,,,50,0,,,50,0,,,50,0,,,1,18021,POINT (3724224.73394639 166665.2209769374),10437.137627393759,44,44,44
UGA,UG,5173.0,49756.0,49756.0,agule,,33.9148,1.60301,3,,,2009.0,5.0,18.0,58,0,,,58,0,,,58,0,,,1,29763,POINT (3775378.266355714 178469.5415154443),11306.691830607651,45,45,45
UGA,UG,5229.0,49812.0,49812.0,agule odapakol p/s,59352.0,33.7084594,1.2803643,1,,,2011.0,,,51,0,,,51,0,,,51,0,,,1,18028,POINT (3752408.535833736 142541.365863536),3398.253506955262,46,46,46
UGA,UG,5229.0,49812.0,49812.0,agwala landing site,17921.0,33.092,1.49599,3,,,2011.0,,,50,0,,,50,0,,,50,0,,,1,18025,POINT (3683784.589331008 166551.7699841283),813.8910420087717,47,47,47
UGA,UG,5126.0,49709.0,49709.0,agwara,17132.0,33.65111,1.9914692,1,,,2013.0,,,60,0,,,60,0,,,60,0,,,1,16182,POINT (3746024.429828437 221733.9878099714),1840.0918172979448,48,48,48
UGA,UG,5161.0,49743.0,49743.0,agwara port,,33.099221,1.4971352,1,,,2005.0,5.0,16.0,63,7,,,63,0,,,63,0,,,2,30974,POINT (3684588.427374027 166679.2965651143),813.8910420087717,49,49,49
UGA,UG,5227.0,49810.0,49810.0,agwara port,17940.0,33.1654,1.828617,3,,,2005.0,,,32,7,,,32,0,,,32,0,,,2,17995,POINT (3691955.439955235 203595.2796493037),5449.637128560477,50,50,50
UGA,UG,5127.0,49710.0,49710.0,agwayugi,17145.0,32.1569535,2.8949418,1,,,2013.0,,,60,0,,,60,0,,,60,1,,,1,16221,POINT (3579695.689082976 322400.6525463128),6694.94176047703,51,51,51
UGA,UG,5188.0,49771.0,49771.0,agweng,58937.0,32.9393893,2.4937606,1,,,2012.0,,,56,0,,,56,0,,,56,0,,,1,17275,POINT (3666796.043917404 277691.8490712497),12790.562516056953,52,52,52
UGA,UG,5129.0,49712.0,49712.0,ajagoro p/s,58349.0,31.2007883,3.04872,1,,,2011.0,,,50,0,,,50,0,,,50,0,,,1,16287,POINT (3473255.865904727 339542.2215611601),6747.285601462645,53,53,53
UGA,UG,5126.0,49709.0,49709.0,ajota,17133.0,33.786563,1.822673,3,,,2013.0,,,50,0,,,50,0,,,50,0,,,1,16186,POINT (3761102.988814857 202933.2605555776),84.26488699542028,54,54,54
UGA,UG,5124.0,49707.0,49707.0,ajugopi p/s,17111.0,31.9121,3.4318,3,,,2011.0,,,50,0,,,50,0,,,50,0,,,1,16145,POINT (3552438.722144026 382254.8569959042),3419.6316626224716,55,55,55
UGA,UG,5167.0,49742.0,49742.0,akampala com,17397.0,32.99142,1.53836,4,,,2011.0,,,51,1,,,51,0,,,51,0,,,1,16793,POINT (3672588.074947021 171270.0309820698),5145.036800875914,56,56,56
UGA,UG,5173.0,49756.0,49756.0,akarukei ajesa,17582.0,33.7616944,1.5121289999999998,1,,,2008.0,,,59,0,,,59,0,,,59,0,,,1,17072,POINT (3758334.628926116 168348.9744468194),6417.234658825284,57,57,57
UGA,UG,5215.0,49798.0,49798.0,akarukei ajesa,,33.771198,1.6175000000000002,3,,,2009.0,5.0,18.0,58,0,,,58,0,,,58,0,,,1,29747,POINT (3759392.564838818 180083.1981719114),5450.930433981866,58,58,58
UGA,UG,5129.0,49712.0,49712.0,akavu p/s,17180.0,31.3281983,2.8278283,1,,,2011.0,,,51,0,,,51,0,,,51,0,,,1,16284,POINT (3487439.082226699 314920.285158205),1347.2933877861637,59,59,59
UGA,UG,5188.0,49771.0,49771.0,akia,17604.0,32.9276693,2.2477273,1,,,2012.0,,,51,1,,,51,0,,,51,0,,,1,17276,POINT (3665491.379485307 250280.0640466326),5277.098657150332,60,60,60
UGA,UG,5233.0,49816.0,49816.0,akia p/s,59410.0,31.1474367,3.5292867,1,,,2011.0,,,50,0,,,50,0,,,50,0,,,1,18133,POINT (3467316.792959721 393127.0822427947),590.5048417100177,61,61,61
UGA,UG,5221.0,49804.0,49804.0,akwamor p/s,59277.0,33.69445,1.30748,3,,,2011.0,,,50,0,,,50,0,,,50,0,,,1,17877,POINT (3750849.016559417 145560.6416923667),3202.9743126296307,62,62,62
UGA,UG,5183.0,49766.0,49766.0,akworo,,32.9151,3.24012,3,,,1998.0,7.0,14.0,60,26,,,60,1,,,60,0,,,3,30846,POINT (3664092.171409679 360880.9086481848),2526.108538986451,63,63,63
UGA,UG,5219.0,49802.0,49802.0,aleka,17846.0,32.7567121,2.5599936,1,,,2012.0,,,67,2,,,67,0,,,67,0,,,1,17840,POINT (3646460.511033863 285072.0494543743),3691.559412215491,64,64,64
UGA,UG,5128.0,49711.0,49711.0,alenga,17171.0,32.3539222,1.85043,1,,,2012.0,,,61,1,,,61,0,,,61,0,,,1,16239,POINT (3601622.144469189 206024.7437289764),6106.218543767804,65,65,65
UGA,UG,5124.0,49707.0,49707.0,alere1,,31.7444,3.44807,3,,,1998.0,9.0,15.0,59,16,,,59,0,,,59,0,,,3,31015,POINT (3533770.443537993 384069.2942813007),7147.295152446461,66,66,66
UGA,UG,5123.0,49706.0,49706.0,alerek,,33.7266253,2.7967891,1,,,1998.0,5.0,17.0,64,24,,,64,0,,,64,0,,,3,30941,POINT (3754430.754571537 311460.850703546),15157.806855608518,67,67,67
UGA,UG,5182.0,49765.0,49765.0,alero p/s,17523.0,32.30809,2.16295,3,,,2011.0,,,49,0,,,49,0,,,49,0,,,1,17179,POINT (3596520.127303254 240835.7022100833),5032.509573091585,68,68,68
UGA,UG,5199.0,49782.0,49782.0,aliba,59037.0,31.546771,3.273504,1,,,2002.0,,,58,40,,,58,0,,,58,0,,,2,17450,POINT (3511770.48389201 364603.2103849433),0.0,69,69,70
UGA,UG,5199.0,49782.0,49782.0,aliba,59038.0,31.546771,3.273504,1,,,2003.0,,,120,80,,,120,0,,,120,0,,,2,17463,POINT (3511770.48389201 364603.2103849433),0.0,70,70,69
UGA,UG,5124.0,49707.0,49707.0,aliwara,,31.821501,3.15787,3,,,1998.0,10.0,14.0,57,34,,,57,0,,,57,0,,,3,31010,POINT (3542353.287597646 351710.5900277087),9029.9145831893,71,71,71
UGA,UG,5131.0,49714.0,49714.0,aloi dem,,33.1773203,2.2735715,1,,,2002.0,5.0,16.0,60,21,,,60,8,,,60,0,,,2,30978,POINT (3693282.401681338 253159.2680765765),4105.613608671216,72,72,72
UGA,UG,5229.0,49812.0,49812.0,alos p/s,17922.0,33.55788,1.38752,3,,,2011.0,,,50,0,,,50,0,,,50,0,,,1,18024,POINT (3735646.113701779 154473.119141736),9696.687763270866,73,73,73
UGA,UG,5218.0,49801.0,49801.0,alukolum gok,,31.9534,2.5931800000000003,3,,,1998.0,9.0,13.0,59,26,,,59,6,,,59,0,,,3,31035,POINT (3557036.217113788 288770.0812791313),11801.877561675461,74,74,74
UGA,UG,5129.0,49712.0,49712.0,alukperenga p/s,58351.0,31.45231,3.10732,3,,,2011.0,,,50,0,,,50,0,,,50,0,,,1,16279,POINT (3501255.133472187 346074.9685223998),2182.5283407519296,75,75,75
UGA,UG,5210.0,49793.0,49793.0,alwi,,31.3671,2.46022,3,,,1998.0,9.0,15.0,62,26,,,62,0,,,62,6,,,3,31040,POINT (3491769.599661692 273954.634669759),10248.89633983468,76,76,76
UGA,UG,5219.0,49802.0,49802.0,amaji p/s,59264.0,32.326328,2.22928,3,,,2007.0,,,236,71,,,236,3,,,236,0,,,1,17845,POINT (3598550.372176341 248224.9517258086),4362.131934175206,77,77,77
UGA,UG,5126.0,49709.0,49709.0,amilimil,17134.0,33.6004285,2.099169,1,,,2013.0,,,45,0,,,45,0,,,45,0,,,1,16196,POINT (3740382.591055796 233730.7194714887),6642.520792920122,78,78,78
UGA,UG,5126.0,49709.0,49709.0,amolo,17135.0,33.8214771,1.8627582,3,,,2013.0,,,50,0,,,50,0,,,50,0,,,1,16192,POINT (3764989.608648363 207397.8334860265),5903.726368317039,79,79,79
UGA,UG,5132.0,49715.0,49715.0,amudat and namalu,,34.925999,1.949,3,,,1981.0,1.0,99.0,138,54,,,138,0,,,138,0,,,3,30787,POINT (3887944.424126382 217003.5414500835),67370.50505656742,80,80,80
UGA,UG,5126.0,49709.0,49709.0,amukurat,17136.0,33.8303128,1.8063484,1,,,2013.0,,,50,0,,,50,0,,,50,0,,,1,16200,POINT (3765973.194273165 201115.1027170181),2435.4741731550525,81,81,81
UGA,UG,5124.0,49707.0,49707.0,amuru,,32.0837445,2.9667878,1,,,1998.0,9.0,17.0,61,38,,,61,0,,,61,0,,,3,31008,POINT (3571546.100481492 330408.9884463268),11425.814555684794,82,82,82
UGA,UG,5221.0,49804.0,49804.0,amusiat,59278.0,33.7712733,1.1584886,1,,,2009.0,,,82,23,,,82,0,,,82,0,,,1,17883,POINT (3759400.947196476 128971.1491294694),5237.984688381217,83,83,83
UGA,UG,5151.0,49734.0,49734.0,angaya,,32.3265,2.81513,3,,,1998.0,9.0,14.0,30,12,,,30,2,,,30,0,,,3,30989,POINT (3598569.519128758 313505.0011934062),1312.6416207656196,84,84,84
UGA,UG,5188.0,49771.0,49771.0,anget,58939.0,32.784351,2.5783,3,,,2012.0,,,62,2,,,62,0,,,62,0,,,1,17274,POINT (3649537.259307949 287111.9589993849),3691.559412215491,85,85,85
UGA,UG,5126.0,49709.0,49709.0,angole,,33.786098,1.82327,3,,,1998.0,5.0,14.0,42,32,,,42,0,,,42,0,,,3,31019,POINT (3761051.225251639 202999.7519437664),84.26488699542028,86,86,86
UGA,UG,5219.0,49802.0,49802.0,angom,,32.631699,2.47488,3,,,1998.0,7.0,14.0,62,37,,,62,8,,,62,0,,,3,30877,POINT (3632544.116399374 275588.093008018),13562.81904910723,87,87,87
UGA,UG,5126.0,49709.0,49709.0,angorom,17137.0,33.566667,2.05,3,,,2013.0,,,50,0,,,50,0,,,50,0,,,1,16188,POINT (3736624.27806738 228253.6613226758),4051.899813579047,88,88,88
UGA,UG,5171.0,49754.0,49754.0,anyangaku,17553.0,30.95994,3.4167992,1,,,2013.0,,,64,4,,,64,0,,,64,0,,,1,17034,POINT (3446444.755790302 380581.9888110649),0.0,89,89,1028
UGA,UG,5128.0,49711.0,49711.0,apac,,32.5344456,1.9850906,1,,,1998.0,7.0,13.0,63,22,,,63,1,,,63,0,,,3,31012,POINT (3621717.91743346 221023.4975513838),689.661738342249,90,90,90
UGA,UG,5128.0,49711.0,49711.0,apac model,,32.5406,1.98438,3,,,1998.0,7.0,12.0,59,2,,,59,0,,,59,0,,,3,30939,POINT (3622403.022107598 220944.3464376371),689.661738342249,91,91,91
UGA,UG,5219.0,49802.0,49802.0,apala  p/s,59266.0,32.421051,2.09462,3,,,2007.0,,,233,77,,,233,21,,,233,0,,,1,17849,POINT (3609094.888302753 233223.9877892777),8888.516945570967,92,92,92
UGA,UG,5221.0,49804.0,49804.0,apapa p/s,59279.0,33.616667,1.2,1,,,2011.0,,,50,0,,,50,0,,,50,0,,,1,17869,POINT (3742190.252607044 133593.1560615757),4412.988446210658,93,93,93
UGA,UG,5128.0,49711.0,49711.0,apoi,58340.0,32.46307,1.728536,1,,,2012.0,,,62,1,,,62,0,,,62,0,,,1,16244,POINT (3613772.421986396 192448.9423604316),6499.52237195591,94,94,94
UGA,UG,5168.0,49751.0,49751.0,apuuton,,33.9548,1.91733,3,,,1998.0,7.0,14.0,40,26,,,40,0,,,40,0,,,3,31004,POINT (3779831.045987445 213476.045482096),16037.859064072656,95,95,95
UGA,UG,5124.0,49707.0,49707.0,araa west,17105.0,31.80222,3.52254,3,,,2013.0,,,60,0,,,60,0,,,60,0,,,1,16141,POINT (3540206.93649566 392374.6186848056),564.1084060435078,96,96,96
UGA,UG,5129.0,49712.0,49712.0,arua,,30.907304,3.0303299,1,,,2003.0,6.0,14.0,119,39,,,119,23,,,119,19,,,2,31091,POINT (3440585.343072908 337492.160946457),11190.163786088053,97,97,97
UGA,UG,5129.0,49712.0,49712.0,arua public,,31.1710389,2.9959846,1,,,2002.0,5.0,16.0,67,22,,,67,1,,,67,0,,,2,30869,POINT (3469944.177845323 333663.5665121799),6747.285601462645,98,98,98
UGA,UG,5130.0,49713.0,49713.0,arum,,33.051102,2.72947,3,,,1998.0,8.0,14.0,59,39,,,59,0,,,59,0,,,3,30963,POINT (3679231.844796545 303958.199499585),11275.922204941486,99,99,99
UGA,UG,5151.0,49734.0,49734.0,aswa camp,,32.6,2.966667,1,,,2009.0,5.0,18.0,59,0,,,59,0,,,59,0,,,1,29778,POINT (3629015.399860718 330395.5230048983),0.0,100,100,101
UGA,UG,5151.0,49734.0,49734.0,aswa camp,17302.0,32.6,2.966667,1,,,2008.0,,,65,0,,,65,0,,,65,0,,,1,16578,POINT (3629015.399860718 330395.5230048983),0.0,101,101,100
UGA,UG,5184.0,49767.0,49767.0,atan,,32.8377,2.44032,3,,,1998.0,7.0,12.0,61,20,,,61,2,,,61,0,,,3,30920,POINT (3655476.04282228 271737.3495386659),12790.562516056953,102,102,102
UGA,UG,5219.0,49802.0,49802.0,atapara,,32.386501,2.23432,3,,,1998.0,8.0,12.0,56,23,,,56,8,,,56,1,,,3,31043,POINT (3605248.799895845 248786.4278635463),6721.918577807223,103,103,103
UGA,UG,5128.0,49711.0,49711.0,atar,,32.5941397,2.0405024,1,,,1998.0,8.0,11.0,60,44,,,60,0,,,60,0,,,3,31034,POINT (3628363.034248822 227195.7193662401),0.0,104,104,105
UGA,UG,5128.0,49711.0,49711.0,atar,58342.0,32.5941397,2.0405024,1,,,2012.0,,,62,1,,,62,0,,,62,0,,,1,16249,POINT (3628363.034248822 227195.7193662401),0.0,105,105,104
UGA,UG,5145.0,49728.0,49728.0,atari,,34.440601,1.49697,3,,,2009.0,5.0,18.0,56,1,,,56,0,,,56,1,,,1,29692,POINT (3833910.165934308 166660.9003060449),177.0491990024463,106,106,106
UGA,UG,5226.0,49809.0,49809.0,atari,17930.0,34.4391306,1.497576,3,,,2008.0,,,58,2,,,58,0,,,58,1,,,1,17979,POINT (3833746.481755046 166728.382958086),177.0491990024463,107,107,107
UGA,UG,5128.0,49711.0,49711.0,atigolwok,,32.5575618,2.0839956,1,,,1998.0,7.0,14.0,59,16,,,59,0,,,59,0,,,3,31014,POINT (3624291.201046536 232040.4982230237),0.0,108,108,109
UGA,UG,5128.0,49711.0,49711.0,atigolwok,17174.0,32.5575618,2.0839956,1,,,2012.0,,,60,4,,,60,0,,,60,0,,,1,16246,POINT (3624291.201046536 232040.4982230237),0.0,109,109,108
UGA,UG,5128.0,49711.0,49711.0,atoma com,17175.0,32.75776,1.81005,3,,,2012.0,,,61,0,,,61,0,,,61,0,,,1,16243,POINT (3646577.162728264 201527.3682296958),28011.67860021337,110,110,110
UGA,UG,5219.0,49802.0,49802.0,atur com,59268.0,32.347698,2.1261401,3,,,2007.0,,,176,52,,,176,6,,,176,0,,,1,17851,POINT (3600929.269694594 236735.1708146681),6021.203729479747,111,111,111
UGA,UG,5151.0,49734.0,49734.0,atyang,,32.3702778,2.6297222,1,,,2009.0,5.0,18.0,58,1,,,58,0,,,58,0,,,1,29706,POINT (3603442.841532808 292842.1693750177),0.0,112,112,113
UGA,UG,5151.0,49734.0,49734.0,atyang,17303.0,32.3702778,2.6297222,1,,,2008.0,,,64,1,,,64,0,,,64,0,,,1,16576,POINT (3603442.841532808 292842.1693750177),0.0,113,113,112
UGA,UG,5131.0,49714.0,49714.0,awali,,33.072701,2.41938,3,,,2002.0,5.0,16.0,124,40,,,124,12,,,124,0,,,2,30891,POINT (3681636.23447819 269404.2216220251),0.0,114,114,115
UGA,UG,5131.0,49714.0,49714.0,awali,17122.0,33.072701,2.41938,3,,,2012.0,,,64,0,,,64,0,,,64,0,,,1,16322,POINT (3681636.23447819 269404.2216220251),0.0,115,115,114
UGA,UG,5151.0,49734.0,49734.0,awere,,32.7929329,2.6902654,1,,,2009.0,5.0,60.0,58,6,,,58,0,,,58,0,,,1,29803,POINT (3650492.592045988 299589.0775228346),0.0,116,116,117
UGA,UG,5151.0,49734.0,49734.0,awere,,32.7929329,2.6902654,1,,,2009.0,5.0,18.0,65,0,,,65,0,,,65,0,,,1,29835,POINT (3650492.592045988 299589.0775228346),0.0,117,117,116
UGA,UG,5151.0,49734.0,49734.0,awere,17304.0,32.7929329,2.6902654,1,,,2008.0,,,94,0,,,94,0,,,94,0,,,1,16557,POINT (3650492.592045988 299589.0775228346),0.0,118,118,116
UGA,UG,5151.0,49734.0,49734.0,awere com,17305.0,32.7929329,2.6902654,1,,,2008.0,,,76,8,,,76,0,,,76,0,,,1,16567,POINT (3650492.592045988 299589.0775228346),0.0,119,119,116
UGA,UG,5233.0,49816.0,49816.0,awoba p/s,17972.0,31.13611,3.5257199,3,,,2011.0,,,50,0,,,50,0,,,50,0,,,1,18123,POINT (3466055.910483353 392729.2741873596),1322.1482020492729,120,120,120
UGA,UG,5229.0,49812.0,49812.0,awoja kanyangan p/s,17923.0,33.7287212,1.6664287,1,,,2011.0,,,50,0,,,50,0,,,50,0,,,1,18036,POINT (3754664.069092291 185532.153666118),6347.712548471008,121,121,121
UGA,UG,5151.0,49734.0,49734.0,awoo,,32.4142516,2.5319739,1,,,2009.0,5.0,18.0,59,1,,,59,0,,,59,0,,,1,29812,POINT (3608337.982557053 281949.8287189128),0.0,122,122,123
UGA,UG,5151.0,49734.0,49734.0,awoo,17306.0,32.4142516,2.5319739,1,,,2008.0,,,65,1,,,65,0,,,65,0,,,1,16569,POINT (3608337.982557053 281949.8287189128),0.0,123,123,122
UGA,UG,5129.0,49712.0,49712.0,awuvu p/s,17182.0,31.390405,2.948213,1,,,2011.0,,,50,0,,,50,0,,,50,0,,,1,16283,POINT (3494363.900394628 328338.4934272306),818.0877112104887,124,124,124
UGA,UG,5210.0,49793.0,49793.0,ayara,,31.507601,2.47508,3,,,1998.0,9.0,16.0,77,40,,,77,0,,,77,3,,,3,31013,POINT (3507410.099437638 275610.3776939096),18.089922968073047,125,125,125
UGA,UG,5210.0,49793.0,49793.0,ayara p/s,17796.0,31.50745,2.47514,3,,,2011.0,,,50,0,,,50,0,,,50,0,,,1,17701,POINT (3507393.290194527 275617.0631003328),18.089922968073047,126,126,126
UGA,UG,5129.0,49712.0,49712.0,ayavu p/s,17183.0,30.962665,2.87513,1,,,2011.0,,,50,0,,,50,0,,,50,2,,,1,16263,POINT (3446748.101402713 320192.4141863229),0.0,127,127,128
UGA,UG,5129.0,49712.0,49712.0,ayavu p/s,58355.0,30.962665,2.87513,1,,,2011.0,,,50,0,,,50,0,,,50,1,,,1,16268,POINT (3446748.101402713 320192.4141863229),0.0,128,128,127
UGA,UG,5184.0,49767.0,49767.0,ayer,17578.0,32.695833,2.260278,1,,,2012.0,,,62,1,,,62,2,,,62,0,,,1,17238,POINT (3639683.48062191 251678.2833972415),6303.285123705254,129,129,129
UGA,UG,5183.0,49766.0,49766.0,ayoma,,32.9577948,3.3683219,1,,,2009.0,5.0,18.0,61,0,,,61,0,,,61,0,,,1,29726,POINT (3668844.9348052 375176.0464922513),0.0,130,130,131
UGA,UG,5183.0,49766.0,49766.0,ayoma,17533.0,32.9577948,3.3683219,1,,,2008.0,,,62,0,,,62,0,,,62,0,,,1,17210,POINT (3668844.9348052 375176.0464922513),0.0,131,131,130
UGA,UG,5164.0,49747.0,49747.0,bakitimbo p/s,17438.0,33.211842,0.6992200000000001,3,,,2011.0,,,51,0,,,51,0,,,51,1,,,1,16928,POINT (3697125.339746656 77838.74646489327),0.0,132,132,133
UGA,UG,5164.0,49747.0,49747.0,bakitimbo p/s,58731.0,33.211842,0.6992200000000001,3,,,2011.0,,,51,0,,,51,0,,,51,0,,,1,16922,POINT (3697125.339746656 77838.74646489327),0.0,133,133,132
UGA,UG,5232.0,49815.0,49815.0,balabala,59372.0,32.27476,0.0304,3,,,2009.0,,,4,0,,,4,0,,,4,0,,,1,18075,POINT (3592809.848675114 3384.112678895427),2585.083705566108,134,134,134
UGA,UG,5125.0,49708.0,49708.0,balirwa com,58308.0,32.915119,1.60934,3,,,2007.0,,,179,15,,,179,1,,,179,1,,,1,16176,POINT (3664094.286480004 179174.4708592602),653.0088147765558,135,135,135
UGA,UG,5171.0,49754.0,49754.0,bamure,17554.0,31.078475,3.4871057,1,,,2013.0,,,61,10,,,61,0,,,61,0,,,1,17048,POINT (3459640.011631483 388422.6989400602),4377.281839165602,136,136,136
UGA,UG,5162.0,49745.0,49745.0,banga,58682.0,32.4594622,0.0797678,1,,,2009.0,,,7,0,,,7,0,,,7,1,,,1,16840,POINT (3613370.803527511 8879.713746218664),1141.5599840808648,137,137,137
UGA,UG,5220.0,49803.0,49803.0,baraliro com,17841.0,33.17848,2.47074,3,,,2012.0,,,62,0,,,62,0,,,62,0,,,1,17858,POINT (3693411.498894811 275126.8007647963),8935.674680377573,138,138,138
UGA,UG,5220.0,49803.0,49803.0,barocok,17842.0,33.1053497,2.5038044,1,,,2012.0,,,59,0,,,59,0,,,59,0,,,1,17853,POINT (3685270.671137252 278810.9839056423),8935.674680377573,139,139,139
UGA,UG,5176.0,49759.0,49759.0,bat valley,,32.5736475,0.3225393,1,,,2006.0,10.0,14.0,55,0,,,55,0,,,55,1,,,1,31114,POINT (3626081.852979588 35905.10027511806),1477.276963749379,140,140,140
UGA,UG,5200.0,49783.0,49783.0,batwala  kazi,59065.0,32.75415,-0.00426,3,,,2009.0,,,6,0,,,6,1,,,6,1,,,1,17500,POINT (3646175.299366502 -474.2210312169005),1483.0685426615337,141,141,141
UGA,UG,5200.0,49783.0,49783.0,batwale kikenye,59066.0,32.75473,-0.01757,3,,,2009.0,,,6,0,,,6,1,,,6,0,,,1,17469,POINT (3646239.864671162 -1955.883483891691),1483.0685426615337,142,142,142
UGA,UG,5176.0,49759.0,49759.0,bbiina islamic,,32.6516,0.30787,3,,,2006.0,10.0,14.0,51,2,,,51,0,,,51,2,,,1,31119,POINT (3634759.485585651 34272.09655303865),1375.9533972770953,143,143,143
UGA,UG,5200.0,49783.0,49783.0,bethany nur &p/s,59067.0,32.66137,0.2228,3,,,2011.0,,,50,0,,,50,1,,,50,4,,,1,17474,POINT (3635847.077010702 24802.04505476886),0.0,144,144,145
UGA,UG,5200.0,49783.0,49783.0,bethany nur &p/s,17744.0,32.66137,0.2228,3,,,2011.0,,,55,0,,,55,1,,,55,4,,,1,17467,POINT (3635847.077010702 24802.04505476886),0.0,145,145,144
UGA,UG,5165.0,49748.0,49748.0,bigodi p/s,58746.0,30.4113466,0.4040093999999999,1,,,2010.0,,,15,1,,,15,0,,,15,0,,,1,16939,POINT (3385375.617849752 44974.49337950039),0.0,146,146,147
UGA,UG,5165.0,49748.0,49748.0,bigodi p/s,17457.0,30.4113466,0.4040093999999999,1,,,2010.0,,,20,1,,,20,0,,,20,0,,,1,16955,POINT (3385375.617849752 44974.49337950039),0.0,147,147,146
UGA,UG,5165.0,49748.0,49748.0,bihanga p/s,58747.0,30.629843,0.199504,1,,,2010.0,,,17,4,,,17,0,,,17,0,,,1,16961,POINT (3409698.525837915 22208.72856894576),0.0,148,148,149
UGA,UG,5165.0,49748.0,49748.0,bihanga p/s,17458.0,30.629843,0.199504,1,,,2010.0,,,22,4,,,22,0,,,22,0,,,1,16962,POINT (3409698.525837915 22208.72856894576),0.0,149,149,148
UGA,UG,5135.0,49718.0,49718.0,biisa,17200.0,33.74167,0.5671364999999999,1,,,2008.0,,,25,4,,,25,1,,,25,0,,,1,16359,POINT (3756105.522914675 63134.3773652698),0.0,150,150,216
UGA,UG,5137.0,49720.0,49720.0,biiso,,31.4184748,1.7606015,1,,,2003.0,6.0,14.0,120,90,,,120,6,,,120,9,,,2,31070,POINT (3497488.616237297 196020.11284383),9376.695745335945,151,151,151
UGA,UG,5159.0,49741.0,49741.0,bikoni com,17368.0,29.98993,-1.241956,1,,,2010.0,,,61,4,,,61,4,,,61,7,,,1,16766,POINT (3338463.736525919 -138264.7374103351),0.0,152,152,289
UGA,UG,5167.0,49742.0,49742.0,bikoni com,58649.0,30.2748,0.5896682,1,,,2010.0,,,56,4,,,56,3,,,56,6,,,1,16806,POINT (3370175.319868199 65642.7225632052),0.0,153,153,234
UGA,UG,5127.0,49710.0,49710.0,bilbia,,32.068901,3.47334,3,,,2009.0,5.0,18.0,51,0,,,51,0,,,51,0,,,1,29746,POINT (3569893.729619901 386887.4769832154),3.2282652338035405,154,154,154
UGA,UG,5127.0,49710.0,49710.0,bilbia p/s,58321.0,32.06893,3.47334,3,,,2009.0,,,5,0,,,5,0,,,5,0,,,1,16217,POINT (3569896.957885135 386887.4769832154),0.0,155,155,156
UGA,UG,5127.0,49710.0,49710.0,bilbia p/s,17146.0,32.06893,3.47334,3,,,2008.0,,,68,0,,,68,0,,,68,0,,,1,16209,POINT (3569896.957885135 386887.4769832154),0.0,156,156,155
UGA,UG,5171.0,49754.0,49754.0,birijaku,17555.0,30.9413664,3.4109605,1,,,2010.0,,,61,4,,,61,0,,,61,0,,,1,17054,POINT (3444377.152096104 379930.8722490875),2060.007065968653,157,157,157
UGA,UG,5232.0,49815.0,49815.0,bishop kawuma p/s,59373.0,32.28081,-0.02395,3,,,2009.0,,,5,2,,,5,0,,,5,1,,,1,18102,POINT (3593483.331594414 -2666.101882139586),1701.010150938882,158,158,158
UGA,UG,5124.0,49707.0,49707.0,biyaya p/s,17112.0,31.80316,3.37662,3,,,2011.0,,,50,0,,,50,0,,,50,0,,,1,16157,POINT (3540311.576817006 376101.389261019),7271.439230363561,159,159,159
UGA,UG,5222.0,49805.0,49805.0,bolo,,32.777713,2.756336,1,,,2009.0,5.0,60.0,62,2,,,62,0,,,62,0,,,1,29813,POINT (3648798.320528063 306952.3392877968),0.0,160,160,161
UGA,UG,5222.0,49805.0,49805.0,bolo,,32.777713,2.756336,1,,,2009.0,5.0,18.0,59,0,,,59,0,,,59,0,,,1,29676,POINT (3648798.320528063 306952.3392877968),0.0,161,161,160
UGA,UG,5222.0,49805.0,49805.0,bolo com,17850.0,32.77561465,2.752411725,3,,,2008.0,,,62,2,,,62,0,,,62,0,,,1,17909,POINT (3648564.733274557 306514.9857275968),484.8347071774468,162,162,162
UGA,UG,5222.0,49805.0,49805.0,bolo p/s,17851.0,32.77772,2.75622,3,,,2008.0,,,81,0,,,81,0,,,81,0,,,1,17898,POINT (3648799.099764499 306939.4112707445),12.951480005265791,163,163,163
UGA,UG,5129.0,49712.0,49712.0,boria com,58356.0,31.19743,3.32095,3,,,2010.0,,,62,7,,,62,0,,,62,0,,,1,16269,POINT (3472882.021658797 369893.6328548357),2626.0144238679627,164,164,164
UGA,UG,5162.0,49745.0,49745.0,bosa,58683.0,32.356369,-0.24036001,3,,,2009.0,,,6,0,,,6,0,,,6,0,,,1,16868,POINT (3601894.520999263 -26756.83240103549),3162.4176093107353,165,165,165
UGA,UG,5162.0,49745.0,49745.0,bridge of hope,,32.2845,-0.322216,3,,,2008.0,6.0,16.0,18,0,,,18,1,,,18,1,,,1,29393,POINT (3593894.100515441 -35869.11011405785),1683.9844464640314,166,166,166
UGA,UG,5148.0,49731.0,49731.0,bubaale,58512.0,33.318069,0.10464,3,,,2009.0,,,7,1,,,7,0,,,7,1,,,1,16529,POINT (3708950.475295153 11648.47799203184),1028.002111313413,167,167,167
UGA,UG,5154.0,49737.0,49737.0,bubaare p/s,58588.0,30.5014,-0.13304,3,,,2010.0,,,15,1,,,15,0,,,15,0,,,1,16657,POINT (3395400.316481954 -14809.95836341971),0.0,168,168,169
UGA,UG,5154.0,49737.0,49737.0,bubaare p/s,17331.0,30.5014,-0.13304,3,,,2010.0,,,20,1,,,20,0,,,20,0,,,1,16652,POINT (3395400.316481954 -14809.95836341971),0.0,169,169,168
UGA,UG,5162.0,49745.0,49745.0,bubeke,,32.591001,-0.3217646999999999,1,,,2008.0,6.0,16.0,13,0,,,13,0,,,13,0,,,1,29406,POINT (3628013.635763069 -35818.87083453413),1365.7474175660402,170,170,170
UGA,UG,5157.0,49740.0,49740.0,bubugo,,33.0765712,0.5974096999999999,1,,,1998.0,7.0,14.0,126,92,,,126,0,,,126,0,,,3,30962,POINT (3682067.063171457 66504.54864408472),3722.6527768361993,171,171,171
UGA,UG,5138.0,49721.0,49721.0,bubukwanga,,30.0541,0.7662169999999999,3,,,1998.0,8.0,13.0,57,42,,,57,1,,,57,11,,,3,30873,POINT (3345607.108250123 85297.42870983919),118.2581740157601,172,172,172
UGA,UG,5213.0,49796.0,49796.0,bucunya,,33.909401,0.2319169999999999,3,,,1998.0,8.0,16.0,62,44,,,62,2,,,62,4,,,3,30913,POINT (3774777.252424921 25816.95284388584),3254.2363256614385,173,173,173
UGA,UG,5216.0,49799.0,49799.0,budiba p/s,17808.0,30.23969,1.04262,3,,,2011.0,,,54,0,,,54,0,,,54,0,,,1,17773,POINT (3366266.892546447 116070.3335184756),0.0,174,174,737
UGA,UG,5140.0,49723.0,49723.0,budimo,,34.0337271,0.2867772,1,,,2002.0,5.0,16.0,120,64,,,120,12,,,120,2,,,2,31059,POINT (3788617.170569235 31924.02516932668),0.0,175,175,176
UGA,UG,5140.0,49723.0,49723.0,budimo,,34.0337271,0.2867772,1,,,2003.0,6.0,14.0,119,50,,,119,27,,,119,10,,,2,31088,POINT (3788617.170569235 31924.02516932668),0.0,176,176,175
UGA,UG,5140.0,49723.0,49723.0,budimo  p/s,58452.0,34.033619,0.28674999,3,,,2011.0,,,50,0,,,50,0,,,50,0,,,1,16457,POINT (3788605.136932281 31920.99612804436),12.409009204824741,177,177,177
UGA,UG,5159.0,49741.0,49741.0,bufuka,,29.9352,-1.27865,3,,,2006.0,1.0,50.0,25,1,,,25,14,,,25,10,,,1,31140,POINT (3332371.220794803 -142350.4832657764),1051.2242261295441,178,178,178
UGA,UG,5162.0,49745.0,49745.0,bufumira,58686.0,32.383333,-0.333333,1,,,2005.0,,,28,2,,,28,2,,,28,0,,,2,16825,POINT (3604896.139749012 -37106.66914583726),537.6764633370524,179,179,179
UGA,UG,5135.0,49718.0,49718.0,bufunda p/s,58408.0,33.87187,0.60265,3,,,2011.0,,,49,0,,,49,0,,,49,0,,,1,16357,POINT (3770599.320615959 67087.92816214473),3464.571699057832,180,180,180
UGA,UG,5148.0,49731.0,49731.0,bugabo,58513.0,33.317902,0.27579001,3,,,2009.0,,,6,1,,,6,0,,,6,0,,,1,16528,POINT (3708931.88494019 30700.92203214075),3024.637065741257,181,181,181
UGA,UG,5153.0,49736.0,49736.0,bugambe p/s,17315.0,31.216667,1.433333,1,,,2011.0,,,50,0,,,50,0,,,50,1,,,1,16630,POINT (3475023.474703187 159574.5447029622),0.0,182,182,183
UGA,UG,5153.0,49736.0,49736.0,bugambe p/s,58566.0,31.216667,1.433333,1,,,2011.0,,,50,0,,,50,0,,,50,0,,,1,16627,POINT (3475023.474703187 159574.5447029622),0.0,183,183,182
UGA,UG,5232.0,49815.0,49815.0,buganda infants p/s,59374.0,32.29398,-0.01544,3,,,2009.0,,,5,1,,,5,1,,,5,1,,,1,18067,POINT (3594949.409288161 -1718.772958650909),86.83784010043318,184,184,184
UGA,UG,5162.0,49745.0,49745.0,buggala,17411.0,32.3073,-0.533,3,,,2009.0,,,13,0,,,13,0,,,13,1,,,1,16853,POINT (3596432.184905527 -59334.14437988179),7319.627908168889,185,185,185
UGA,UG,5232.0,49815.0,49815.0,bugiri public p/s,17959.0,33.7461847,0.5671364999999999,1,,,2011.0,,,50,0,,,50,0,,,50,6,,,1,18083,POINT (3756608.09701976 63134.3773652698),0.0,186,186,187
UGA,UG,5232.0,49815.0,49815.0,bugiri public p/s,59375.0,33.7461847,0.5671364999999999,1,,,2011.0,,,50,0,,,50,0,,,50,5,,,1,18079,POINT (3756608.09701976 63134.3773652698),0.0,187,187,186
UGA,UG,5187.0,49770.0,49770.0,bugogo p/s,17588.0,31.20567,0.59128,3,,,2010.0,,,19,4,,,19,0,,,19,0,,,1,17251,POINT (3473799.294262934 65822.15684704857),7317.597446239119,188,188,188
UGA,UG,5137.0,49720.0,49720.0,bugoigo p/s,58423.0,31.4098905,1.9088402,1,,,2011.0,,,51,0,,,51,0,,,51,1,,,1,16408,POINT (3496533.016332481 212530.438203781),7999.242283987395,189,189,189
UGA,UG,5162.0,49745.0,49745.0,bugoma,,33.033611,0.431944,1,,,2008.0,6.0,16.0,16,0,,,16,2,,,16,2,,,1,29382,POINT (3677284.755583081 48084.24160480384),0.0,190,190,191
UGA,UG,5162.0,49745.0,49745.0,bugoma,17412.0,33.033611,0.431944,1,,,2005.0,,,21,9,,,21,5,,,21,2,,,2,16848,POINT (3677284.755583081 48084.24160480384),0.0,191,191,190
UGA,UG,5178.0,49761.0,49761.0,bugoma p/s,17486.0,33.033611,0.431944,1,,,2011.0,,,52,0,,,52,0,,,52,5,,,1,17133,POINT (3677284.755583081 48084.24160480384),0.0,192,192,190
UGA,UG,5178.0,49761.0,49761.0,bugoma p/s,58855.0,33.033611,0.431944,1,,,2011.0,,,52,0,,,52,0,,,52,2,,,1,17138,POINT (3677284.755583081 48084.24160480384),0.0,193,193,190
UGA,UG,5164.0,49747.0,49747.0,bugondha p/s,58732.0,33.03860353,0.82566185,3,,,2011.0,,,50,0,,,50,0,,,50,0,,,1,16914,POINT (3677840.521480451 91915.43800410606),3257.7214563701496,194,194,194
UGA,UG,5229.0,49812.0,49812.0,bugondo p/s,17924.0,33.288601,1.61599,1,,,2011.0,,,50,0,,,50,0,,,50,0,,,1,18026,POINT (3705670.112540457 179915.0387985975),3793.3415593267014,195,195,195
UGA,UG,5163.0,49746.0,49746.0,bugoodo,,33.549599,0.94041,3,,,2009.0,5.0,18.0,59,23,,,59,0,,,59,0,,,1,29731,POINT (3734724.276998521 104690.6629625095),4.564099121373147,196,196,196
UGA,UG,5163.0,49746.0,49746.0,bugoodo com,17427.0,33.549511,0.9407666,3,,,2008.0,,,100,25,,,100,0,,,100,1,,,1,16894,POINT (3734714.480883331 104730.3648425753),40.892580666539295,197,197,197
UGA,UG,5163.0,49746.0,49746.0,bugoodo p/s,17428.0,33.54964,0.94041,3,,,2008.0,,,67,34,,,67,0,,,67,0,,,1,16895,POINT (3734728.841097642 104690.6629625095),4.564099121373147,198,198,198
UGA,UG,5196.0,49779.0,49779.0,bugoto lake view p/s,17653.0,33.616667,0.333333,1,,,2011.0,,,53,0,,,53,0,,,53,2,,,1,17365,POINT (3742190.252607044 37106.66914583719),0.47229259761714015,199,199,1457
UGA,UG,5135.0,49718.0,49718.0,bugunga  p/s,58409.0,33.85429,0.53886002,3,,,2011.0,,,49,0,,,49,0,,,49,0,,,1,16356,POINT (3768642.323967813 59986.50736083479),0.0022264883446041495,200,200,201
UGA,UG,5135.0,49718.0,49718.0,bugunga p/s,17202.0,33.85429,0.53886,3,,,2011.0,,,49,0,,,49,0,,,49,0,,,1,16361,POINT (3768642.323967813 59986.50513434644),0.0022264883446041495,201,201,200
UGA,UG,5159.0,49741.0,49741.0,buhara p/s,17369.0,30.0325771,-1.3602702,1,,,2010.0,,,29,0,,,29,0,,,29,11,,,1,16762,POINT (3343211.189981728 -151438.8129436346),12583.911874772863,202,202,202
UGA,UG,5167.0,49742.0,49742.0,buhara p/s,58650.0,30.2748,0.7041731999999999,1,,,2010.0,,,24,0,,,24,0,,,24,5,,,1,16796,POINT (3370175.319868199 78390.17551992662),3900.503238846999,203,203,203
UGA,UG,5213.0,49796.0,49796.0,buhatandu com,17776.0,33.91909,0.43329,3,,,2011.0,,,53,14,,,53,0,,,53,0,,,1,17735,POINT (3775855.826971218 48234.08191069958),0.0,204,204,205
UGA,UG,5213.0,49796.0,49796.0,buhatandu com,59191.0,33.91909,0.43329,3,,,2011.0,,,53,12,,,53,0,,,53,0,,,1,17724,POINT (3775855.826971218 48234.08191069958),0.0,205,205,204
UGA,UG,5206.0,49789.0,49789.0,buhunda catholic p/s,59121.0,32.082291,-0.01193,3,,,2011.0,,,51,0,,,51,0,,,51,2,,,1,17610,POINT (3571384.297601623 -1328.041534760247),1357.5798903531604,206,206,206
UGA,UG,5217.0,49800.0,49800.0,bujuzya,59233.0,30.21229,-1.12223,3,,,2010.0,,,18,2,,,18,0,,,18,0,,,1,17812,POINT (3363216.738498711 -124934.0605928704),0.0,207,207,208
UGA,UG,5217.0,49800.0,49800.0,bujuzya,17819.0,30.21229,-1.12223,3,,,2010.0,,,23,2,,,23,0,,,23,0,,,1,17794,POINT (3363216.738498711 -124934.0605928704),0.0,208,208,207
UGA,UG,5202.0,49785.0,49785.0,bukakata,,32.02855,-0.2751889999999999,1,,,2008.0,6.0,16.0,15,0,,,15,3,,,15,5,,,1,29387,POINT (3565401.876846903 -30634.01713160204),0.0,209,209,210
UGA,UG,5202.0,49785.0,49785.0,bukakata,59096.0,32.02855,-0.2751889999999999,1,,,2009.0,,,7,0,,,7,0,,,7,2,,,1,17543,POINT (3565401.876846903 -30634.01713160204),0.0,210,210,209
UGA,UG,5206.0,49789.0,49789.0,bukalunga,17715.0,32.230839,-0.041299999,3,,,2009.0,,,32,2,,,32,0,,,32,4,,,1,17620,POINT (3587920.585319983 -4597.495256573927),0.0,211,211,212
UGA,UG,5206.0,49789.0,49789.0,bukalunga,59122.0,32.230839,-0.041299999,3,,,2009.0,,,32,2,,,32,0,,,32,3,,,1,17613,POINT (3587920.585319983 -4597.495256573927),0.0,212,212,211
UGA,UG,5205.0,49788.0,49788.0,bukanaga,17679.0,32.0302929,0.422589,1,,,2013.0,,,63,1,,,63,1,,,63,2,,,1,17586,POINT (3565595.895587406 47042.81881067934),2477.541147007125,213,213,213
UGA,UG,5190.0,49773.0,49773.0,bukanha,,33.3494383,0.8775126,1,,,2009.0,5.0,18.0,58,24,,,58,0,,,58,0,,,1,29698,POINT (3712442.489797696 97688.07488980088),28.996271465710436,214,214,214
UGA,UG,5213.0,49796.0,49796.0,bukani,59192.0,33.820518,0.1432,3,,,2009.0,,,26,5,,,26,0,,,26,0,,,1,17723,POINT (3764882.842124743 15940.96767763504),6239.152736082896,215,215,215
UGA,UG,5135.0,49718.0,49718.0,bukani,17203.0,33.74167,0.5671364999999999,1,,,2009.0,,,26,5,,,26,0,,,26,0,,,1,16350,POINT (3756105.522914675 63134.3773652698),0.0,216,216,150
UGA,UG,5162.0,49745.0,49745.0,bukasa,58688.0,32.6206803,0.2988605,1,,,2009.0,,,9,0,,,9,0,,,9,1,,,1,16857,POINT (3631317.52032617 33269.14954138551),1175.7792261998425,217,217,217
UGA,UG,5213.0,49796.0,49796.0,bukewa p/s,59193.0,33.71148,0.27578,3,,,2011.0,,,50,0,,,50,0,,,50,1,,,1,17726,POINT (3752744.787487626 30699.80771113023),1496.8995137442853,218,218,218
UGA,UG,5145.0,49728.0,49728.0,bukhalu,,34.2548239,1.3074729,1,,,2009.0,5.0,60.0,44,11,,,44,0,,,44,0,,,1,29768,POINT (3813229.553761257 145559.8511181475),2060.6706690957776,219,219,219
UGA,UG,5226.0,49809.0,49809.0,bukhalu community,17931.0,34.24773,1.2302274,1,,,2008.0,,,44,14,,,44,0,,,44,0,,,1,17990,POINT (3812439.864425519 136958.8117304081),0.0,220,220,322
UGA,UG,5194.0,49777.0,49777.0,bukhofu,,34.2889698,0.8841715,1,,,2009.0,5.0,18.0,64,27,,,64,0,,,64,0,,,1,29748,POINT (3817030.657961935 98429.4278541549),0.0,221,221,222
UGA,UG,5194.0,49777.0,49777.0,bukhofu,17607.0,34.2889698,0.8841715,1,,,2008.0,,,77,44,,,77,0,,,77,0,,,1,17299,POINT (3817030.657961935 98429.4278541549),0.0,222,222,221
UGA,UG,5147.0,49730.0,49730.0,bukibira c/u p/s,58510.0,31.9942,0.084600002,3,,,2011.0,,,50,0,,,50,0,,,50,3,,,1,16523,POINT (3561578.052338153 9417.632565797034),13857.807596728533,223,223,223
UGA,UG,5206.0,49789.0,49789.0,bukibira c/u p/s,17716.0,32.31361,0.2273528,1,,,2011.0,,,50,0,,,50,0,,,50,4,,,1,17605,POINT (3597134.610892433 25308.86434312921),0.0,224,224,1532
UGA,UG,5196.0,49779.0,49779.0,bukizibu,,33.515282,0.2614204,1,,,2002.0,5.0,16.0,142,134,,,142,0,,,142,0,,,2,31018,POINT (3730904.126032967 29101.28678167678),0.0,225,225,226
UGA,UG,5196.0,49779.0,49779.0,bukizibu,,33.515282,0.2614204,1,,,2003.0,6.0,14.0,120,95,,,120,3,,,120,4,,,2,31072,POINT (3730904.126032967 29101.28678167678),0.0,226,226,225
UGA,UG,5196.0,49779.0,49779.0,bukoba  com,58969.0,33.492538,0.31231001,3,,,2011.0,,,55,13,,,55,0,,,55,0,,,1,17339,POINT (3728372.275534365 34766.36344418237),6205.107617063191,227,227,227
UGA,UG,5196.0,49779.0,49779.0,bukoba com,17654.0,31.8050125,-1.3296409,1,,,2011.0,,,55,16,,,55,0,,,55,0,,,1,17336,POINT (3540517.796173701 -148028.2352115108),0.0,228,228,230
UGA,UG,5140.0,49723.0,49723.0,bukobe maboka,,34.030399,0.299867,3,,,1998.0,7.0,14.0,128,92,,,128,8,,,128,8,,,3,30915,POINT (3788246.688171926 33381.1941382423),1503.5287196081294,229,229,229
UGA,UG,5207.0,49790.0,49790.0,bukooba,,31.8050125,-1.3296409,1,,,2009.0,5.0,60.0,25,0,,,25,0,,,25,0,,,1,29680,POINT (3540517.796173701 -148028.2352115108),0.0,230,230,228
UGA,UG,5207.0,49790.0,49790.0,bukooba com,17730.0,31.80916555,0.357248,3,,,2008.0,,,58,0,,,58,0,,,58,0,,,1,17643,POINT (3540980.11158494 39768.92313143788),618.402278281456,231,231,231
UGA,UG,5207.0,49790.0,49790.0,bukooba parents,,31.8067,0.35227001,3,,,2009.0,5.0,18.0,51,0,,,51,0,,,51,0,,,1,29802,POINT (3540705.647814414 39214.76519686295),0.0,232,232,233
UGA,UG,5207.0,49790.0,49790.0,bukooba parents,17731.0,31.8067,0.35227001,3,,,2008.0,,,59,0,,,59,0,,,59,0,,,1,17645,POINT (3540705.647814414 39214.76519686295),0.0,233,233,232
UGA,UG,5167.0,49742.0,49742.0,bukora,,30.2748,0.5896682,1,,,1998.0,5.0,10.0,79,22,,,79,52,,,79,22,,,3,31704,POINT (3370175.319868199 65642.7225632052),0.0,234,234,153
UGA,UG,5164.0,49747.0,49747.0,bukose p/s,17440.0,33.438353,1.2692186,1,,,2011.0,,,51,0,,,51,0,,,51,1,,,1,16921,POINT (3722340.428925732 141300.3250484346),6329.816068027626,235,235,235
UGA,UG,5138.0,49721.0,49721.0,bukukwanga p/s,17252.0,30.05327,0.7668800000000001,3,,,2011.0,,,56,6,,,56,0,,,56,4,,,1,16425,POINT (3345514.713072765 85371.24013796897),0.0,236,236,237
UGA,UG,5138.0,49721.0,49721.0,bukukwanga p/s,58437.0,30.05327,0.7668800000000001,3,,,2011.0,,,54,4,,,54,0,,,54,2,,,1,16432,POINT (3345514.713072765 85371.24013796897),0.0,237,237,236
UGA,UG,5149.0,49732.0,49732.0,bukungu p/s,58521.0,32.8690828,1.4333925,1,,,2005.0,,,67,11,,,67,0,,,67,1,,,2,16547,POINT (3658969.560137947 159581.1702858512),13273.25673568815,238,238,238
UGA,UG,5164.0,49747.0,49747.0,bulagala (a) com,17442.0,33.11972,0.944785,1,,,2011.0,,,52,27,,,52,0,,,52,0,,,1,16923,POINT (3686870.365615799 105177.7516485279),0.0,239,239,240
UGA,UG,5164.0,49747.0,49747.0,bulagala (a) com,58734.0,33.11972,0.944785,1,,,2011.0,,,52,21,,,52,0,,,52,0,,,1,16900,POINT (3686870.365615799 105177.7516485279),0.0,240,240,239
UGA,UG,5178.0,49761.0,49761.0,bulawula,,32.957199,0.8409000000000001,3,,,1998.0,8.0,12.0,61,32,,,61,0,,,61,1,,,3,30971,POINT (3668778.610652586 93611.92051885679),2022.3209481561748,241,241,241
UGA,UG,5232.0,49815.0,49815.0,bulenge p/s,59376.0,32.337669,0.02001,3,,,2009.0,,,8,7,,,8,0,,,8,0,,,1,18091,POINT (3599812.846521428 2227.503056054468),631.511273737929,242,242,242
UGA,UG,5202.0,49785.0,49785.0,bulingo,59097.0,31.890169,-0.2895,3,,,2009.0,,,9,3,,,9,0,,,9,0,,,1,17541,POINT (3549997.374391438 -32227.12971171528),8061.994200672433,243,243,243
UGA,UG,5232.0,49815.0,49815.0,bulondo,,32.433333,0.45,1,,,1998.0,5.0,15.0,51,33,,,51,1,,,51,13,,,3,30932,POINT (3610462.114288676 50094.2858708534),5792.64184253057,244,244,244
UGA,UG,5140.0,49723.0,49723.0,buloosi,,33.945301,0.2382669999999999,3,,,2003.0,6.0,14.0,120,79,,,120,8,,,120,5,,,2,31069,POINT (3778773.6221444 26523.83756121682),812.8105667362174,245,245,245
UGA,UG,5152.0,49735.0,49735.0,bulwadda  c/u p/s,58551.0,31.78039,0.19163001,3,,,2011.0,,,50,0,,,50,0,,,50,6,,,1,16590,POINT (3537776.832011644 21332.19490490647),0.0011132023246318568,246,246,247
UGA,UG,5152.0,49735.0,49735.0,bulwadda c/u p/s,17292.0,31.78039,0.19163,3,,,2011.0,,,50,0,,,50,0,,,50,6,,,1,16589,POINT (3537776.832011644 21332.19379170415),0.0011132023246318568,247,247,246
UGA,UG,5195.0,49778.0,49778.0,bulyango public,17641.0,31.5419957,1.6305138,1,,,2013.0,,,60,2,,,60,0,,,60,2,,,1,17324,POINT (3511238.899927625 181532.4698959799),5221.145292282828,248,248,248
UGA,UG,5138.0,49721.0,49721.0,bumadu,,30.0785279,0.7119204,1,,,1998.0,8.0,13.0,54,44,,,54,8,,,54,16,,,3,30944,POINT (3348326.409639272 79252.65573519187),3752.7804899377893,249,249,249
UGA,UG,5135.0,49718.0,49718.0,bumalenge,17204.0,33.74167,0.5671364999999999,1,,,2009.0,,,35,11,,,35,0,,,35,7,,,1,16372,POINT (3756105.522914675 63134.3773652698),0.0,250,250,150
UGA,UG,5194.0,49777.0,49777.0,bumasokho,,34.2543389,0.8430188,1,,,2009.0,5.0,18.0,62,19,,,62,5,,,62,0,,,1,29668,POINT (3813175.563808223 93847.80972469301),0.0,251,251,252
UGA,UG,5194.0,49777.0,49777.0,bumasokho,17608.0,34.2543389,0.8430188,1,,,2008.0,,,71,31,,,71,5,,,71,0,,,1,17312,POINT (3813175.563808223 93847.80972469301),0.0,252,252,251
UGA,UG,5196.0,49779.0,49779.0,bumba,,33.6446,0.031083,3,,,2008.0,6.0,16.0,18,0,,,18,0,,,18,1,,,1,29401,POINT (3745299.739943372 3460.143902051147),0.0,253,253,254
UGA,UG,5196.0,49779.0,49779.0,bumba,58972.0,33.6446,0.031083,3,,,2009.0,,,17,6,,,17,1,,,17,0,,,1,17346,POINT (3745299.739943372 3460.143902051147),0.0,254,254,253
UGA,UG,5196.0,49779.0,49779.0,bumba,17655.0,33.6446,0.031083,3,,,2008.0,,,17,6,,,17,1,,,17,0,,,1,17397,POINT (3745299.739943372 3460.143902051147),0.0,255,255,253
UGA,UG,5197.0,49780.0,49780.0,bumbobi,,34.1664807,0.9911592,1,,,2009.0,5.0,18.0,61,11,,,61,0,,,61,2,,,1,29764,POINT (3803395.233722209 110340.8409196448),0.0,256,256,257
UGA,UG,5197.0,49780.0,49780.0,bumbobi,17670.0,34.1664807,0.9911592,1,,,2008.0,,,67,16,,,67,0,,,67,3,,,1,17407,POINT (3803395.233722209 110340.8409196448),0.0,257,257,256
UGA,UG,5213.0,49796.0,49796.0,bumeru p/s,17778.0,33.778611,0.210833,1,,,2011.0,,,52,0,,,52,0,,,52,0,,,1,17727,POINT (3760217.776224069 23469.87516777777),4024.3702835978147,258,258,258
UGA,UG,5149.0,49732.0,49732.0,bumogoli p/s,17281.0,33.283333,1.266667,1,,,2011.0,,,51,0,,,51,0,,,51,1,,,1,16548,POINT (3705083.681462958 141016.2126697903),0.0,259,259,260
UGA,UG,5149.0,49732.0,49732.0,bumogoli p/s,58522.0,33.283333,1.266667,1,,,2011.0,,,51,0,,,51,0,,,51,0,,,1,16536,POINT (3705083.681462958 141016.2126697903),0.0,260,260,259
UGA,UG,5194.0,49777.0,49777.0,bumufuni,,34.2914011,0.9185719,1,,,2009.0,5.0,18.0,64,18,,,64,5,,,64,0,,,1,29711,POINT (3817301.309039901 102259.3368504653),0.0,261,261,262
UGA,UG,5194.0,49777.0,49777.0,bumufuni,17609.0,34.2914011,0.9185719,1,,,2008.0,,,72,27,,,72,5,,,72,0,,,1,17303,POINT (3817301.309039901 102259.3368504653),0.0,262,262,261
UGA,UG,5226.0,49809.0,49809.0,bunalwere,,34.2564661,1.2890393,1,,,2009.0,5.0,18.0,57,7,,,57,0,,,57,0,,,1,29678,POINT (3813412.362629038 143507.3052540236),0.0,263,263,264
UGA,UG,5226.0,49809.0,49809.0,bunalwere,17932.0,34.2564661,1.2890393,1,,,2008.0,,,63,9,,,63,0,,,63,0,,,1,17986,POINT (3813412.362629038 143507.3052540236),0.0,264,264,263
UGA,UG,5145.0,49728.0,49728.0,bunangaka,,34.306702,1.3688,3,,,2009.0,5.0,18.0,56,10,,,56,0,,,56,0,,,1,29761,POINT (3819004.59743658 152388.6152808105),2.4490287979133427,265,265,265
UGA,UG,5226.0,49809.0,49809.0,bunangaka,17933.0,34.30668,1.3688,3,,,2008.0,,,58,12,,,58,0,,,58,0,,,1,17984,POINT (3819002.148407782 152388.6152808105),2.4490287979133427,266,266,266
UGA,UG,5138.0,49721.0,49721.0,bunyangule,,29.9753,0.6156,3,,,1998.0,8.0,15.0,60,54,,,60,10,,,60,3,,,3,30931,POINT (3336835.132375613 68529.59704123193),32.78835485426302,267,267,267
UGA,UG,5138.0,49721.0,49721.0,bunyangule p/s,58440.0,29.975031,0.61571997,3,,,2011.0,,,51,0,,,51,0,,,51,0,,,1,16421,POINT (3336805.18743259 68542.95281157196),32.78835485426302,268,268,268
UGA,UG,5138.0,49721.0,49721.0,bupomboli,,30.0676864,0.6800018,1,,,1998.0,9.0,14.0,59,35,,,59,14,,,59,10,,,3,30862,POINT (3347119.539379837 75699.23124851032),3752.7804899377893,269,269,269
UGA,UG,5201.0,49784.0,49784.0,bura,59090.0,30.9488,3.26436,3,,,2010.0,,,66,11,,,66,0,,,66,0,,,1,17536,POINT (3445204.656662865 363583.6460098204),3388.08792579958,270,270,270
UGA,UG,5176.0,49759.0,49759.0,buraaqq p/s,,32.555698,0.35133,3,,,2006.0,8.0,16.0,47,3,,,47,4,,,47,5,,,1,31104,POINT (3624083.723779595 39110.12178977538),1167.2585828455537,271,271,271
UGA,UG,5138.0,49721.0,49721.0,burondo p/s,17254.0,30.1738666,0.8666201,1,,,2011.0,,,52,0,,,52,0,,,52,3,,,1,16440,POINT (3358939.465176165 96475.38687068014),0.0,272,272,273
UGA,UG,5138.0,49721.0,49721.0,burondo p/s,58442.0,30.1738666,0.8666201,1,,,2011.0,,,49,0,,,49,0,,,49,2,,,1,16442,POINT (3358939.465176165 96475.38687068014),0.0,273,273,272
UGA,UG,5178.0,49761.0,49761.0,busaana,,32.9100815,0.7057066,2,,,1998.0,6.0,13.0,54,36,,,54,0,,,54,0,,,3,30879,POINT (3663533.514545133 78560.88574772354),933.0305990730305,274,274,274
UGA,UG,5142.0,49725.0,49725.0,busabala,,32.6101184,0.2989407,1,,,1998.0,7.0,13.0,67,22,,,67,8,,,67,8,,,3,31036,POINT (3630141.774996361 33278.07748603358),628.4507783604549,275,275,275
UGA,UG,5232.0,49815.0,49815.0,busabala p/s,17960.0,32.6178111,0.2096618999999999,1,,,2011.0,,,48,0,,,48,0,,,48,13,,,1,18110,POINT (3630998.122443187 23339.50803439276),0.0,276,276,277
UGA,UG,5232.0,49815.0,49815.0,busabala p/s,59378.0,32.6178111,0.2096618999999999,1,,,2011.0,,,48,0,,,48,0,,,48,11,,,1,18086,POINT (3630998.122443187 23339.50803439276),0.0,277,277,276
UGA,UG,5142.0,49725.0,49725.0,busagazi,,33.1262556,0.2355348,1,,,2008.0,6.0,16.0,17,0,,,17,0,,,17,1,,,1,29408,POINT (3687597.905279827 26219.68784861301),5480.411702565555,278,278,278
UGA,UG,5190.0,49773.0,49773.0,busalamu,,33.380556,0.6794439999999999,1,,,1998.0,5.0,10.0,67,29,,,67,0,,,67,1,,,3,31701,POINT (3715906.496316353 75637.1328667246),0.0,279,279,280
UGA,UG,5190.0,49773.0,49773.0,busalamu,,33.380556,0.6794439999999999,1,,,2002.0,5.0,16.0,67,29,,,67,0,,,67,1,,,2,30975,POINT (3715906.496316353 75637.1328667246),0.0,280,280,279
UGA,UG,5205.0,49788.0,49788.0,busalira,,31.8396,0.30213,3,,,2009.0,5.0,60.0,30,0,,,30,0,,,30,0,,,1,29751,POINT (3544368.059061513 33633.11362219766),5.56597454007715,281,281,281
UGA,UG,5205.0,49788.0,49788.0,busalira com,17680.0,31.83955,0.30213,3,,,2008.0,,,52,0,,,52,0,,,52,0,,,1,17580,POINT (3544362.493086973 33633.11362219766),5.56597454007715,282,282,282
UGA,UG,5176.0,49759.0,49759.0,busega p/s,,32.5217164,0.311096,1,,,2006.0,10.0,15.0,59,1,,,59,0,,,59,1,,,1,31112,POINT (3620300.909371254 34631.21846927472),2377.254567225825,283,283,283
UGA,UG,5200.0,49783.0,49783.0,busenyi,17745.0,30.1964522,-0.5423774,1,,,2009.0,,,23,3,,,23,0,,,23,0,,,1,17477,POINT (3361453.682667425 -60378.07774206958),12632.561907853982,284,284,284
UGA,UG,5153.0,49736.0,49736.0,buseruka p/s,17316.0,31.136491,1.547361,1,,,2011.0,,,48,0,,,48,0,,,48,2,,,1,16638,POINT (3466098.323209346 172272.3811083047),0.0,285,285,286
UGA,UG,5153.0,49736.0,49736.0,buseruka p/s,58567.0,31.136491,1.547361,1,,,2011.0,,,48,0,,,48,0,,,48,1,,,1,16632,POINT (3466098.323209346 172272.3811083047),0.0,286,286,285
UGA,UG,5155.0,49738.0,49738.0,busesa,,33.6217735,0.6223291,1,,,1998.0,5.0,10.0,66,41,,,66,0,,,66,0,,,3,31689,POINT (3742758.70558678 69278.72073965515),0.0,287,287,288
UGA,UG,5155.0,49738.0,49738.0,busesa mixed,,33.6217735,0.6223291,1,,,2002.0,5.0,16.0,66,41,,,66,0,,,66,0,,,2,30957,POINT (3742758.70558678 69278.72073965515),0.0,288,288,287
UGA,UG,5159.0,49741.0,49741.0,bushure,,29.98993,-1.241956,1,,,2006.0,1.0,50.0,9,4,,,9,5,,,9,6,,,1,31138,POINT (3338463.736525919 -138264.7374103351),0.0,289,289,152
UGA,UG,5140.0,49723.0,49723.0,busia border,,34.0919803,0.4706691999999999,1,,,1998.0,6.0,15.0,118,30,,,118,24,,,118,0,,,3,30867,POINT (3795101.887130314 52395.24496647097),3385.0519534670675,290,290,290
UGA,UG,5213.0,49796.0,49796.0,busiiro,,33.864601,0.193717,3,,,2002.0,5.0,16.0,62,47,,,62,2,,,62,0,,,2,30990,POINT (3769790.139237383 21564.51888260834),30.488203152329024,291,291,291
UGA,UG,5213.0,49796.0,49796.0,busiro,,33.866667,0.183333,1,,,2003.0,6.0,14.0,117,33,,,117,3,,,117,6,,,2,31085,POINT (3770020.125305362 20408.57103113358),0.0,292,292,293
UGA,UG,5213.0,49796.0,49796.0,busiro,59197.0,33.866667,0.183333,1,,,2012.0,,,58,3,,,58,0,,,58,1,,,1,17753,POINT (3770020.125305362 20408.57103113358),0.0,293,293,292
UGA,UG,5213.0,49796.0,49796.0,busiro church of god p/s,59198.0,33.86481,0.19354,3,,,2011.0,,,51,0,,,51,0,,,51,0,,,1,17734,POINT (3769813.405010959 21544.8152202234),30.488203152329024,294,294,294
UGA,UG,5232.0,49815.0,49815.0,bussi god is good p/s,59379.0,32.28877,0.04892,3,,,2009.0,,,6,2,,,6,1,,,6,1,,,1,18097,POINT (3594369.434741128 5445.750151265245),238.71478286408453,295,295,295
UGA,UG,5232.0,49815.0,49815.0,bussi junior,59380.0,32.34458,0.02419,3,,,2009.0,,,8,0,,,8,0,,,8,3,,,1,18101,POINT (3600582.175522301 2692.818562287614),298.16052053946765,296,296,296
UGA,UG,5232.0,49815.0,49815.0,bussi memere p/s,59381.0,32.34198,0.0418,3,,,2009.0,,,7,5,,,7,0,,,7,2,,,1,18095,POINT (3600292.744846237 4653.155127925181),1766.0985986223786,297,297,297
UGA,UG,5232.0,49815.0,49815.0,bussi modern p/s,59382.0,32.29086,0.04844,3,,,2009.0,,,7,1,,,7,0,,,7,0,,,1,18080,POINT (3594602.092476886 5392.316776399033),238.71478286408453,298,298,298
UGA,UG,5163.0,49746.0,49746.0,busulumba,,33.516667,1.166667,1,,,2009.0,5.0,18.0,56,26,,,56,0,,,56,0,,,1,29695,POINT (3731058.303527716 129881.7519026297),0.0,299,299,300
UGA,UG,5163.0,49746.0,49746.0,busulumba,,33.516667,1.166667,1,,,2009.0,5.0,18.0,57,8,,,57,0,,,57,0,,,1,29840,POINT (3731058.303527716 129881.7519026297),0.0,300,300,299
UGA,UG,5163.0,49746.0,49746.0,busulumba,17429.0,33.516667,1.166667,1,,,2008.0,,,61,13,,,61,0,,,61,0,,,1,16891,POINT (3731058.303527716 129881.7519026297),0.0,301,301,299
UGA,UG,5163.0,49746.0,49746.0,busulumba com,17430.0,33.50167,1.16955,3,,,2008.0,,,71,52,,,71,0,,,71,0,,,1,16884,POINT (3729388.845124289 130202.7527032759),1700.0390803706512,302,302,302
UGA,UG,5178.0,49761.0,49761.0,busungire p/s,17487.0,32.78414,1.3497400000000002,3,,,2011.0,,,50,0,,,50,0,,,50,0,,,1,17115,POINT (3649513.770895392 150266.2685594842),6764.949158253757,303,303,303
UGA,UG,5157.0,49740.0,49740.0,bususwa p/s,58612.0,33.10251,0.54564,3,,,2011.0,,,53,0,,,53,0,,,53,0,,,1,16705,POINT (3684954.557179247 60741.28508425434),4680.458913313508,304,304,304
UGA,UG,5157.0,49740.0,49740.0,butagaya,,33.1098654,0.5942782,1,,,1998.0,7.0,13.0,116,78,,,116,0,,,116,0,,,3,30970,POINT (3685773.356561827 66155.93280768373),3327.0624151283023,305,305,305
UGA,UG,5138.0,49721.0,49721.0,butama p/s,17255.0,29.9944,0.61720002,3,,,2011.0,,,42,0,,,42,0,,,42,2,,,1,16435,POINT (3338961.334649764 68707.72076073471),0.0,306,306,307
UGA,UG,5138.0,49721.0,49721.0,butama p/s,58443.0,29.9944,0.61720002,3,,,2011.0,,,42,0,,,42,0,,,42,1,,,1,16438,POINT (3338961.334649764 68707.72076073471),0.0,307,307,306
UGA,UG,5159.0,49741.0,49741.0,butebe,,29.98993,-1.241956,1,,,2006.0,1.0,50.0,8,0,,,8,6,,,8,3,,,1,31135,POINT (3338463.736525919 -138264.7374103351),0.0,308,308,152
UGA,UG,5205.0,49788.0,49788.0,butebi,,32.0072828,0.3420709999999999,1,,,2009.0,5.0,18.0,49,0,,,49,0,,,49,0,,,1,29738,POINT (3563034.422972303 38079.39575323836),0.0,309,309,310
UGA,UG,5205.0,49788.0,49788.0,butebi islamic,17682.0,32.0072828,0.3420709999999999,3,,,2013.0,,,60,4,,,60,1,,,60,1,,,1,17577,POINT (3563034.422972303 38079.39575323836),0.0,310,310,309
UGA,UG,5135.0,49718.0,49718.0,butema,,31.417046,1.3351918,1,,,1998.0,7.0,13.0,59,39,,,59,0,,,59,0,,,3,30992,POINT (3497329.562948852 148646.3256965473),0.0,311,311,312
UGA,UG,5153.0,49736.0,49736.0,butema c/u p/s,17317.0,31.417046,1.3351918,1,,,2011.0,,,50,0,,,50,0,,,50,0,,,1,16614,POINT (3497329.562948852 148646.3256965473),0.0,312,312,311
UGA,UG,5137.0,49720.0,49720.0,butiaba,,31.324287,1.815151,1,,,2003.0,6.0,14.0,108,63,,,108,20,,,108,37,,,2,31083,POINT (3487003.678302359 202095.4932260721),456.4467902391504,313,313,313
UGA,UG,5137.0,49720.0,49720.0,butiaba p/s,58425.0,31.326756,1.818423,1,,,2011.0,,,50,0,,,50,0,,,50,7,,,1,16382,POINT (3487278.526125127 202459.9137889376),456.4467902391504,314,314,314
UGA,UG,5138.0,49721.0,49721.0,butoogo p/s,17256.0,29.97236,0.72362,3,,,2011.0,,,48,0,,,48,0,,,48,3,,,1,16420,POINT (3336507.853072681 80555.15145554434),0.0,315,315,316
UGA,UG,5138.0,49721.0,49721.0,butoogo p/s,58444.0,29.97236,0.72362,3,,,2011.0,,,45,0,,,45,0,,,45,1,,,1,16426,POINT (3336507.853072681 80555.15145554434),0.0,316,316,315
UGA,UG,5196.0,49779.0,49779.0,butumbura p/s,58975.0,33.629879,0.34566,3,,,2011.0,,,50,0,,,50,0,,,50,0,,,1,17349,POINT (3743661.005719405 38478.92860113187),2011.503214801429,317,317,317
UGA,UG,5216.0,49799.0,49799.0,butungama,,30.274078,1.0836626,1,,,1998.0,7.0,14.0,36,6,,,36,0,,,36,1,,,3,30917,POINT (3370094.947195846 120639.9615874017),104.94798965226819,318,318,318
UGA,UG,5216.0,49799.0,49799.0,butungama p/s,59222.0,30.27353,1.0844296,1,,,2011.0,,,47,0,,,47,0,,,47,0,,,1,17767,POINT (3370033.944114891 120725.3589213539),104.94798965226819,319,319,319
UGA,UG,5155.0,49738.0,49738.0,buwabe,,33.537998,0.5943599900000001,3,,,2009.0,5.0,18.0,59,19,,,59,0,,,59,0,,,1,29784,POINT (3733432.859585828 66165.03811867522),0.0,320,320,321
UGA,UG,5155.0,49738.0,49738.0,buwabe,17346.0,33.537998,0.5943599900000001,3,,,2008.0,,,69,35,,,69,0,,,69,0,,,1,16692,POINT (3733432.859585828 66165.03811867522),0.0,321,321,320
UGA,UG,5226.0,49809.0,49809.0,buwasyeba,17934.0,34.24773,1.2302274,1,,,2008.0,,,75,42,,,75,0,,,75,0,,,1,17978,POINT (3812439.864425519 136958.8117304081),0.0,322,322,220
UGA,UG,5145.0,49728.0,49728.0,buwasyeba,,34.282398,1.34894,3,,,2009.0,5.0,18.0,62,26,,,62,0,,,62,0,,,1,29673,POINT (3816299.08853234 150177.1882650211),2388.7398657759704,323,323,323
UGA,UG,5157.0,49740.0,49740.0,buwenda p/s,17355.0,33.1727263,0.4763262,1,,,2011.0,,,50,0,,,50,0,,,50,0,,,1,16701,POINT (3692770.999940634 53025.00083068855),2728.5721417105697,324,324,324
UGA,UG,5190.0,49773.0,49773.0,buwologoma,,33.3844844,1.0442204,1,,,2009.0,5.0,18.0,60,29,,,60,0,,,60,0,,,1,29826,POINT (3716343.803803985 116248.5187778392),8308.343710492183,325,325,325
UGA,UG,5164.0,49747.0,49747.0,buyanja p/s,17443.0,31.03351,0.8087696,1,,,2005.0,,,66,7,,,66,0,,,66,0,,,2,16929,POINT (3454634.530727963 90034.81003831018),3963.5180763576072,326,326,326
UGA,UG,5231.0,49814.0,49814.0,buyemba,,34.116667,0.616667,1,,,2009.0,5.0,18.0,61,14,,,61,0,,,61,0,,,1,29700,POINT (3797849.99800368 68648.38180592049),0.0,327,327,328
UGA,UG,5231.0,49814.0,49814.0,buyemba,17947.0,34.116667,0.616667,1,,,2008.0,,,66,18,,,66,0,,,66,0,,,1,18060,POINT (3797849.99800368 68648.38180592049),0.0,328,328,327
UGA,UG,5206.0,49789.0,49789.0,buyiga a,17717.0,32.1735944,0.0066524999999999,1,,,2009.0,,,15,10,,,15,2,,,15,2,,,1,17617,POINT (3581548.145597318 740.5529141648483),0.0,329,329,330
UGA,UG,5206.0,49789.0,49789.0,buyiga b,17718.0,32.1735944,0.0066524999999999,1,,,2009.0,,,15,1,,,15,0,,,15,0,,,1,17622,POINT (3581548.145597318 740.5529141648483),0.0,330,330,329
UGA,UG,5163.0,49746.0,49746.0,buyinda,17431.0,33.5358153,1.0108208,1,,,2008.0,,,100,22,,,100,0,,,100,0,,,1,16880,POINT (3733189.882533273 112529.8942944514),0.0,331,331,332
UGA,UG,5163.0,49746.0,49746.0,buyinda,58723.0,33.5358153,1.0108208,1,,,2008.0,,,100,21,,,100,0,,,100,0,,,1,16886,POINT (3733189.882533273 112529.8942944514),0.0,332,332,331
UGA,UG,5142.0,49725.0,49725.0,buyomba village,58487.0,32.95,0.333333,1,,,2011.0,,,50,14,,,50,0,,,50,4,,,1,16477,POINT (3667977.221638365 37106.66914583719),4706.170254089967,333,333,333
UGA,UG,5213.0,49796.0,49796.0,buyondo,,33.8749194,0.1665316,1,,,2002.0,5.0,16.0,63,41,,,63,0,,,63,2,,,2,31005,POINT (3770938.778271185 18538.23901449556),0.0,334,334,335
UGA,UG,5213.0,49796.0,49796.0,buyondo,,33.8749194,0.1665316,1,,,2003.0,6.0,14.0,127,88,,,127,10,,,127,8,,,2,31065,POINT (3770938.778271185 18538.23901449556),0.0,335,335,334
UGA,UG,5225.0,49808.0,49808.0,buzenga p/s,59318.0,30.132339,-0.28626999,3,,,2010.0,,,21,5,,,21,4,,,21,4,,,1,17965,POINT (3354316.633890298 -31867.56210439551),0.0,336,336,337
UGA,UG,5225.0,49808.0,49808.0,buzenga p/s,17889.0,30.132339,-0.28626999,3,,,2010.0,,,27,5,,,27,4,,,27,4,,,1,17969,POINT (3354316.633890298 -31867.56210439551),0.0,337,337,336
UGA,UG,5205.0,49788.0,49788.0,buzibazzi,,31.8689134,0.2809416,1,,,2009.0,5.0,18.0,55,0,,,55,0,,,55,0,,,1,29783,POINT (3547631.211822933 31274.40117611124),0.0,338,338,339
UGA,UG,5205.0,49788.0,49788.0,buzibazzi,17683.0,31.8689134,0.2809416,1,,,2008.0,,,61,0,,,61,0,,,61,0,,,1,17567,POINT (3547631.211822933 31274.40117611124),0.0,339,339,338
UGA,UG,5162.0,49745.0,49745.0,buziga,58689.0,32.6164445,0.2690054,2,,,2009.0,,,7,1,,,7,3,,,7,3,,,1,16843,POINT (3630845.993227068 29945.65416571311),441.9815130634989,340,340,340
UGA,UG,5142.0,49725.0,49725.0,buziika c/u p/s,58488.0,33.17487,0.39311001,3,,,2011.0,,,50,0,,,50,0,,,50,1,,,1,16482,POINT (3693009.635533047 43761.14947712977),4280.302714438566,341,341,341
UGA,UG,5159.0,49741.0,49741.0,buzinda com,17370.0,29.98993,-1.241956,1,,,2013.0,,,64,3,,,64,6,,,64,2,,,1,16758,POINT (3338463.736525919 -138264.7374103351),0.0,342,342,152
UGA,UG,5159.0,49741.0,49741.0,bwabya,17371.0,30.3192259,0.7024867,1,,,2013.0,,,61,1,,,61,3,,,61,1,,,1,16747,POINT (3375120.788434231 78202.42105288855),4949.031327190121,343,343,343
UGA,UG,5140.0,49723.0,49723.0,bwaniha,,33.943298,0.2454829999999999,3,,,2003.0,6.0,14.0,125,67,,,125,15,,,125,12,,,2,31093,POINT (3778550.649204341 27327.12616507972),21.747368855440527,344,344,344
UGA,UG,5140.0,49723.0,49723.0,bwanika baptist,,33.943401,0.2453169999999999,3,,,1998.0,7.0,13.0,122,74,,,122,0,,,122,0,,,3,30894,POINT (3778562.115111893 27308.64696011447),21.747368855440527,345,345,345
UGA,UG,5159.0,49741.0,49741.0,bwanika cou p/s,17372.0,29.98993,-1.241956,1,,,2010.0,,,28,0,,,28,0,,,28,3,,,1,16735,POINT (3338463.736525919 -138264.7374103351),0.0,346,346,152
UGA,UG,5167.0,49742.0,49742.0,bwanika cou p/s,58652.0,30.2748,0.5850791,1,,,2010.0,,,21,0,,,21,0,,,21,2,,,1,16792,POINT (3370175.319868199 65131.83944237379),0.0,347,347,1200
UGA,UG,5162.0,49745.0,49745.0,bwendero,17413.0,32.2112697,-0.4149629999999999,3,,,2005.0,,,29,7,,,29,16,,,29,7,,,2,16859,POINT (3585742.140808802 -46193.87369728961),1913.3513573283387,348,348,348
UGA,UG,5133.0,49716.0,49716.0,bwibere,,34.1101858,1.0994563,1,,,2009.0,5.0,18.0,59,0,,,59,0,,,59,0,,,1,29793,POINT (3797128.514119951 122398.4273446346),5326.228233686836,349,349,349
UGA,UG,5196.0,49779.0,49779.0,bwondha,,33.5614541,0.1777265999999999,1,,,2002.0,5.0,16.0,110,86,,,110,0,,,110,14,,,2,30961,POINT (3736043.980693824 19784.46633971385),0.0,350,350,351
UGA,UG,5196.0,49779.0,49779.0,bwondha,,33.5614541,0.1777265999999999,1,,,2003.0,6.0,14.0,114,71,,,114,11,,,114,16,,,2,31092,POINT (3736043.980693824 19784.46633971385),0.0,351,351,350
UGA,UG,5196.0,49779.0,49779.0,bwondha p/s,58979.0,33.561691,0.1777,3,,,2011.0,,,51,0,,,51,0,,,51,0,,,1,17354,POINT (3736070.352281193 19781.50522701487),26.537309750764344,352,352,352
UGA,UG,5207.0,49790.0,49790.0,cawodisa army,,31.3001,0.44040999,3,,,2009.0,5.0,18.0,62,0,,,62,1,,,62,0,,,1,29686,POINT (3484311.193778542 49026.69861076669),0.0,353,353,354
UGA,UG,5207.0,49790.0,49790.0,cawodisa army,17733.0,31.3001,0.44040999,3,,,2008.0,,,62,0,,,62,1,,,62,0,,,1,17627,POINT (3484311.193778542 49026.69861076669),0.0,354,354,353
UGA,UG,5127.0,49710.0,49710.0,ceri,17147.0,32.0287702,3.2709223,3,,,2013.0,,,67,1,,,67,0,,,67,0,,,1,16222,POINT (3565426.389398775 364315.3475285871),6689.787913499035,355,355,355
UGA,UG,5232.0,49815.0,49815.0,chadwick namate p/s,17961.0,32.473209,0.066320002,3,,,2011.0,,,50,0,,,50,0,,,50,2,,,1,18066,POINT (3614901.090303548 7382.71050062159),1888.197608305605,356,356,356
UGA,UG,5171.0,49754.0,49754.0,chakulia,58801.0,31.0580533,3.5993289,1,,,2010.0,,,64,19,,,64,0,,,64,0,,,1,17043,POINT (3457366.67838635 400939.2562496331),0.0,357,357,358
UGA,UG,5171.0,49754.0,49754.0,chakulia,17556.0,31.0580533,3.5993289,1,,,2010.0,,,59,14,,,59,0,,,59,0,,,1,17029,POINT (3457366.67838635 400939.2562496331),0.0,358,358,357
UGA,UG,5171.0,49754.0,49754.0,chakulia,17557.0,31.0580533,3.5993289,1,,,2013.0,,,62,1,,,62,0,,,62,0,,,1,17031,POINT (3457366.67838635 400939.2562496331),0.0,359,359,357
UGA,UG,5221.0,49804.0,49804.0,chelekura p/s,59280.0,33.666667,1.3,1,,,2011.0,,,50,0,,,50,0,,,50,0,,,1,17865,POINT (3747756.227146707 144727.7562884875),3202.9743126296307,360,360,360
UGA,UG,5199.0,49782.0,49782.0,chinyi p/s,59041.0,31.63138,3.4698,3,,,2011.0,,,50,0,,,50,0,,,50,0,,,1,17440,POINT (3521189.114688538 386492.6815233045),2304.353278948102,361,361,361
UGA,UG,5129.0,49712.0,49712.0,cilio,58357.0,31.0299265,3.196496,1,,,2010.0,,,64,5,,,64,0,,,64,0,,,1,16273,POINT (3454235.617332705 356017.0361351285),6186.435985896971,362,362,362
UGA,UG,5182.0,49765.0,49765.0,comboni parents,58892.0,32.263748,2.2310801,3,,,2011.0,,,52,0,,,52,0,,,52,0,,,1,17178,POINT (3591583.998442499 248425.4898373137),1510.2374156955618,363,363,363
UGA,UG,5176.0,49759.0,49759.0,covenant,,32.564602,0.30649,3,,,2006.0,9.0,14.0,57,0,,,57,0,,,57,2,,,1,31111,POINT (3625074.912525618 34118.47344790774),703.7189703772267,364,364,364
UGA,UG,5162.0,49745.0,49745.0,dajje,58690.0,32.28685,-0.47051001,3,,,2009.0,,,8,0,,,8,1,,,8,0,,,1,16845,POINT (3594155.701318805 -52377.5234189964),4547.111575920914,365,365,365
UGA,UG,5200.0,49783.0,49783.0,damba,59068.0,32.8,0.0166669999999999,1,,,2009.0,,,2,0,,,2,0,,,2,0,,,1,17499,POINT (3651279.298019372 1855.361979218023),1914.7354233027468,366,366,366
UGA,UG,5200.0,49783.0,49783.0,damba p/s,59069.0,32.79966,-0.00053,3,,,2009.0,,,8,1,,,8,0,,,8,5,,,1,17484,POINT (3651241.449392504 -58.99933012108187),1914.7354233027468,367,367,367
UGA,UG,5210.0,49793.0,49793.0,dei p/s,59172.0,31.279738,2.185501,1,,,2011.0,,,50,0,,,50,0,,,50,0,,,1,17691,POINT (3482044.50630701 243347.8766176289),7689.887790795452,368,368,368
UGA,UG,5199.0,49782.0,49782.0,dilokata p/s,59042.0,31.50444,3.20152,3,,,2011.0,,,50,0,,,50,0,,,50,0,,,1,17443,POINT (3507058.218527239 356577.178109204),2935.0598573331185,369,369,369
UGA,UG,5146.0,49729.0,49729.0,doho,,34.0028674,0.9372374,1,,,2005.0,5.0,16.0,62,37,,,62,0,,,62,3,,,2,30850,POINT (3785181.884479202 104337.4433296434),2312.3234563802594,370,370,370
UGA,UG,5213.0,49796.0,49796.0,dohwe p/s,17781.0,33.779709,0.30153999,3,,,2011.0,,,49,0,,,49,0,,,49,0,,,1,17740,POINT (3760340.00502496 33567.43309805407),3089.8300409510266,371,371,371
UGA,UG,5126.0,49709.0,49709.0,dokolo asamuk,17138.0,33.6536463,1.9751449,3,,,2013.0,,,60,0,,,60,0,,,60,0,,,1,16181,POINT (3746306.769452935 219915.6857909094),1840.0918172979448,372,372,372
UGA,UG,5161.0,49743.0,49743.0,doya,,33.089001,1.63333,3,,,2005.0,5.0,16.0,62,12,,,62,0,,,62,0,,,2,30895,POINT (3683450.74217812 181846.0950512264),2485.875548904296,373,373,373
UGA,UG,5167.0,49742.0,49742.0,doya,17398.0,33.06667,1.63333,4,,,2005.0,,,13,8,,,13,0,,,13,0,,,2,16805,POINT (3680964.866629216 181846.0950512264),2485.875548904296,374,374,374
UGA,UG,5171.0,49754.0,49754.0,dricile,17558.0,30.9781318,3.4740485,1,,,2013.0,,,62,5,,,62,0,,,62,0,,,1,17051,POINT (3448469.857702915 386966.4920150281),5693.992809552973,375,375,375
UGA,UG,5124.0,49707.0,49707.0,dubajo p/s,17113.0,31.68475,3.42436,3,,,2011.0,,,50,0,,,50,0,,,50,0,,,1,16149,POINT (3527130.235912174 381425.1553511004),1846.0337590767265,376,376,376
UGA,UG,5124.0,49707.0,49707.0,dzaipi,,31.9398952,3.4499308,1,,,1998.0,8.0,14.0,59,13,,,59,0,,,59,1,,,3,31046,POINT (3555532.869654522 384276.8134603485),3696.221957731884,377,377,377
UGA,UG,5176.0,49759.0,49759.0,east kololo p/s,,32.5949199,0.327297,1,,,2006.0,10.0,14.0,55,1,,,55,0,,,55,5,,,1,31129,POINT (3628449.88571554 36434.73353283645),1913.356204214539,378,378,378
UGA,UG,5131.0,49714.0,49714.0,ebule,58391.0,33.362159,2.1501066,1,,,2012.0,,,66,0,,,66,0,,,66,0,,,1,16309,POINT (3713858.551644229 239404.9681481415),1866.2417661556876,379,379,379
UGA,UG,5127.0,49710.0,49710.0,elegu,,32.078899,3.50466,3,,,2009.0,5.0,18.0,64,0,,,64,0,,,64,0,,,1,29774,POINT (3571006.701888853 390380.4777537577),1.001875416841358,380,380,380
UGA,UG,5127.0,49710.0,49710.0,elegu p/s,58323.0,32.07889,3.50466,3,,,2009.0,,,10,0,,,10,0,,,10,0,,,1,16210,POINT (3571005.700013436 390380.4777537577),0.0,381,381,382
UGA,UG,5127.0,49710.0,49710.0,elegu p/s,17148.0,32.07889,3.50466,3,,,2008.0,,,67,0,,,67,0,,,67,0,,,1,16208,POINT (3571005.700013436 390380.4777537577),0.0,382,382,381
UGA,UG,5124.0,49707.0,49707.0,elema,,31.9011,3.47593,3,,,1998.0,8.0,15.0,59,26,,,59,0,,,59,1,,,3,31009,POINT (3551214.207745299 387176.3254467353),29.423469390275525,383,383,383
UGA,UG,5124.0,49707.0,49707.0,elema p/s,58297.0,31.90094,3.47572,3,,,2011.0,,,50,0,,,50,0,,,50,0,,,1,16152,POINT (3551196.396626772 387152.9052715061),29.423469390275525,384,384,384
UGA,UG,5129.0,49712.0,49712.0,emuenga p/s,58358.0,31.43327,3.10265,3,,,2011.0,,,50,0,,,50,0,,,50,0,,,1,16295,POINT (3499135.610367483 345554.342200734),2182.5283407519296,385,385,385
UGA,UG,5129.0,49712.0,49712.0,erago com,17185.0,31.40166,3.00283,3,,,2011.0,,,56,3,,,56,0,,,56,0,,,1,16262,POINT (3495616.801263507 334426.6383052039),1001.4248429209259,386,386,386
UGA,UG,5210.0,49793.0,49793.0,erussi p/s,17798.0,31.0979963,2.3419315,1,,,2011.0,,,50,0,,,50,0,,,50,0,,,1,17703,POINT (3461813.112807106 260775.2458087145),14652.241431570734,387,387,387
UGA,UG,5124.0,49707.0,49707.0,etejo p/s,58298.0,31.79802,3.52537,3,,,2011.0,,,50,0,,,50,0,,,50,0,,,1,16167,POINT (3539739.394634329 392690.2496428436),564.1084060435078,388,388,388
UGA,UG,5233.0,49816.0,49816.0,ewanga,,31.4792,3.6457,3,,,1998.0,7.0,17.0,66,14,,,66,0,,,66,0,,,3,30934,POINT (3504248.514579617 406111.5980851837),2950.0248936533176,389,389,389
UGA,UG,5131.0,49714.0,49714.0,fatima aloi demo,58392.0,33.140709,2.26912,3,,,2012.0,,,64,0,,,64,0,,,64,0,,,1,16323,POINT (3689206.850408059 252663.3397323763),4105.613608671216,390,390,390
UGA,UG,5216.0,49799.0,49799.0,flat valley p/s,59223.0,30.47477,1.13229,3,,,2011.0,,,48,0,,,48,0,,,48,0,,,1,17768,POINT (3392435.87844213 126054.1514481779),1470.3291191156113,391,391,391
UGA,UG,5201.0,49784.0,49784.0,galia,59091.0,30.861071,3.20331,3,,,2010.0,,,65,14,,,65,1,,,65,0,,,1,17517,POINT (3435438.709055062 356776.75164969),6064.416330221857,392,392,392
UGA,UG,5229.0,49812.0,49812.0,garama  p/s,59357.0,33.222401,1.39236,3,,,2011.0,,,50,0,,,50,0,,,50,0,,,1,18042,POINT (3698300.762249942 155012.0640542353),0.11131949070841074,393,393,395
UGA,UG,5229.0,49812.0,49812.0,garama com,59358.0,33.216949,1.3849200000000002,3,,,2011.0,,,50,1,,,50,0,,,50,0,,,1,18022,POINT (3697693.848386137 154183.60373519),1026.9156869086537,394,394,394
UGA,UG,5229.0,49812.0,49812.0,garama p/s,17926.0,33.2224,1.39236,3,,,2011.0,,,50,0,,,50,0,,,50,0,,,1,18027,POINT (3698300.650930452 155012.0640542353),0.11131949070841074,395,395,393
UGA,UG,5199.0,49782.0,49782.0,gbalala p/s,17705.0,31.77653,3.55613,3,,,2011.0,,,50,0,,,50,0,,,50,0,,,1,17430,POINT (3537347.138777182 396120.9860614244),4182.444316405656,396,396,396
UGA,UG,5183.0,49766.0,49766.0,gem,17534.0,32.88667,3.2884847,1,,,2008.0,,,61,0,,,61,0,,,61,0,,,1,17235,POINT (3660927.358286426 366273.5922813808),0.0,397,397,882
UGA,UG,5189.0,49772.0,49772.0,gem,,32.6501199,3.3786621,1,,,1998.0,7.0,12.0,60,11,,,60,0,,,60,0,,,3,30981,POINT (3634594.721607328 376329.1103685477),0.0,398,398,399
UGA,UG,5189.0,49772.0,49772.0,gem,,32.6501199,3.3786621,1,,,2009.0,5.0,18.0,61,0,,,61,0,,,61,0,,,1,29808,POINT (3634594.721607328 376329.1103685477),0.0,399,399,398
UGA,UG,5147.0,49730.0,49730.0,ggolo,58511.0,32.100113,0.15001699,3,,,2006.0,,,28,7,,,28,0,,,28,8,,,1,16524,POINT (3573368.233566541 16699.83401794816),11291.979080818322,400,400,400
UGA,UG,5205.0,49788.0,49788.0,gguline umba,,31.936399,0.29734001,3,,,2009.0,5.0,18.0,55,0,,,55,0,,,55,0,,,1,29760,POINT (3555143.674450811 33099.88707790904),0.0,401,401,402
UGA,UG,5205.0,49788.0,49788.0,gguline umba,17684.0,31.936399,0.29734001,3,,,2008.0,,,57,0,,,57,0,,,57,0,,,1,17564,POINT (3555143.674450811 33099.88707790904),0.0,402,402,401
UGA,UG,5170.0,49753.0,49753.0,gikoro,,29.7157,-1.23474,3,,,2005.0,5.0,16.0,60,2,,,60,45,,,60,32,,,2,31047,POINT (3307936.592565679 -137461.268308252),13603.709008181959,403,403,403
UGA,UG,5233.0,49816.0,49816.0,goboro p/s,17973.0,31.4539,3.63783,3,,,2011.0,,,50,0,,,50,0,,,50,0,,,1,18131,POINT (3501432.131462548 405233.7410290178),2950.0248936533176,404,404,404
UGA,UG,5221.0,49804.0,49804.0,gogonyo p/s,17869.0,33.596111,1.233889,1,,,2011.0,,,50,0,,,50,0,,,50,0,,,1,17872,POINT (3739901.969154297 137366.5134348275),4412.988446210658,405,405,405
UGA,UG,5224.0,49807.0,49807.0,goma,,31.7673,-0.91535,3,,,2008.0,6.0,16.0,18,5,,,18,6,,,18,10,,,1,29390,POINT (3536319.65987716 -101900.6306467302),23597.66579123514,406,406,406
UGA,UG,5218.0,49801.0,49801.0,goma central,,32.164001,2.611,3,,,1998.0,7.0,13.0,31,18,,,31,0,,,31,0,,,3,30853,POINT (3580480.213194341 290755.8421024791),1370.90153161612,407,407,407
UGA,UG,5232.0,49815.0,49815.0,gombe p/s,59384.0,32.31828,0.05568,3,,,2009.0,,,8,0,,,8,0,,,8,0,,,1,18092,POINT (3597654.472914437 6198.270222971298),3057.4269317619664,408,408,408
UGA,UG,5232.0,49815.0,49815.0,good day infant p/s,59385.0,32.36544,0.02942,3,,,2009.0,,,7,0,,,7,0,,,7,0,,,1,18094,POINT (3602904.300100248 3275.01956305052),2332.2061179333714,409,409,409
UGA,UG,5152.0,49735.0,49735.0,goodhope n and p/s,17293.0,31.80994,0.24968,3,,,2011.0,,,50,0,,,50,0,,,50,7,,,1,16586,POINT (3541066.322964585 27794.33842993417),0.0,410,410,411
UGA,UG,5152.0,49735.0,49735.0,goodhope n and p/s,58552.0,31.80994,0.24968,3,,,2011.0,,,50,0,,,50,0,,,50,3,,,1,16594,POINT (3541066.322964585 27794.33842993417),0.0,411,411,410
UGA,UG,5152.0,49735.0,49735.0,goodmary kayunga p/s,17294.0,32.9029088,0.7013707,1,,,2011.0,,,50,0,,,50,1,,,50,8,,,1,16587,POINT (3662735.05323352 78078.17917778251),0.0,412,412,413
UGA,UG,5152.0,49735.0,49735.0,goodmary kayunga p/s,58553.0,32.9029088,0.7013707,1,,,2011.0,,,50,0,,,50,1,,,50,2,,,1,16593,POINT (3662735.05323352 78078.17917778251),0.0,413,413,412
UGA,UG,5199.0,49782.0,49782.0,gopele p/s,17706.0,31.54347,3.2811699,3,,,2011.0,,,47,0,,,47,0,,,47,0,,,1,17439,POINT (3511403.018252901 365457.9724268207),930.4026785002026,414,414,414
UGA,UG,5218.0,49801.0,49801.0,gotapwoyo,,31.6423921,2.5662991,1,,,2009.0,5.0,18.0,51,0,,,51,0,,,51,0,,,1,29707,POINT (3522414.976053102 285774.6774541464),70.01633332775639,415,415,415
UGA,UG,5218.0,49801.0,49801.0,gotapwoyo p/s,59253.0,31.643021,2.5662899,3,,,2009.0,,,9,0,,,9,0,,,9,0,,,1,17834,POINT (3522484.984880862 285773.6522866721),0.0,416,416,417
UGA,UG,5218.0,49801.0,49801.0,gotapwoyo p/s,17836.0,31.643021,2.5662899,3,,,2008.0,,,65,0,,,65,0,,,65,0,,,1,17837,POINT (3522484.984880862 285773.6522866721),0.0,417,417,416
UGA,UG,5218.0,49801.0,49801.0,gotngur,,31.847401,2.5982000000000003,3,,,2009.0,5.0,18.0,60,0,,,60,0,,,60,0,,,1,29815,POINT (3545236.462409191 289329.4790767927),11.80838227313704,418,418,418
UGA,UG,5218.0,49801.0,49801.0,gotngur p/s,17837.0,31.84750255,2.598230625,3,,,2008.0,,,64,0,,,64,0,,,64,0,,,1,17827,POINT (3545247.766903481 289332.8917444812),11.80838227313704,419,419,419
UGA,UG,5176.0,49759.0,49759.0,greenland islamic,,32.5387,0.29815,3,,,2006.0,8.0,14.0,49,5,,,49,3,,,49,2,,,1,31126,POINT (3622191.51507509 33190.05596975647),1562.7897231905556,420,420,420
UGA,UG,5124.0,49707.0,49707.0,gulinya,,31.6564769,3.2869325,1,,,1998.0,8.0,16.0,59,45,,,59,0,,,59,0,,,3,31027,POINT (3523982.888817027 366100.5173110436),7220.356806780892,421,421,421
UGA,UG,5182.0,49765.0,49765.0,gwara p/s,58893.0,32.236839,2.20699,3,,,2011.0,,,50,0,,,50,0,,,50,0,,,1,17191,POINT (3588588.502264743 245741.7796592864),3097.943101909436,422,422,422
UGA,UG,5159.0,49741.0,49741.0,habutobore,,29.98993,-1.241956,1,,,2006.0,1.0,50.0,11,1,,,11,4,,,11,5,,,1,31139,POINT (3338463.736525919 -138264.7374103351),0.0,423,423,152
UGA,UG,5216.0,49799.0,49799.0,haibale p/s,17811.0,30.23983,1.04253,3,,,2011.0,,,29,0,,,29,0,,,29,0,,,1,17778,POINT (3366282.477275158 116060.3131054319),18.528152810925828,424,424,424
UGA,UG,5159.0,49741.0,49741.0,hamukaka i,,29.98993,-1.241956,1,,,2006.0,1.0,50.0,21,3,,,21,16,,,21,17,,,1,31133,POINT (3338463.736525919 -138264.7374103351),0.0,425,425,152
UGA,UG,5167.0,49750.0,49750.0,hamukungu com,58762.0,30.0751895,0.0100889999999999,1,,,2010.0,,,58,10,,,58,0,,,58,2,,,1,16979,POINT (3347954.780651208 1123.102348416633),0.0,426,426,427
UGA,UG,5167.0,49750.0,49750.0,hamukungu com,17472.0,30.0751895,0.0100889999999999,1,,,2010.0,,,67,10,,,67,0,,,67,2,,,1,16990,POINT (3347954.780651208 1123.102348416633),0.0,427,427,426
UGA,UG,5231.0,49814.0,49814.0,hasahya,17949.0,34.18085,0.6782273999999999,1,,,2005.0,,,30,6,,,30,0,,,30,0,,,2,18064,POINT (3804994.816881265 75501.69206820706),0.0,428,428,17
UGA,UG,5146.0,49729.0,49729.0,hasahya,,34.0951,0.98985,3,,,2005.0,5.0,16.0,57,12,,,57,0,,,57,1,,,2,30885,POINT (3795449.170545742 110195.0796617358),2508.0321347627505,429,429,429
UGA,UG,5157.0,49740.0,49740.0,hidden treasure wanyange p/s,58615.0,33.250092,0.46358001,3,,,2011.0,,,50,0,,,50,0,,,50,1,,,1,16702,POINT (3701383.310269499 51606.05371673422),216.96696379016956,430,430,430
UGA,UG,5176.0,49759.0,49759.0,hill preparatory,,32.609901,0.34367,3,,,2006.0,9.0,15.0,29,0,,,29,0,,,29,0,,,1,31127,POINT (3630117.574139063 38257.39880623663),1862.5749457962388,431,431,431
UGA,UG,5135.0,49718.0,49718.0,hindocha,,33.669998,0.58,3,,,1998.0,5.0,10.0,71,22,,,71,0,,,71,2,,,3,31687,POINT (3748127.03237054 64566.40739165514),7143.166633011853,432,432,432
UGA,UG,5206.0,49789.0,49789.0,hope nur & p/s,17719.0,32.14064,-0.05645,3,,,2011.0,,,50,0,,,50,0,,,50,1,,,1,17615,POINT (3577879.67856992 -6283.98627191999),0.0,433,433,434
UGA,UG,5206.0,49789.0,49789.0,hope nur & p/s,59125.0,32.14064,-0.05645,3,,,2011.0,,,50,0,,,50,0,,,50,0,,,1,17609,POINT (3577879.67856992 -6283.98627191999),0.0,434,434,433
UGA,UG,5176.0,49759.0,49759.0,hormisdallon,,32.576257,0.3614457,1,,,2006.0,10.0,14.0,57,0,,,57,0,,,57,3,,,1,31106,POINT (3626372.341190814 40236.21814860919),626.0981304660934,435,435,435
UGA,UG,5154.0,49737.0,49737.0,ibanda demonstration p/s,58589.0,30.4991209,-0.1167161999999999,1,,,2010.0,,,15,0,,,15,0,,,15,0,,,1,16667,POINT (3395146.608230488 -12992.79693737144),1834.7870517256165,436,436,436
UGA,UG,5199.0,49782.0,49782.0,iboa com,59051.0,31.738729,3.5385001,3,,,2011.0,,,53,0,,,53,0,,,53,0,,,1,17435,POINT (3533139.150705704 394154.6671824257),4644.736111298437,437,437,437
UGA,UG,5233.0,49816.0,49816.0,idrimari p/s,59414.0,31.32842,3.56053,3,,,2011.0,,,50,0,,,50,0,,,50,0,,,1,18122,POINT (3487463.761757808 396611.7379264986),9179.216861271545,438,438,438
UGA,UG,5199.0,49782.0,49782.0,idrimari p/s,17708.0,31.838169,3.560644,1,,,2011.0,,,50,0,,,50,0,,,50,0,,,1,17431,POINT (3544208.760870188 396624.4528923364),5390.150838527705,439,439,439
UGA,UG,5204.0,49787.0,49787.0,igambiro,,30.030001,-0.6000000000000001,3,,,1998.0,5.0,10.0,89,53,,,89,48,,,89,4,,,3,31693,POINT (3342924.419841496 -66792.91526425112),9504.12911399771,440,440,440
UGA,UG,5154.0,49737.0,49737.0,igorora town board com,58590.0,30.55,-0.216667,1,,,2010.0,,,62,5,,,62,0,,,62,0,,,1,16674,POINT (3400810.443734508 -24119.3175967095),0.0,441,441,442
UGA,UG,5154.0,49737.0,49737.0,igorora town board com,17333.0,30.55,-0.216667,1,,,2010.0,,,67,5,,,67,0,,,67,0,,,1,16671,POINT (3400810.443734508 -24119.3175967095),0.0,442,442,441
UGA,UG,5149.0,49732.0,49732.0,igwaya p/s,58523.0,33.317532,1.2594399,3,,,2011.0,,,51,0,,,51,0,,,51,0,,,1,16544,POINT (3708890.696728597 140211.5000572399),2841.4436762674914,443,443,443
UGA,UG,5149.0,49732.0,49732.0,ikanda p/s,58524.0,33.15,1.3,1,,,2011.0,,,51,0,,,51,0,,,51,0,,,1,16550,POINT (3690241.119797019 144727.7562884875),10781.193649646908,444,444,444
UGA,UG,5196.0,49779.0,49779.0,ikulwe,,33.471111,0.450833,1,,,2003.0,6.0,14.0,120,62,,,120,3,,,120,4,,,2,31068,POINT (3725987.032805138 50187.0178720554),1466.4084642244227,445,445,445
UGA,UG,5196.0,49779.0,49779.0,ikurwe,,33.481998,0.443417,3,,,2002.0,5.0,16.0,128,86,,,128,0,,,128,0,,,2,31060,POINT (3727198.968101404 49361.44738953196),1466.4084642244227,446,446,446
UGA,UG,5129.0,49712.0,49712.0,imvepi,,31.2782,3.2084,3,,,1998.0,9.0,15.0,60,48,,,60,0,,,60,6,,,3,30926,POINT (3481873.29693017 357344.2559712797),5819.280927144946,447,447,447
UGA,UG,5171.0,49754.0,49754.0,indiga,58802.0,31.0378091,3.535404,1,,,2010.0,,,66,9,,,66,0,,,66,0,,,1,17032,POINT (3455113.104350833 393809.3531591767),0.0,448,448,449
UGA,UG,5171.0,49754.0,49754.0,indiga,17560.0,31.0378091,3.535404,1,,,2010.0,,,62,8,,,62,0,,,62,0,,,1,17037,POINT (3455113.104350833 393809.3531591767),0.0,449,449,448
UGA,UG,5199.0,49782.0,49782.0,indilinga com,17709.0,31.54981,3.2297599,3,,,2011.0,,,50,0,,,50,0,,,50,0,,,1,17448,POINT (3512108.78382453 359725.786947063),1287.0443029857252,450,450,450
UGA,UG,5233.0,49816.0,49816.0,inia p7,,31.2173,3.4357800000000003,3,,,1998.0,10.0,15.0,63,40,,,63,0,,,63,11,,,3,30918,POINT (3475093.939940859 382698.7054199298),5024.566289756574,451,451,451
UGA,UG,5129.0,49712.0,49712.0,ipa,58361.0,31.098709,3.0639901,3,,,2010.0,,,67,5,,,67,0,,,67,0,,,1,16286,POINT (3461892.450208194 341244.5026897328),9903.676454206807,452,452,452
UGA,UG,5155.0,49738.0,49738.0,irenzi,,33.537857,0.7908280999999999,1,,,2009.0,5.0,18.0,56,23,,,56,0,,,56,0,,,1,29681,POINT (3733417.163537626 88037.37678219139),0.0,453,453,454
UGA,UG,5155.0,49738.0,49738.0,irenzi,17349.0,33.537857,0.7908280999999999,1,,,2008.0,,,66,37,,,66,0,,,66,0,,,1,16687,POINT (3733417.163537626 88037.37678219139),0.0,454,454,453
UGA,UG,5154.0,49737.0,49737.0,irimya p/s,58591.0,30.26957,-0.14544,3,,,2010.0,,,16,1,,,16,0,,,16,1,,,1,16665,POINT (3369593.11893135 -16190.32412806794),0.0,455,455,456
UGA,UG,5154.0,49737.0,49737.0,irimya p/s,17334.0,30.26957,-0.14544,3,,,2010.0,,,21,1,,,21,0,,,21,1,,,1,16649,POINT (3369593.11893135 -16190.32412806794),0.0,456,456,455
UGA,UG,5187.0,49770.0,49770.0,iringa p/s,17589.0,31.14558,0.5646300000000001,3,,,2010.0,,,17,4,,,17,0,,,17,0,,,1,17250,POINT (3467110.106061165 62855.34145229804),2944.9730308029248,457,457,457
UGA,UG,5155.0,49738.0,49738.0,irondo,,33.414101,0.57198,3,,,2009.0,5.0,18.0,59,4,,,59,0,,,59,0,,,1,29800,POINT (3719640.708635014 63673.57996001944),3039.6832848411786,458,458,458
UGA,UG,5209.0,49792.0,49792.0,irondo,17787.0,33.6948763,0.955063,1,,,2008.0,,,60,6,,,60,0,,,60,0,,,1,17684,POINT (3750896.472058341 106322.0506414182),4376.638807148704,459,459,459
UGA,UG,5196.0,49779.0,49779.0,irwaniro,,33.455299,0.52458,3,,,2009.0,5.0,18.0,57,6,,,57,0,,,57,0,,,1,29811,POINT (3724226.849016714 58396.79434661397),2457.844196972488,460,460,460
UGA,UG,5209.0,49792.0,49792.0,irwaniro,17788.0,33.76661,0.87482,3,,,2008.0,,,59,8,,,59,0,,,59,0,,,1,17688,POINT (3758881.83101506 97388.30097925116),3025.7428671486336,461,461,461
UGA,UG,5149.0,49732.0,49732.0,itamia p/s,58525.0,33.014439,1.35019,3,,,2011.0,,,51,0,,,51,0,,,51,0,,,1,16535,POINT (3675150.538305592 150316.3762380001),5334.914169875964,462,462,462
UGA,UG,5148.0,49731.0,49731.0,itojjwe,58514.0,33.321011,0.14796001,3,,,2009.0,,,6,0,,,6,0,,,6,0,,,1,16533,POINT (3709277.977237067 16470.85127760074),4833.481315503965,463,463,463
UGA,UG,5149.0,49732.0,49732.0,iyingo p/s,17285.0,33.3058194,1.3091153,1,,,2011.0,,,52,0,,,52,0,,,52,0,,,1,16542,POINT (3707586.856060732 145742.7299236589),5348.4435509835375,464,464,464
UGA,UG,5157.0,49740.0,49740.0,iziru,,33.283901,0.6479,3,,,1998.0,7.0,13.0,122,78,,,122,0,,,122,0,,,3,30959,POINT (3705146.910933729 72125.43522175912),4109.2891013406015,465,465,465
UGA,UG,5162.0,49745.0,49745.0,jaana,17414.0,32.5793569,-0.3179,3,,,2009.0,,,10,0,,,10,0,,,10,0,,,1,16831,POINT (3626717.420480324 -35388.64769549335),1365.7474175660402,466,466,466
UGA,UG,5167.0,49750.0,49750.0,jabezi p/s,58763.0,29.85755,-0.13791,3,,,2010.0,,,15,1,,,15,0,,,15,0,,,1,16991,POINT (3323727.262334705 -15352.08579920431),0.0,467,467,468
UGA,UG,5167.0,49750.0,49750.0,jabezi p/s,17473.0,29.85755,-0.13791,3,,,2010.0,,,18,1,,,18,0,,,18,0,,,1,16983,POINT (3323727.262334705 -15352.08579920431),0.0,468,468,467
UGA,UG,5232.0,49815.0,49815.0,jjanyi p/s,17962.0,32.552769,0.17439,3,,,2011.0,,,52,0,,,52,0,,,52,4,,,1,18109,POINT (3623757.668991061 19413.03597314405),0.0,469,469,470
UGA,UG,5232.0,49815.0,49815.0,jjanyi p/s,59386.0,32.552769,0.17439,3,,,2011.0,,,52,0,,,52,0,,,52,3,,,1,18103,POINT (3623757.668991061 19413.03597314405),0.0,470,470,469
UGA,UG,5127.0,49710.0,49710.0,juba road,,32.8805455,2.2528789,1,,,2009.0,5.0,18.0,64,0,,,64,0,,,64,0,,,1,29733,POINT (3660245.582065062 250853.9801232956),0.0,471,471,472
UGA,UG,5127.0,49710.0,49710.0,juba road,17150.0,32.8805455,2.2528789,1,,,2013.0,,,61,0,,,61,0,,,61,0,,,1,16202,POINT (3660245.582065062 250853.9801232956),0.0,472,472,471
UGA,UG,5127.0,49710.0,49710.0,juba road p/s,58325.0,32.8805455,2.2528789,1,,,2009.0,,,3,0,,,3,0,,,3,0,,,1,16203,POINT (3660245.582065062 250853.9801232956),0.0,473,473,471
UGA,UG,5127.0,49710.0,49710.0,juba road p/s,17151.0,32.8805455,2.2528789,1,,,2008.0,,,64,0,,,64,0,,,64,0,,,1,16215,POINT (3660245.582065062 250853.9801232956),0.0,474,474,471
UGA,UG,5162.0,49745.0,49745.0,kaagonya,17415.0,32.3,-0.3666666,3,,,2009.0,,,13,0,,,13,0,,,13,0,,,1,16841,POINT (3595619.552622736 -40817.41781065376),0.0,475,475,510
UGA,UG,5196.0,49779.0,49779.0,kaaza,17659.0,33.5827,0.1136,3,,,2009.0,,,25,6,,,25,2,,,25,4,,,1,17389,POINT (3738409.063463269 12645.90243945195),7509.087636660057,476,476,476
UGA,UG,5170.0,49753.0,49753.0,kabami,,29.7756,-1.34123,3,,,2005.0,5.0,16.0,56,1,,,56,26,,,56,30,,,2,30845,POINT (3314604.630064196 -149318.6784258813),2581.5873714128475,477,477,477
UGA,UG,5202.0,49785.0,49785.0,kabasese b,17639.0,32.013691,-0.27236,3,,,2009.0,,,10,0,,,10,4,,,10,3,,,1,17550,POINT (3563747.780533205 -30319.09069694881),0.0,478,478,479
UGA,UG,5202.0,49785.0,49785.0,kabasese b,59098.0,32.013691,-0.27236,3,,,2009.0,,,10,0,,,10,4,,,10,2,,,1,17545,POINT (3563747.780533205 -30319.09069694881),0.0,479,479,478
UGA,UG,5167.0,49742.0,49742.0,kabata,,30.2780145,0.4839613,1,,,2008.0,1.0,50.0,709,122,,,709,36,,,709,69,,,1,29856,POINT (3370533.156371354 53874.96612008619),0.0,480,480,481
UGA,UG,5167.0,49742.0,49742.0,kabata,58653.0,30.2780145,0.4839613,1,,,2006.0,,,25,7,,,25,2,,,25,1,,,1,16776,POINT (3370533.156371354 53874.96612008619),0.0,481,481,480
UGA,UG,5156.0,49739.0,49739.0,kaberebere,,30.693941,-0.6925945,1,,,1998.0,5.0,10.0,80,24,,,80,3,,,80,2,,,3,31695,POINT (3416833.882558782 -77101.14477257842),20807.65478062873,482,482,482
UGA,UG,5137.0,49720.0,49720.0,kabolwa,,31.422701,2.01975,3,,,2003.0,6.0,14.0,117,67,,,117,22,,,117,23,,,2,31071,POINT (3497959.074669288 224884.1218524667),9846.178060261398,483,483,483
UGA,UG,5227.0,49810.0,49810.0,kabos,17941.0,33.61113,1.7131812,1,,,2005.0,,,33,0,,,33,0,,,33,0,,,2,17998,POINT (3741573.876586522 190738.8825906001),0.0,484,484,1263
UGA,UG,5126.0,49709.0,49709.0,kabos,,33.428799,2.00963,3,,,2005.0,5.0,16.0,65,1,,,65,0,,,65,0,,,2,30900,POINT (3721276.882510692 223756.8717904067),7253.524368963987,485,485,485
UGA,UG,5229.0,49812.0,49812.0,kabos p/s,17927.0,33.25632,1.60508,3,,,2011.0,,,50,0,,,50,0,,,50,1,,,1,18034,POINT (3702076.60805816 178700.0631933192),0.0,486,486,487
UGA,UG,5229.0,49812.0,49812.0,kabos p/s,59359.0,33.25632,1.60508,3,,,2011.0,,,50,0,,,50,0,,,50,0,,,1,18040,POINT (3702076.60805816 178700.0631933192),0.0,487,487,486
UGA,UG,5138.0,49721.0,49721.0,kabuga p/s,17257.0,30.08138,0.78307,3,,,2011.0,,,49,0,,,49,0,,,49,2,,,1,16427,POINT (3348643.903958963 87173.66757357697),0.0,488,488,489
UGA,UG,5138.0,49721.0,49721.0,kabuga p/s,58445.0,30.08138,0.78307,3,,,2011.0,,,49,0,,,49,0,,,49,1,,,1,16430,POINT (3348643.903958963 87173.66757357697),0.0,489,489,488
UGA,UG,5187.0,49770.0,49770.0,kabweza p/s,58924.0,31.077259,0.44305,3,,,2010.0,,,18,6,,,18,0,,,18,2,,,1,17253,POINT (3459504.647130678 49320.59191394038),6212.529495981902,490,490,490
UGA,UG,5162.0,49745.0,49745.0,kachanga,58691.0,32.293839,-0.17993,3,,,2009.0,,,6,0,,,6,0,,,6,0,,,1,16847,POINT (3594933.713239959 -20029.74890045726),3423.9874268388025,491,491,491
UGA,UG,5224.0,49807.0,49807.0,kacheera,,31.130501,-0.58808,3,,,2009.0,5.0,60.0,45,16,,,45,0,,,45,3,,,1,29712,POINT (3465431.519459493 -65465.91560968039),2653.4792117425663,492,492,492
UGA,UG,5224.0,49807.0,49807.0,kacheera com,17877.0,31.1804403,-0.6234367,3,,,2008.0,,,56,31,,,56,0,,,56,4,,,1,17940,POINT (3470990.736906067 -69402.02549406116),6811.597436739972,493,493,493
UGA,UG,5133.0,49716.0,49716.0,kachomo,58401.0,33.9365511,1.1060081,1,,,2008.0,,,97,25,,,97,1,,,97,0,,,1,16344,POINT (3777799.587731909 123127.9054874192),0.0,494,494,495
UGA,UG,5133.0,49716.0,49716.0,kachomo,17192.0,33.9365511,1.1060081,1,,,2008.0,,,100,27,,,100,1,,,100,0,,,1,16348,POINT (3777799.587731909 123127.9054874192),0.0,495,495,494
UGA,UG,5146.0,49729.0,49729.0,kachonga,,34.1166667,0.9833333,1,,,2005.0,5.0,16.0,73,22,,,73,0,,,73,0,,,2,30984,POINT (3797849.964607833 109469.5363753421),0.0,496,496,497
UGA,UG,5231.0,49814.0,49814.0,kachonga,17950.0,34.1166667,0.9833333,1,,,2005.0,,,38,13,,,38,0,,,38,0,,,2,18058,POINT (3797849.964607833 109469.5363753421),0.0,497,497,496
UGA,UG,5136.0,49719.0,49719.0,kachumbala,,34.1191145,1.2136016,1,,,1998.0,5.0,10.0,75,39,,,75,6,,,75,2,,,3,31686,POINT (3798122.452457397 135107.6151723083),11289.093905810047,498,498,498
UGA,UG,5159.0,49741.0,49741.0,kadindimo p/s,17373.0,29.98993,-1.241956,1,,,2010.0,,,26,2,,,26,0,,,26,2,,,1,16743,POINT (3338463.736525919 -138264.7374103351),0.0,499,499,152
UGA,UG,5167.0,49742.0,49742.0,kadindimo p/s,58655.0,30.2748,0.4169135,1,,,2010.0,,,21,2,,,21,0,,,21,1,,,1,16797,POINT (3370175.319868199 46411.00808558008),3012.490712541581,500,500,500
UGA,UG,5208.0,49791.0,49791.0,kafo river,,32.040001,1.53913,3,,,1998.0,9.0,13.0,60,32,,,60,0,,,60,0,,,3,30927,POINT (3566676.596335975 171355.7779107666),1723.660434529499,501,501,501
UGA,UG,5162.0,49745.0,49745.0,kafuna,58692.0,32.3721562,-0.2639777,1,,,2009.0,,,11,0,,,11,0,,,11,0,,,1,16858,POINT (3603651.944064314 -29385.96710776009),856.5988186978481,502,502,502
UGA,UG,5154.0,49737.0,49737.0,kafunjo p/s,58592.0,30.443769,0.05122,3,,,2010.0,,,16,1,,,16,0,,,16,0,,,1,16656,POINT (3388984.862908047 5701.7850778717),0.0,503,503,504
UGA,UG,5154.0,49737.0,49737.0,kafunjo p/s,17335.0,30.443769,0.05122,3,,,2010.0,,,20,1,,,20,0,,,20,0,,,1,16662,POINT (3388984.862908047 5701.7850778717),0.0,504,504,503
UGA,UG,5225.0,49808.0,49808.0,kafuro p/s,59319.0,30.13585,-0.17779,3,,,2010.0,,,22,10,,,22,0,,,22,0,,,1,17973,POINT (3354707.476622474 -19791.52402939779),0.0,505,505,506
UGA,UG,5225.0,49808.0,49808.0,kafuro p/s,17890.0,30.13585,-0.17779,3,,,2010.0,,,30,10,,,30,0,,,30,0,,,1,17968,POINT (3354707.476622474 -19791.52402939779),0.0,506,506,505
UGA,UG,5208.0,49791.0,49791.0,kageri,,32.501701,1.3335,3,,,1998.0,7.0,13.0,50,33,,,50,1,,,50,0,,,3,30936,POINT (3618072.80523523 148457.9442985939),4865.513659347786,507,507,507
UGA,UG,5157.0,49740.0,49740.0,kagogwa p/s,58617.0,33.239029,0.53038001,3,,,2011.0,,,53,0,,,53,0,,,53,0,,,1,16696,POINT (3700151.782742853 59042.47586895069),5431.432906104001,508,508,508
UGA,UG,5162.0,49745.0,49745.0,kagolomolo,58693.0,32.199631,-0.31496,3,,,2009.0,,,6,3,,,6,0,,,6,0,,,1,16830,POINT (3584446.526651306 -35061.36340133537),1104.642129903075,509,509,509
UGA,UG,5162.0,49745.0,49745.0,kagonya,17417.0,32.3,-0.3666666,3,,,2009.0,,,10,1,,,10,0,,,10,1,,,1,16861,POINT (3595619.552622736 -40817.41781065376),0.0,510,510,475
UGA,UG,5217.0,49800.0,49800.0,kagyezi,17820.0,30.4609383,-1.0504024,3,,,2010.0,,,23,11,,,23,1,,,23,3,,,1,17815,POINT (3390896.140641324 -116936.8108541702),1765.2622183070544,511,511,511
UGA,UG,5167.0,49750.0,49750.0,kahendero com,58764.0,30.0500931,0.0559208,1,,,2010.0,,,64,15,,,64,0,,,64,1,,,1,16981,POINT (3345161.062182464 6225.075969066643),0.0,512,512,513
UGA,UG,5167.0,49750.0,49750.0,kahendero com,17474.0,30.0500931,0.0559208,1,,,2010.0,,,69,15,,,69,0,,,69,2,,,1,16976,POINT (3345161.062182464 6225.075969066643),0.0,513,513,512
UGA,UG,5167.0,49750.0,49750.0,kahendero p/s,58765.0,30.0511433,0.0603776,1,,,2010.0,,,23,0,,,23,0,,,23,0,,,1,16970,POINT (3345277.969911695 6721.204931267086),509.7169452626497,514,514,514
UGA,UG,5217.0,49800.0,49800.0,kahengyere,59234.0,30.4487074,-0.9049406,1,,,2010.0,,,21,18,,,21,0,,,21,0,,,1,17802,POINT (3389534.603081381 -100741.7153237339),0.0,515,515,516
UGA,UG,5217.0,49800.0,49800.0,kahengyere,17821.0,30.4487074,-0.9049406,1,,,2010.0,,,26,18,,,26,0,,,26,0,,,1,17820,POINT (3389534.603081381 -100741.7153237339),0.0,516,516,515
UGA,UG,5217.0,49800.0,49800.0,kahija,59235.0,30.41976,-0.90364,3,,,2010.0,,,18,8,,,18,0,,,18,0,,,1,17817,POINT (3386312.193253592 -100596.915159654),0.0,517,517,518
UGA,UG,5217.0,49800.0,49800.0,kahija,17822.0,30.41976,-0.90364,3,,,2010.0,,,23,8,,,23,0,,,23,0,,,1,17804,POINT (3386312.193253592 -100596.915159654),0.0,518,518,517
UGA,UG,5153.0,49736.0,49736.0,kaiso,17318.0,30.9661209,1.5301306,1,,,2013.0,,,55,0,,,55,0,,,55,0,,,1,16629,POINT (3447132.810430946 170353.609827344),0.0,519,519,520
UGA,UG,5153.0,49736.0,49736.0,kaiso com,17319.0,30.9661209,1.5301306,1,,,2011.0,,,45,4,,,45,0,,,45,0,,,1,16626,POINT (3447132.810430946 170353.609827344),0.0,520,520,519
UGA,UG,5153.0,49736.0,49736.0,kaiso p/s,17320.0,30.9661209,1.5301306,1,,,2011.0,,,49,0,,,49,0,,,49,0,,,1,16618,POINT (3447132.810430946 170353.609827344),0.0,521,521,519
UGA,UG,5146.0,49729.0,49729.0,kaiti,,34.0585732,1.016206,1,,,2009.0,5.0,18.0,59,8,,,59,0,,,59,0,,,1,29683,POINT (3791383.025769434 113129.4658187753),0.0,522,522,523
UGA,UG,5146.0,49729.0,49729.0,kaiti,17271.0,34.0585732,1.016206,1,,,2008.0,,,61,11,,,61,0,,,61,0,,,1,16508,POINT (3791383.025769434 113129.4658187753),0.0,523,523,522
UGA,UG,5181.0,49764.0,49764.0,kakagate,58874.0,30.93124,-0.54886,3,,,2010.0,,,17,4,,,17,0,,,17,1,,,1,17156,POINT (3443249.886404535 -61099.75019548903),0.0,524,524,525
UGA,UG,5181.0,49764.0,49764.0,kakagate,17506.0,30.93124,-0.54886,3,,,2010.0,,,23,4,,,23,0,,,23,1,,,1,17158,POINT (3443249.886404535 -61099.75019548903),0.0,525,525,524
UGA,UG,5200.0,49783.0,49783.0,kakaka,59070.0,32.764591,-0.040429998,3,,,2009.0,,,7,1,,,7,1,,,7,4,,,1,17476,POINT (3647337.586169874 -4500.647163628889),1228.5296785252979,526,526,526
UGA,UG,5187.0,49770.0,49770.0,kakasoro p/s,58925.0,31.17948,0.5158,3,,,2010.0,,,18,0,,,18,0,,,18,0,,,1,17267,POINT (3470883.836799057 57419.36893279034),2417.4657666989133,527,527,527
UGA,UG,5154.0,49737.0,49737.0,kakindo 1 p/s,58593.0,31.433333,1.466667,1,,,2010.0,,,16,4,,,16,0,,,16,0,,,1,16651,POINT (3499142.623495403 163286.4572603038),0.0,528,528,529
UGA,UG,5154.0,49737.0,49737.0,kakindo 1 p/s,17336.0,31.433333,1.466667,1,,,2010.0,,,21,4,,,21,0,,,21,0,,,1,16659,POINT (3499142.623495403 163286.4572603038),0.0,529,529,528
UGA,UG,5228.0,49811.0,49811.0,kakinga,,31.5409869,-0.2468682999999999,1,,,2009.0,5.0,18.0,50,4,,,50,0,,,50,0,,,1,29819,POINT (3511126.600825313 -27481.33847910117),0.0,530,530,531
UGA,UG,5228.0,49811.0,49811.0,kakinga,17907.0,31.5409869,-0.2468682999999999,1,,,2008.0,,,52,9,,,52,0,,,52,0,,,1,18011,POINT (3511126.600825313 -27481.33847910117),0.0,531,531,530
UGA,UG,5181.0,49764.0,49764.0,kakinga com,58875.0,30.9798,0.17377,3,,,2010.0,,,53,29,,,53,0,,,53,1,,,1,17173,POINT (3448655.560877456 19344.01757029448),0.0,532,532,533
UGA,UG,5181.0,49764.0,49764.0,kakinga com,17507.0,30.9798,0.17377,3,,,2010.0,,,60,29,,,60,0,,,60,1,,,1,17163,POINT (3448655.560877456 19344.01757029448),0.0,533,533,532
UGA,UG,5224.0,49807.0,49807.0,kakiri,,32.3915063,0.4190446,1,,,2009.0,5.0,18.0,60,3,,,60,1,,,60,4,,,1,29721,POINT (3605805.987343113 46648.24736517166),0.0,534,534,535
UGA,UG,5224.0,49807.0,49807.0,kakiri p/s,17878.0,32.3915063,0.4190446,1,,,2008.0,,,60,3,,,60,1,,,60,4,,,1,17947,POINT (3605805.987343113 46648.24736517166),0.0,535,535,534
UGA,UG,5207.0,49790.0,49790.0,kakondwe,,31.7285907,0.7860959,1,,,2009.0,5.0,18.0,41,0,,,41,0,,,41,0,,,1,29664,POINT (3532010.560312195 87510.54080444718),0.0,536,536,537
UGA,UG,5207.0,49790.0,49790.0,kakondwe,17734.0,31.7285907,0.7860959,1,,,2008.0,,,61,0,,,61,0,,,61,0,,,1,17647,POINT (3532010.560312195 87510.54080444718),0.0,537,537,536
UGA,UG,5208.0,49791.0,49791.0,kakooge,,32.463708,1.05116,1,,,1998.0,5.0,10.0,78,45,,,78,0,,,78,0,,,3,31696,POINT (3613843.443821521 117021.1606851353),0.0,538,538,539
UGA,UG,5149.0,49732.0,49732.0,kakooge p/s,58527.0,32.463708,1.05116,1,,,2011.0,,,49,0,,,49,1,,,49,0,,,1,16539,POINT (3613843.443821521 117021.1606851353),0.0,539,539,538
UGA,UG,5224.0,49807.0,49807.0,kakunyu,,31.575001,-0.7074,3,,,2009.0,5.0,18.0,57,11,,,57,1,,,57,2,,,1,29770,POINT (3514913.033117104 -78749.40850762173),1387.3392860938625,540,540,540
UGA,UG,5224.0,49807.0,49807.0,kakunyu p/s,17879.0,31.57497,0.7074,3,,,2008.0,,,59,13,,,59,2,,,59,3,,,1,17946,POINT (3514909.58221289 78749.40850762089),19214.600986630565,541,541,541
UGA,UG,5173.0,49756.0,49756.0,kakures,,33.916667,1.3,1,,,2009.0,5.0,18.0,59,1,,,59,0,,,59,0,,,1,29667,POINT (3775586.099845025 144727.7562884875),0.0,542,542,543
UGA,UG,5173.0,49756.0,49756.0,kakures,17584.0,33.916667,1.3,1,,,2008.0,,,60,1,,,60,0,,,60,0,,,1,17069,POINT (3775586.099845025 144727.7562884875),0.0,543,543,542
UGA,UG,5202.0,49785.0,49785.0,kakyanga,59099.0,32.02903,-0.27616999,3,,,2009.0,,,6,0,,,6,0,,,6,2,,,1,17542,POINT (3565455.310202483 -30743.22170295299),121.57615675984064,544,544,544
UGA,UG,5232.0,49815.0,49815.0,kakyanga,59387.0,32.36057,-0.01679,3,,,2009.0,,,9,3,,,9,2,,,9,1,,,1,18100,POINT (3602362.174180085 -1869.054277169718),878.6571081521585,545,545,545
UGA,UG,5163.0,49746.0,49746.0,kalalaka,58724.0,33.556728,1.11613,3,,,2009.0,,,99,23,,,99,0,,,99,1,,,1,16889,POINT (3735517.873648386 124254.8821316156),3070.558123005802,546,546,546
UGA,UG,5151.0,49734.0,49734.0,kalamanji,,32.547401,2.87378,3,,,2009.0,5.0,18.0,60,0,,,60,0,,,60,0,,,1,29795,POINT (3623160.105964483 320041.9435537784),0.0,547,547,548
UGA,UG,5151.0,49734.0,49734.0,kalamanji,17307.0,32.547401,2.87378,3,,,2008.0,,,66,0,,,66,0,,,66,0,,,1,16573,POINT (3623160.105964483 320041.9435537784),0.0,548,548,547
UGA,UG,5205.0,49788.0,49788.0,kalamba st. mary's,17685.0,32.5522542,0.3025570999999999,1,,,2013.0,,,64,8,,,64,1,,,64,1,,,1,17584,POINT (3623700.361717201 33680.65883867668),840.5554694507596,549,549,549
UGA,UG,5170.0,49753.0,49753.0,kalehe,,28.9048234,-2.0968724,1,,,2005.0,5.0,16.0,57,20,,,57,47,,,57,26,,,2,31053,POINT (3217670.222357498 -233474.8916370416),0.0,550,550,551
UGA,UG,5170.0,49753.0,49753.0,kalehe,17532.0,28.9048234,-2.0968724,1,,,2005.0,,,11,11,,,11,9,,,11,9,,,2,17021,POINT (3217670.222357498 -233474.8916370416),0.0,551,551,550
UGA,UG,5129.0,49712.0,49712.0,kaligo,,31.4,3.033333,1,,,1998.0,8.0,15.0,59,45,,,59,0,,,59,0,,,3,30925,POINT (3495432.01090879 337826.9330882946),3405.312333268442,552,552,552
UGA,UG,5165.0,49748.0,49748.0,kalitusi com,58748.0,30.45203,0.18709999,3,,,2010.0,,,64,11,,,64,0,,,64,0,,,1,16963,POINT (3389904.473221491 20827.9126308799),0.0,553,553,554
UGA,UG,5165.0,49748.0,49748.0,kalitusi com,17459.0,30.45203,0.18709999,3,,,2010.0,,,71,11,,,71,0,,,71,0,,,1,16940,POINT (3389904.473221491 20827.9126308799),0.0,554,554,553
UGA,UG,5207.0,49790.0,49790.0,kalonga,,31.85,0.588,3,,,1998.0,5.0,10.0,81,60,,,81,7,,,81,9,,,3,31683,POINT (3545525.781765764 65457.00958136609),3691.5070977157716,555,555,555
UGA,UG,5130.0,49713.0,49713.0,kalongo,,33.365447,3.0472417,1,,,1998.0,7.0,12.0,60,28,,,60,0,,,60,0,,,3,30965,POINT (3714224.570129958 339377.4248294103),32419.56752214235,556,556,556
UGA,UG,5214.0,49797.0,49797.0,kalotom,,34.472301,2.45252,3,,,1998.0,8.0,18.0,66,14,,,66,0,,,66,0,,,3,30875,POINT (3837438.993792455 273096.6862619864),8401.13778041846,557,557,557
